u,v,w,p,q,r,phi,theta,psi,roll_ctrl,pitch_ctrl,yaw_ctrl,throttle_ctrl,E,N,U,u_dot,v_dot,w_dot,p_dot,q_dot,r_dot,phi_dot,theta_dot,psi_dot,delta_a,delta_e,delta_r,delta_T,timestamp
55.0026,0.015895,0.398426,7.6419e-05,2.69528e-05,0.000681151,0.0104836,0.00254732,1.54663,-0.00455863,-0.169868,0,0.526934,360995,4.43639e+06,2437.83,-0.00354869,0.0292858,-0.0152762,-0.000748197,-0.000658235,0.000398943,7.81547e-05,1.98105e-05,0.000681399,0.0579473,0.871753,0.142631,0.763467,1613781479512593973
55.0026,0.015895,0.398426,7.6419e-05,2.69528e-05,0.000681151,0.0104836,0.00254732,1.54663,-0.0045775,-0.169886,0,0.527047,360995,4.43639e+06,2437.83,-0.00354869,0.0292858,-0.0152762,-0.000748197,-0.000658235,0.000398943,7.81547e-05,1.98105e-05,0.000681399,0.0579473,0.871753,0.142631,0.763523,1613781479522564659
55.0026,0.0157437,0.398189,6.23951e-05,1.40942e-05,0.000687598,0.0104848,0.00254749,1.54664,-0.0045775,-0.169918,0,0.526954,360996,4.43639e+06,2437.83,-0.00374356,0.02936,-0.0147338,-0.000761776,-0.000721327,0.000375357,6.4147e-05,6.88429e-06,0.00068771,0.0577776,0.87213,0.142616,0.763477,1613781479532627284
55.0026,0.0157437,0.398189,6.23951e-05,1.40942e-05,0.000687598,0.0104848,0.00254749,1.54664,-0.00459727,-0.169923,0,0.527081,360996,4.43639e+06,2437.83,-0.00374356,0.02936,-0.0147338,-0.000761776,-0.000721327,0.000375357,6.4147e-05,6.88429e-06,0.00068771,0.0577776,0.87213,0.142616,0.763541,1613781479542628616
55.0025,0.0155964,0.397968,4.89614e-05,1.97695e-06,0.000693231,0.0104856,0.00254745,1.54665,-0.00459727,-0.169955,0,0.52699,360997,4.43639e+06,2437.83,-0.00392517,0.0294314,-0.014153,-0.000789786,-0.000733553,0.000351966,5.07273e-05,-5.29196e-06,0.000693215,0.0575987,0.87238,0.142603,0.763495,1613781479552633820
55.0025,0.0155964,0.397968,4.89614e-05,1.97695e-06,0.000693231,0.0104856,0.00254745,1.54665,-0.00461556,-0.169955,0,0.527108,360997,4.43639e+06,2437.83,-0.00392517,0.0294314,-0.014153,-0.000789786,-0.000733553,0.000351966,5.07273e-05,-5.29196e-06,0.000693215,0.0575987,0.87238,0.142603,0.763554,1613781479562668635
55.0025,0.0155964,0.397968,4.89614e-05,1.97695e-06,0.000693231,0.0104856,0.00254745,1.54665,-0.00461556,-0.169988,0,0.527019,360997,4.43639e+06,2437.83,-0.00392517,0.0294314,-0.014153,-0.000789786,-0.000733553,0.000351966,5.07273e-05,-5.29196e-06,0.000693215,0.0575987,0.87238,0.142603,0.76351,1613781479572632732
55.0023,0.0151662,0.397259,1.54933e-05,-3.66452e-05,0.000708452,0.0104867,0.00254577,1.54669,-0.00461556,-0.170021,0,0.526931,360999,4.43639e+06,2437.83,-0.00425437,0.0295639,-0.0129309,-0.000507295,-0.000699368,0.000305481,1.72958e-05,-4.40723e-05,0.000708031,0.0574549,0.872782,0.142579,0.763466,1613781479582616190
55.0023,0.0151662,0.397259,1.54933e-05,-3.66452e-05,0.000708452,0.0104867,0.00254577,1.54669,-0.00466798,-0.169885,0,0.527513,360999,4.43639e+06,2437.83,-0.00425437,0.0295639,-0.0129309,-0.000507295,-0.000699368,0.000305481,1.72958e-05,-4.40723e-05,0.000708031,0.0574549,0.872782,0.142579,0.763756,1613781479592631563
55.0022,0.0149812,0.396998,-3.27652e-06,-3.81247e-05,0.000713564,0.0104867,0.00254489,1.5467,-0.00466798,-0.169921,0,0.527431,361000,4.43639e+06,2437.83,-0.00455721,0.0296944,-0.0112916,-0.000889037,-6.1834e-05,0.000257392,-1.46169e-06,-4.56054e-05,0.000713127,0.0569605,0.871589,0.142557,0.763715,1613781479602600204
55.0021,0.0148554,0.396826,-1.61954e-05,-4.24055e-05,0.000716651,0.0104866,0.00254426,1.54671,-0.00468987,-0.170006,0,0.527691,361001,4.43639e+06,2437.83,-0.00467534,0.0297566,-0.0109122,-0.000948805,-0.000304445,0.000235152,-1.43733e-05,-4.99182e-05,0.000716169,0.0567628,0.872358,0.142548,0.763845,1613781479612767998
55.0021,0.014795,0.396748,-2.24122e-05,-4.49956e-05,0.000717989,0.0104865,0.00254395,1.54671,-0.00470459,-0.170048,0,0.52783,361001,4.43639e+06,2437.83,-0.00471821,0.0297788,-0.0107899,-0.000951403,-0.000391727,0.000217865,-2.0587e-05,-5.25221e-05,0.00071748,0.0566328,0.872712,0.142542,0.763915,1613781479622625064
55.002,0.014742,0.396671,-2.80069e-05,-4.72991e-05,0.00071927,0.0104863,0.00254363,1.54672,-0.00471133,-0.170082,0,0.52785,361002,4.43639e+06,2437.83,-0.00475549,0.0298032,-0.0105492,-0.000951403,-0.000391727,0.000217865,-2.61787e-05,-5.48389e-05,0.000718737,0.0566328,0.872712,0.142542,0.763925,1613781479632640096
55.0019,0.0145997,0.396484,-4.16448e-05,-5.58409e-05,0.000722141,0.0104858,0.00254277,1.54673,-0.00471766,-0.170118,0,0.527879,361003,4.43639e+06,2437.83,-0.00483242,0.029852,-0.0102254,-0.00090984,-0.000576693,0.000198693,-3.98102e-05,-6.34099e-05,0.000721518,0.05652,0.873332,0.142535,0.76394,1613781479642597963
55.0019,0.0144802,0.396332,-5.30466e-05,-6.19037e-05,0.000724283,0.0104853,0.00254199,1.54674,-0.00473377,-0.170123,0,0.528041,361003,4.43639e+06,2437.83,-0.00490238,0.0298965,-0.00974214,-0.000938217,-0.000504086,0.000180683,-5.12073e-05,-6.94945e-05,0.000723596,0.056376,0.873305,0.14253,0.764021,1613781479652601194
55.0018,0.0143358,0.396142,-6.70852e-05,-6.94593e-05,0.000726708,0.0104844,0.00254091,1.54675,-0.00474715,-0.170145,0,0.528179,361004,4.43639e+06,2437.83,-0.0049663,0.029937,-0.00928261,-0.000913017,-0.000496484,0.000163916,-6.52406e-05,-7.70744e-05,0.000725942,0.0562602,0.873445,0.142525,0.764089,1613781479662634065
55.0018,0.0143358,0.396142,-6.70852e-05,-6.94593e-05,0.000726708,0.0104844,0.00254091,1.54675,-0.00476288,-0.170156,0,0.52837,361004,4.43639e+06,2437.83,-0.0049663,0.029937,-0.00928261,-0.000913017,-0.000496484,0.000163916,-6.52406e-05,-7.70744e-05,0.000725942,0.0562602,0.873445,0.142525,0.764185,1613781479672598178
55.0017,0.0141629,0.395909,-8.3784e-05,-8.049e-05,0.000729296,0.010483,0.0025394,1.54676,-0.00476288,-0.170198,0,0.528302,361005,4.43639e+06,2437.83,-0.00503587,0.0299894,-0.00878892,-0.00087165,-0.000586998,0.000140985,-8.19343e-05,-8.81307e-05,0.000728414,0.0561246,0.873874,0.142519,0.764151,1613781479682604930
55.0017,0.0141629,0.395909,-8.3784e-05,-8.049e-05,0.000729296,0.010483,0.0025394,1.54676,-0.00478216,-0.170179,0,0.528544,361005,4.43639e+06,2437.83,-0.00503587,0.0299894,-0.00878892,-0.00087165,-0.000586998,0.000140985,-8.19343e-05,-8.81307e-05,0.000728414,0.0561246,0.873874,0.142519,0.764272,1613781479692567099
55.0016,0.0139789,0.395672,-0.000100701,-9.08208e-05,0.000731483,0.0104813,0.00253768,1.54677,-0.00478216,-0.17022,0,0.52848,361006,4.43639e+06,2437.83,-0.00510218,0.0300461,-0.00814069,-0.000864627,-0.000539584,0.000114816,-9.88473e-05,-9.84825e-05,0.000730493,0.0559553,0.873979,0.142514,0.76424,1613781479702562770
55.0016,0.0139789,0.395672,-0.000100701,-9.08208e-05,0.000731483,0.0104813,0.00253768,1.54677,-0.00480146,-0.170203,0,0.52873,361006,4.43639e+06,2437.83,-0.00510218,0.0300461,-0.00814069,-0.00102382,-0.00040598,0.000103865,-9.88473e-05,-9.84825e-05,0.000730493,0.0557726,0.873759,0.142512,0.764365,1613781479712568956
55.0015,0.0138236,0.395477,-0.000115237,-9.66145e-05,0.000732973,0.0104796,0.00253612,1.54678,-0.00480146,-0.170246,0,0.528668,361007,4.43639e+06,2437.83,-0.00515244,0.0300914,-0.00745974,-0.000892242,-0.000357708,9.26304e-05,-0.000113381,-0.00010429,0.000731923,0.0557838,0.87372,0.14251,0.764334,1613781479722569037
55.0015,0.0138236,0.395477,-0.000115237,-9.66145e-05,0.000732973,0.0104796,0.00253612,1.54678,-0.00481805,-0.170257,0,0.528878,361007,4.43639e+06,2437.83,-0.00515244,0.0300914,-0.00745974,-0.000892242,-0.000357708,9.26304e-05,-0.000113381,-0.00010429,0.000731923,0.0557838,0.87372,0.14251,0.764439,1613781479732562084
55.0014,0.0135732,0.395167,-0.000136602,-0.000111967,0.000734686,0.0104766,0.00253339,1.5468,-0.00481805,-0.170299,0,0.528819,361008,4.43639e+06,2437.83,-0.00519868,0.0301516,-0.00695337,-0.000803667,-0.000595577,6.25817e-05,-0.000134744,-0.000119658,0.000733475,0.055644,0.87456,0.142506,0.76441,1613781479742565343
55.0013,0.013459,0.395034,-0.000147158,-0.00011442,0.000735149,0.0104751,0.0025321,1.54681,-0.00484391,-0.170234,0,0.529177,361009,4.43639e+06,2437.83,-0.00522938,0.0301944,-0.00613479,-0.000950237,-0.000221557,3.89086e-05,-0.0001453,-0.000122114,0.000733913,0.0554058,0.873822,0.142504,0.764589,1613781479752564046
55.0012,0.0133104,0.394856,-0.000161136,-0.000118466,0.000735544,0.0104728,0.0025303,1.54682,-0.00485537,-0.170262,0,0.529319,361009,4.43639e+06,2437.83,-0.00524053,0.0302255,-0.00574983,-0.000907746,-0.000256504,2.1663e-05,-0.000159278,-0.000126163,0.000734265,0.0553088,0.874043,0.142503,0.76466,1613781479762645234
55.0012,0.0133104,0.394856,-0.000161136,-0.000118466,0.000735544,0.0104728,0.0025303,1.54682,-0.00487049,-0.170276,0,0.52954,361009,4.43639e+06,2437.83,-0.00524053,0.0302255,-0.00574983,-0.000907746,-0.000256504,2.1663e-05,-0.000159278,-0.000126163,0.000734265,0.0553088,0.874043,0.142503,0.76477,1613781479772634463
55.0011,0.0131296,0.394651,-0.000177022,-0.000125418,0.000735668,0.0104699,0.00252811,1.54683,-0.00487049,-0.170319,0,0.52949,361010,4.43639e+06,2437.83,-0.00524792,0.0302619,-0.00532669,-0.000874987,-0.000382178,3.08079e-07,-0.000175166,-0.000133114,0.000734317,0.0551786,0.874528,0.142502,0.764745,1613781479782802917
55.0011,0.0131296,0.394651,-0.000177022,-0.000125418,0.000735668,0.0104699,0.00252811,1.54683,-0.00488791,-0.170311,0,0.529761,361010,4.43639e+06,2437.83,-0.00524792,0.0302619,-0.00532669,-0.000874987,-0.000382178,3.08079e-07,-0.000175166,-0.000133114,0.000734317,0.0551786,0.874528,0.142502,0.764881,1613781479792624794
55.001,0.0129609,0.394451,-0.000192503,-0.000132766,0.00073541,0.0104669,0.00252584,1.54684,-0.00488791,-0.170355,0,0.529715,361011,4.43639e+06,2437.83,-0.0052467,0.030297,-0.00482617,-0.000874826,-0.000417519,-2.22909e-05,-0.000190649,-0.000140456,0.000733983,0.0550261,0.874803,0.142503,0.764858,1613781479802678362
55.001,0.0129609,0.394451,-0.000192503,-0.000132766,0.00073541,0.0104669,0.00252584,1.54684,-0.00490534,-0.170333,0,0.529964,361011,4.43639e+06,2437.83,-0.0052467,0.030297,-0.00482617,-0.000874826,-0.000417519,-2.22909e-05,-0.000190649,-0.000140456,0.000733983,0.0550261,0.874803,0.142503,0.764982,1613781479812641372
55.001,0.0129609,0.394451,-0.000192503,-0.000132766,0.00073541,0.0104669,0.00252584,1.54684,-0.00490534,-0.170376,0,0.529921,361011,4.43639e+06,2437.83,-0.0052467,0.030297,-0.00482617,-0.000874826,-0.000417519,-2.22909e-05,-0.000190649,-0.000140456,0.000733983,0.0550261,0.874803,0.142503,0.76496,1613781479822646300
55.0008,0.0125559,0.393955,-0.000225638,-0.000154343,0.000733636,0.0104583,0.00251962,1.54687,-0.00490534,-0.170419,0,0.529877,361013,4.43639e+06,2437.83,-0.0052275,0.0303484,-0.00391246,-0.000663867,-0.000462738,-5.98464e-05,-0.000223794,-0.000162007,0.000731984,0.0548901,0.875273,0.142504,0.764939,1613781479832607188
55.0007,0.012414,0.393802,-0.000239703,-0.000149031,0.000732391,0.010455,0.0025174,1.54688,-0.00494461,-0.170246,0,0.530546,361014,4.43639e+06,2437.83,-0.00519105,0.0303842,-0.00252733,-0.000945977,0.000371218,-9.36126e-05,-0.000237864,-0.00015668,0.000730795,0.0545253,0.873448,0.142508,0.765273,1613781479842634189
55.0006,0.0123055,0.393687,-0.000250517,-0.000147935,0.000731271,0.0104524,0.00251573,1.54689,-0.00495841,-0.17032,0,0.530807,361015,4.43639e+06,2437.83,-0.00515672,0.0304005,-0.00234861,-0.000958143,0.000119621,-0.000108153,-0.000248681,-0.00015557,0.000729687,0.0544045,0.874161,0.142511,0.765404,1613781479852644235
55.0006,0.0123055,0.393687,-0.000250517,-0.000147935,0.000731271,0.0104524,0.00251573,1.54689,-0.0049685,-0.17036,0,0.530979,361015,4.43639e+06,2437.83,-0.00515672,0.0304005,-0.00234861,-0.000958143,0.000119621,-0.000108153,-0.000248681,-0.00015557,0.000729687,0.0544045,0.874161,0.142511,0.76549,1613781479862603974
55.0005,0.0120951,0.393468,-0.000269958,-0.000151413,0.000728781,0.0104469,0.00251244,1.54691,-0.0049685,-0.170402,0,0.530948,361016,4.43639e+06,2437.83,-0.00510605,0.0304198,-0.0020714,-0.000842748,-0.000131938,-0.000127706,-0.000268131,-0.000159018,0.000727162,0.0543258,0.874928,0.142515,0.765474,1613781479872571798
55.0005,0.0120951,0.393468,-0.000269958,-0.000151413,0.000728781,0.0104469,0.00251244,1.54691,-0.00498901,-0.170392,0,0.531309,361016,4.43639e+06,2437.83,-0.00510605,0.0304198,-0.0020714,-0.000842748,-0.000131938,-0.000127706,-0.000268131,-0.000159018,0.000727162,0.0543258,0.874928,0.142515,0.765655,1613781479882578516
55.0004,0.011937,0.393303,-0.000285344,-0.000154407,0.000726465,0.0104424,0.00250983,1.54692,-0.00498901,-0.170432,0,0.531282,361017,4.43639e+06,2437.83,-0.00503955,0.0304335,-0.00159748,-0.000885454,-0.000161588,-0.000148218,-0.000283525,-0.000161984,0.000724815,0.0541443,0.875161,0.14252,0.765641,1613781479892629643
55.0003,0.011804,0.393165,-0.000298642,-0.000155786,0.00072421,0.0104382,0.00250754,1.54693,-0.00500396,-0.17043,0,0.53156,361018,4.43639e+06,2437.83,-0.0049749,0.0304382,-0.00114737,-0.000888033,-8.19233e-05,-0.000163604,-0.000296831,-0.000163337,0.000722547,0.0540146,0.875089,0.142525,0.76578,1613781479902607860
55.0003,0.011804,0.393165,-0.000298642,-0.000155786,0.00072421,0.0104382,0.00250754,1.54693,-0.00501705,-0.170437,0,0.531791,361018,4.43639e+06,2437.83,-0.0049749,0.0304382,-0.00114737,-0.000888033,-8.19233e-05,-0.000163604,-0.000296831,-0.000163337,0.000722547,0.0540146,0.875089,0.142525,0.765896,1613781479912635473
55.0003,0.0116818,0.393036,-0.000311204,-0.000157822,0.000721838,0.0104341,0.00250532,1.54694,-0.00501705,-0.170477,0,0.53177,361018,4.43639e+06,2437.83,-0.00490933,0.0304483,-0.00088518,-0.000875909,-0.000219753,-0.00018045,-0.0003094,-0.000165345,0.000720155,0.0539017,0.875524,0.14253,0.765885,1613781479922598412
55.0002,0.0115291,0.392898,-0.000324497,-0.000160456,0.00071905,0.0104294,0.00250287,1.54695,-0.00502872,-0.170482,0,0.531997,361019,4.43639e+06,2437.83,-0.00483701,0.030452,-0.000486449,-0.000847599,-0.000162061,-0.00019589,-0.000322702,-0.000167946,0.00071734,0.0538032,0.875518,0.142536,0.765999,1613781479932593083
55.0002,0.0115291,0.392898,-0.000324497,-0.000160456,0.00071905,0.0104294,0.00250287,1.54695,-0.00504229,-0.170477,0,0.532237,361019,4.43639e+06,2437.83,-0.00483701,0.030452,-0.000486449,-0.000847599,-0.000162061,-0.00019589,-0.000322702,-0.000167946,0.00071734,0.0538032,0.875518,0.142536,0.766118,1613781479942572815
55.0001,0.011375,0.392744,-0.00033926,-0.000164663,0.000715611,0.0104239,0.00250004,1.54696,-0.00504229,-0.170517,0,0.53222,361020,4.43639e+06,2437.83,-0.00475236,0.0304531,-0.000155238,-0.000828082,-0.000229926,-0.000212572,-0.000337475,-0.000172113,0.000713857,0.0536871,0.87582,0.142543,0.76611,1613781479952609928
55.0001,0.011375,0.392744,-0.00033926,-0.000164663,0.000715611,0.0104239,0.00250004,1.54696,-0.00505641,-0.170492,0,0.532483,361020,4.43639e+06,2437.83,-0.00475236,0.0304531,-0.000155238,-0.000828082,-0.000229926,-0.000212572,-0.000337475,-0.000172113,0.000713857,0.0536871,0.87582,0.142543,0.766242,1613781479962611382
55.0001,0.011375,0.392744,-0.00033926,-0.000164663,0.000715611,0.0104239,0.00250004,1.54696,-0.00505641,-0.170533,0,0.53247,361020,4.43639e+06,2437.83,-0.00475236,0.0304531,-0.000155238,-0.000828082,-0.000229926,-0.000212572,-0.000337475,-0.000172113,0.000713857,0.0536871,0.87582,0.142543,0.766235,1613781479972644156
55,0.0111495,0.392499,-0.000362854,-0.000175501,0.000710107,0.0104148,0.00249544,1.54698,-0.00505641,-0.170575,0,0.532456,361021,4.43639e+06,2437.83,-0.00470555,0.0304506,-0.000100051,-0.000535793,-0.000269664,-0.000247912,-0.000361087,-0.000182887,0.000708243,0.053589,0.876251,0.142559,0.766228,1613781479982599729
54.9998,0.0109311,0.392264,-0.000376316,-0.000182277,0.000703878,0.0104054,0.00249068,1.547,-0.0050778,-0.170462,0,0.53286,361023,4.43639e+06,2437.83,-0.00455192,0.0304434,0.000702411,-0.000535793,-0.000269664,-0.000247912,-0.000374568,-0.000189591,0.000701946,0.053589,0.876251,0.142559,0.76643,1613781479992625478
54.9997,0.0107738,0.392121,-0.000393732,-0.00016938,0.000698637,0.010398,0.00248724,1.54701,-0.00509777,-0.170373,0,0.533266,361024,4.43639e+06,2437.83,-0.00433122,0.030407,0.00211825,-0.00084138,0.000656655,-0.000277442,-0.000391999,-0.000176635,0.000696841,0.0532066,0.874167,0.142579,0.766633,1613781480002600889
54.9997,0.0106821,0.392037,-0.000404503,-0.000165758,0.000695232,0.0103933,0.00248518,1.54702,-0.00511288,-0.170462,0,0.533618,361025,4.43639e+06,2437.83,-0.00421366,0.0303938,0.00218216,-0.000865871,0.000321103,-0.000290942,-0.000402779,-0.000172975,0.000693474,0.0530745,0.875058,0.142588,0.766809,1613781480012602969
54.9997,0.0106821,0.392037,-0.000404503,-0.000165758,0.000695232,0.0103933,0.00248518,1.54702,-0.00512119,-0.170497,0,0.533816,361025,4.43639e+06,2437.83,-0.00421366,0.0303938,0.00218216,-0.000865871,0.000321103,-0.000290942,-0.000402779,-0.000172975,0.000693474,0.0530745,0.875058,0.142588,0.766908,1613781480022608706
54.9996,0.0105422,0.391917,-0.000419353,-0.000164931,0.000690092,0.0103861,0.0024822,1.54703,-0.00512119,-0.170534,0,0.533817,361025,4.43639e+06,2437.83,-0.00409711,0.0303714,0.00228415,-0.000791672,6.74729e-05,-0.000300994,-0.000417644,-0.000172089,0.000688344,0.0530099,0.875764,0.142598,0.766908,1613781480032686679
54.9996,0.0105422,0.391917,-0.000419353,-0.000164931,0.000690092,0.0103861,0.0024822,1.54703,-0.00513369,-0.170531,0,0.534088,361025,4.43639e+06,2437.83,-0.00409711,0.0303714,0.00228415,-0.000791672,6.74729e-05,-0.000300994,-0.000417644,-0.000172089,0.000688344,0.0530099,0.875764,0.142598,0.767044,1613781480042645165
54.9996,0.0105422,0.391917,-0.000419353,-0.000164931,0.000690092,0.0103861,0.0024822,1.54703,-0.00513369,-0.170566,0,0.534092,361025,4.43639e+06,2437.83,-0.00409711,0.0303714,0.00228415,-0.000791672,6.74729e-05,-0.000300994,-0.000417644,-0.000172089,0.000688344,0.0530099,0.875764,0.142598,0.767046,1613781480052615699
54.9994,0.0102765,0.391673,-0.000446303,-0.000170124,0.000678903,0.0103705,0.00247593,1.54705,-0.00513369,-0.170601,0,0.534096,361027,4.43639e+06,2437.83,-0.00387705,0.0303279,0.00266824,-0.000627836,-0.000104864,-0.000321272,-0.000444627,-0.000177155,0.000677105,0.0529168,0.876365,0.142616,0.767048,1613781480062599684
54.9994,0.0101752,0.391595,-0.000457232,-0.000164555,0.00067436,0.0103644,0.00247359,1.54706,-0.0051585,-0.170488,0,0.53463,361028,4.43639e+06,2437.83,-0.00366835,0.0302794,0.00342302,-0.000770601,0.000405596,-0.000339289,-0.000455568,-0.000171536,0.00067262,0.0526919,0.875213,0.142633,0.767315,1613781480072621704
54.9993,0.010109,0.391537,-0.000465633,-0.000161931,0.000670737,0.0103595,0.00247181,1.54707,-0.00516736,-0.17053,0,0.53485,361029,4.43639e+06,2437.83,-0.00355792,0.0302507,0.00350012,-0.000763534,0.000257568,-0.000345673,-0.000463979,-0.000168871,0.000669025,0.0526167,0.875622,0.142642,0.767425,1613781480082591153
54.9993,0.010109,0.391537,-0.000465633,-0.000161931,0.000670737,0.0103595,0.00247181,1.54707,-0.0051736,-0.170552,0,0.535015,361029,4.43639e+06,2437.83,-0.00355792,0.0302507,0.00350012,-0.000763534,0.000257568,-0.000345673,-0.000463979,-0.000168871,0.000669025,0.0526167,0.875622,0.142642,0.767508,1613781480092598536
54.9993,0.0100025,0.391459,-0.000476536,-0.000161323,0.000665709,0.0103527,0.0024694,1.54708,-0.0051736,-0.170586,0,0.535028,361030,4.43639e+06,2437.83,-0.00344186,0.0302224,0.00354682,-0.000712975,5.62681e-05,-0.0003538,-0.000474896,-0.000168206,0.000664005,0.0525681,0.876175,0.142652,0.767514,1613781480102564332
54.9993,0.0100025,0.391459,-0.000476536,-0.000161323,0.000665709,0.0103527,0.0024694,1.54708,-0.00518245,-0.170582,0,0.535242,361030,4.43639e+06,2437.83,-0.00344186,0.0302224,0.00354682,-0.000777215,8.91787e-05,-0.000358417,-0.000474896,-0.000168206,0.000664005,0.0524866,0.876125,0.142658,0.767621,1613781480112570672
54.9992,0.0098923,0.391366,-0.000489642,-0.000159545,0.000659154,0.0103439,0.00246637,1.54709,-0.00518245,-0.170614,0,0.535257,361031,4.43639e+06,2437.83,-0.00328707,0.0301811,0.0038164,-0.000666488,0.000106724,-0.000363662,-0.00048802,-0.000166354,0.00065747,0.0524967,0.876117,0.142665,0.767628,1613781480122637062
54.9992,0.0098923,0.391366,-0.000489642,-0.000159545,0.000659154,0.0103439,0.00246637,1.54709,-0.00519327,-0.170605,0,0.535516,361031,4.43639e+06,2437.83,-0.00328707,0.0301811,0.0038164,-0.000666488,0.000106724,-0.000363662,-0.00048802,-0.000166354,0.00065747,0.0524967,0.876117,0.142665,0.767758,1613781480132614931
54.9991,0.00976061,0.391262,-0.00050392,-0.000161378,0.000651501,0.0103336,0.0024629,1.5471,-0.00519327,-0.170638,0,0.535533,361032,4.43639e+06,2437.83,-0.00309769,0.0301258,0.00395875,-0.000628428,-6.87355e-05,-0.000374191,-0.00050232,-0.000168102,0.000649801,0.0524078,0.876644,0.142681,0.767767,1613781480142601654
54.9991,0.00969855,0.391212,-0.000511524,-0.000159518,0.000647338,0.010328,0.00246107,1.54711,-0.00520498,-0.170586,0,0.535807,361032,4.43639e+06,2437.83,-0.0029414,0.0300726,0.00431515,-0.000664475,0.000169003,-0.000380453,-0.000509935,-0.000166195,0.000645658,0.0523053,0.876117,0.142694,0.767904,1613781480152659527
54.9991,0.00965221,0.391175,-0.000517556,-0.000158328,0.000644066,0.0103236,0.00245966,1.54712,-0.00521072,-0.170595,0,0.535958,361033,4.43639e+06,2437.83,-0.00288669,0.0300549,0.00435902,-0.000607724,0.000154218,-0.000386709,-0.000515976,-0.000164969,0.000642399,0.0522615,0.876201,0.142706,0.767979,1613781480162628243
54.999,0.0095983,0.391139,-0.000522753,-0.000157009,0.000640759,0.0103192,0.00245826,1.54712,-0.00521553,-0.170606,0,0.536077,361033,4.43639e+06,2437.83,-0.00279913,0.0300265,0.00447682,-0.000607724,0.000154218,-0.000386709,-0.000521182,-0.000163613,0.000639107,0.0522615,0.876201,0.142706,0.768039,1613781480172637432
54.999,0.00950983,0.391069,-0.000533749,-0.000155631,0.000633973,0.01031,0.00245545,1.54713,-0.00521998,-0.170618,0,0.536201,361034,4.43639e+06,2437.83,-0.00262365,0.0299682,0.00462281,-0.000590246,8.93788e-05,-0.000394568,-0.000532197,-0.000162159,0.000632337,0.0521844,0.876419,0.14272,0.7681,1613781480182634201
54.999,0.00950983,0.391069,-0.000533749,-0.000155631,0.000633973,0.01031,0.00245545,1.54713,-0.00522788,-0.170596,0,0.536417,361034,4.43639e+06,2437.83,-0.00262365,0.0299682,0.00462281,-0.000590246,8.93788e-05,-0.000394568,-0.000532197,-0.000162159,0.000632337,0.0521844,0.876419,0.14272,0.768209,1613781480192597003
54.9989,0.0094202,0.391005,-0.000543967,-0.000154191,0.000627288,0.010301,0.00245275,1.54714,-0.00522788,-0.170624,0,0.536443,361035,4.43639e+06,2437.83,-0.00244743,0.0299009,0.00480034,-0.000569561,9.3204e-05,-0.000399222,-0.000542433,-0.000160645,0.000625668,0.0521203,0.876465,0.142735,0.768221,1613781480202598902
54.9989,0.00934852,0.390951,-0.000553431,-0.000151153,0.000620841,0.0102922,0.00245022,1.54715,-0.00523648,-0.170604,0,0.536639,361036,4.43639e+06,2437.83,-0.0022775,0.0298386,0.00502543,-0.0005572,0.000192992,-0.000405496,-0.000551914,-0.000157534,0.000619254,0.0520479,0.876261,0.14275,0.768319,1613781480212628536
54.9989,0.00934852,0.390951,-0.000553431,-0.000151153,0.000620841,0.0102922,0.00245022,1.54715,-0.00524264,-0.170598,0,0.536834,361036,4.43639e+06,2437.83,-0.0022775,0.0298386,0.00502543,-0.0005572,0.000192992,-0.000405496,-0.000551914,-0.000157534,0.000619254,0.0520479,0.876261,0.14275,0.768417,1613781480222563122
54.9988,0.00927446,0.390892,-0.000563665,-0.000148933,0.000613328,0.0102819,0.00244736,1.54717,-0.00524264,-0.170624,0,0.536864,361037,4.43639e+06,2437.83,-0.00209688,0.0297647,0.00513728,-0.000514953,0.000128451,-0.000409254,-0.000562168,-0.000155231,0.000611766,0.0520004,0.876465,0.142766,0.768432,1613781480232593813
54.9988,0.00927446,0.390892,-0.000563665,-0.000148933,0.000613328,0.0102819,0.00244736,1.54717,-0.00524989,-0.170601,0,0.537064,361037,4.43639e+06,2437.83,-0.00209688,0.0297647,0.00513728,-0.000514953,0.000128451,-0.000409254,-0.000562168,-0.000155231,0.000611766,0.0520004,0.876465,0.142766,0.768532,1613781480242612051
54.9988,0.00920903,0.390848,-0.000571852,-0.000147045,0.000607057,0.0102732,0.00244502,1.54717,-0.00524989,-0.170629,0,0.537094,361038,4.43639e+06,2437.83,-0.00191904,0.0296902,0.00526909,-0.000505317,0.000128647,-0.00041269,-0.000570372,-0.000153274,0.000605516,0.0519406,0.876505,0.142781,0.768547,1613781480252643475
54.9988,0.00920903,0.390848,-0.000571852,-0.000147045,0.000607057,0.0102732,0.00244502,1.54717,-0.00525671,-0.170614,0,0.537266,361038,4.43639e+06,2437.83,-0.00191904,0.0296902,0.00526909,-0.000505317,0.000128647,-0.00041269,-0.000570372,-0.000153274,0.000605516,0.0519406,0.876505,0.142781,0.768633,1613781480262605880
54.9988,0.00920903,0.390848,-0.000571852,-0.000147045,0.000607057,0.0102732,0.00244502,1.54717,-0.00525671,-0.17064,0,0.537298,361038,4.43639e+06,2437.83,-0.00191904,0.0296902,0.00526909,-0.000505317,0.000128647,-0.00041269,-0.000570372,-0.000153274,0.000605516,0.0519406,0.876505,0.142781,0.768649,1613781480272609498
54.9987,0.00833662,0.390581,-0.00059414,-0.000146927,0.00058688,0.0102447,0.00243759,1.5472,-0.00525671,-0.170666,0,0.53733,361039,4.43639e+06,2437.83,-0.00157645,0.0295395,0.00545556,-0.000355517,2.51341e-05,-0.000418226,-0.000592713,-0.000152931,0.000585346,0.0518972,0.876856,0.14281,0.768665,1613781480282597708
54.9987,0.0090512,0.390712,-0.00059414,-0.000146927,0.00058688,0.0102447,0.00243759,1.5472,-0.00528643,-0.170617,0,0.537771,361040,4.43639e+06,2437.83,-0.00157645,0.0295395,0.00545556,-0.000355517,2.51341e-05,-0.000418226,-0.000592713,-0.000152931,0.000585346,0.0518972,0.876856,0.14281,0.768886,1613781480292594602
54.9986,0.00899467,0.390685,-0.000601844,-0.000136258,0.00058006,0.010235,0.00243524,1.54721,-0.00527264,-0.170516,0,0.537765,361041,4.43639e+06,2437.83,-0.0012401,0.0293766,0.00607078,-0.000446555,0.000638575,-0.000421848,-0.000600434,-0.000142188,0.000578636,0.0517554,0.875376,0.14284,0.768883,1613781480302601358
54.9986,0.00895354,0.390668,-0.000607939,-0.000130673,0.000574595,0.0102272,0.00243345,1.54722,-0.00527827,-0.170564,0,0.537933,361042,4.43639e+06,2437.83,-0.00108689,0.0292977,0.00598481,-0.000445849,0.000432314,-0.000420695,-0.000606544,-0.000136543,0.00057323,0.0517087,0.875881,0.142854,0.768966,1613781480312580629
54.9986,0.00895354,0.390668,-0.000607939,-0.000130673,0.000574595,0.0102272,0.00243345,1.54722,-0.00528205,-0.170584,0,0.538066,361042,4.43639e+06,2437.83,-0.00108689,0.0292977,0.00598481,-0.000445849,0.000432314,-0.000420695,-0.000606544,-0.000136543,0.00057323,0.0517087,0.875881,0.142854,0.769033,1613781480322608222
54.9986,0.00891713,0.390653,-0.000613824,-0.000126789,0.000569038,0.0102191,0.00243169,1.54723,-0.00528205,-0.170607,0,0.538105,361043,4.43639e+06,2437.83,-0.000950116,0.0292295,0.00589665,-0.000427797,0.00024636,-0.000421353,-0.000612444,-0.000132597,0.000567715,0.0516793,0.87633,0.142866,0.769052,1613781480332636214
54.9986,0.00889635,0.390642,-0.000618544,-0.000124292,0.000564421,0.0102124,0.00243026,1.54723,-0.00528559,-0.170612,0,0.538234,361043,4.43639e+06,2437.83,-0.000823339,0.0291638,0.00592372,-0.000413473,0.00022795,-0.000421564,-0.000617175,-0.00013005,0.000563124,0.0516513,0.876391,0.142877,0.769117,1613781480342594061
54.9986,0.00887355,0.390633,-0.000622943,-0.000121761,0.000559942,0.0102058,0.0024289,1.54724,-0.00528806,-0.170609,0,0.538329,361044,4.43639e+06,2437.83,-0.000709845,0.0290998,0.00595252,-0.000396788,0.000236935,-0.000419747,-0.000621586,-0.000127469,0.000558671,0.051633,0.876373,0.142887,0.769165,1613781480352623605
54.9986,0.00884345,0.390622,-0.000629577,-0.00011797,0.000552778,0.0101951,0.00242677,1.54725,-0.00529101,-0.170612,0,0.538425,361045,4.43639e+06,2437.83,-0.000565745,0.0290224,0.00596377,-0.000363866,0.000221331,-0.000419925,-0.000628239,-0.0001236,0.000551548,0.0516115,0.876413,0.1429,0.769212,1613781480362608339
54.9986,0.00884345,0.390622,-0.000629577,-0.00011797,0.000552778,0.0101951,0.00242677,1.54725,-0.00529443,-0.170598,0,0.538539,361045,4.43639e+06,2437.83,-0.000565745,0.0290224,0.00596377,-0.000363866,0.000221331,-0.000419925,-0.000628239,-0.0001236,0.000551548,0.0516115,0.876413,0.1429,0.76927,1613781480372630400
54.9985,0.00881522,0.390614,-0.000635805,-0.000114671,0.00054559,0.0101842,0.00242469,1.54726,-0.00529443,-0.170618,0,0.538581,361046,4.43639e+06,2437.83,-0.000389767,0.0289223,0.00596988,-0.000338285,0.000191663,-0.000418851,-0.000634485,-0.000120221,0.000544395,0.0515863,0.876489,0.142916,0.76929,1613781480382596406
54.9985,0.00881522,0.390614,-0.000635805,-0.000114671,0.00054559,0.0101842,0.00242469,1.54726,-0.00529829,-0.170599,0,0.538694,361046,4.43639e+06,2437.83,-0.000389767,0.0289223,0.00596988,-0.000338285,0.000191663,-0.000418851,-0.000634485,-0.000120221,0.000544395,0.0515863,0.876489,0.142916,0.769347,1613781480392599941
54.9985,0.00879069,0.39061,-0.000641636,-0.000111499,0.00053857,0.0101735,0.00242271,1.54727,-0.00529829,-0.170618,0,0.538737,361047,4.43639e+06,2437.83,-0.000216592,0.0288185,0.00597789,-0.000324597,0.000186994,-0.000416373,-0.000640334,-0.000116973,0.000537409,0.0515562,0.876503,0.142932,0.769368,1613781480402580683
54.9985,0.00878635,0.39061,-0.000646755,-0.000107378,0.000532018,0.0101633,0.00242091,1.54728,-0.00530156,-0.170599,0,0.538827,361048,4.43639e+06,2437.83,-5.25427e-05,0.0287167,0.00602867,-0.000303726,0.000255896,-0.000413662,-0.00064547,-0.000112779,0.000530901,0.0515311,0.876326,0.142947,0.769414,1613781480412593681
54.9985,0.00878635,0.39061,-0.000646755,-0.000107378,0.000532018,0.0101633,0.00242091,1.54728,-0.00530367,-0.170588,0,0.538913,361048,4.43639e+06,2437.83,-5.25427e-05,0.0287167,0.00602867,-0.000303726,0.000255896,-0.000413662,-0.00064547,-0.000112779,0.000530901,0.0515311,0.876326,0.142947,0.769457,1613781480422633293
54.9985,0.00876876,0.390613,-0.000651802,-0.000103734,0.000525077,0.0101523,0.00241904,1.54729,-0.00530367,-0.170607,0,0.538957,361049,4.43639e+06,2437.83,0.000109411,0.0286092,0.00599745,-0.000279116,0.00021319,-0.000409173,-0.000650535,-0.00010906,0.000523998,0.0515173,0.876425,0.142962,0.769478,1613781480432675023
54.9985,0.00876876,0.390613,-0.000651802,-0.000103734,0.000525077,0.0101523,0.00241904,1.54729,-0.00530695,-0.170591,0,0.539048,361049,4.43639e+06,2437.83,0.000109411,0.0286092,0.00599745,-0.000279116,0.00021319,-0.000409173,-0.000650535,-0.00010906,0.000523998,0.0515173,0.876425,0.142962,0.769524,1613781480442688274
54.9985,0.00876876,0.390613,-0.000651802,-0.000103734,0.000525077,0.0101523,0.00241904,1.54729,-0.00530695,-0.170609,0,0.539092,361049,4.43639e+06,2437.83,0.000109411,0.0286092,0.00599745,-0.000279116,0.00021319,-0.000409173,-0.000650535,-0.00010906,0.000523998,0.0515173,0.876425,0.142962,0.769546,1613781480452660836
54.9985,0.00876229,0.390619,-0.000658517,-0.000100953,0.000516316,0.0101381,0.00241676,1.5473,-0.00530695,-0.170626,0,0.539136,361050,4.43639e+06,2437.83,0.000191381,0.0285528,0.00592867,-0.000218638,0.000123678,-0.000401114,-0.000657272,-0.000106182,0.000515267,0.0514973,0.876637,0.142989,0.769568,1613781480462653913
54.9985,0.00876744,0.390629,-0.000663227,-9.82885e-05,0.000507674,0.0101238,0.00241453,1.54731,-0.00530955,-0.170583,0,0.539209,361051,4.43639e+06,2437.83,0.000403861,0.0284093,0.00590511,-0.000218638,0.000123678,-0.000401114,-0.000662004,-0.000103423,0.000506655,0.0514973,0.876637,0.142989,0.769604,1613781480472660523
54.9985,0.00876744,0.390629,-0.000663227,-9.82885e-05,0.000507674,0.0101238,0.00241453,1.54731,-0.00531131,-0.170536,0,0.539268,361051,4.43639e+06,2437.83,0.000403861,0.0284093,0.00590511,-0.000218638,0.000123678,-0.000401114,-0.000662004,-0.000103423,0.000506655,0.0514973,0.876637,0.142989,0.769634,1613781480482641278
54.9985,0.00877648,0.390652,-0.000668707,-8.84955e-05,0.000498235,0.0101077,0.00241221,1.54732,-0.00531131,-0.170552,0,0.539312,361052,4.43639e+06,2437.83,0.000717524,0.0281726,0.00602378,-0.000208221,0.000387918,-0.000388135,-0.000667508,-9.3527e-05,0.000497316,0.0514645,0.875949,0.143019,0.769656,1613781480492632818
54.9985,0.00879394,0.39067,-0.000671628,-8.33523e-05,0.000492563,0.0100978,0.00241088,1.54733,-0.00531276,-0.170556,0,0.539373,361053,4.43639e+06,2437.83,0.000890121,0.028033,0.00592995,-0.000187466,0.000340993,-0.000379747,-0.000670443,-8.83217e-05,0.000491697,0.0514558,0.876029,0.143036,0.769687,1613781480502597186
54.9985,0.00879394,0.39067,-0.000671628,-8.33523e-05,0.000492563,0.0100978,0.00241088,1.54733,-0.00531294,-0.170557,0,0.539412,361053,4.43639e+06,2437.83,0.000890121,0.028033,0.00592995,-0.000187466,0.000340993,-0.000379747,-0.000670443,-8.83217e-05,0.000491697,0.0514558,0.876029,0.143036,0.769706,1613781480512589912
54.9985,0.00880526,0.390689,-0.000674013,-7.94106e-05,0.000487454,0.0100886,0.00240972,1.54733,-0.00531294,-0.170573,0,0.539456,361054,4.43639e+06,2437.83,0.00101173,0.0279291,0.00581707,-0.000169079,0.000249778,-0.000373107,-0.000672841,-8.43242e-05,0.000486629,0.0514577,0.876222,0.143048,0.769728,1613781480522593304
54.9985,0.00881915,0.390712,-0.000676523,-7.55015e-05,0.000481676,0.010078,0.00240844,1.54734,-0.00531394,-0.17057,0,0.539491,361055,4.43639e+06,2437.83,0.00113643,0.0278261,0.00569757,-0.000158869,0.000243603,-0.000368363,-0.000675364,-8.03519e-05,0.000480892,0.0514511,0.876214,0.14306,0.769745,1613781480532677519
54.9985,0.00881915,0.390712,-0.000676523,-7.55015e-05,0.000481676,0.010078,0.00240844,1.54734,-0.00531448,-0.170561,0,0.539529,361055,4.43639e+06,2437.83,0.00113643,0.0278261,0.00569757,-0.000158869,0.000243603,-0.000368363,-0.000675364,-8.03519e-05,0.000480892,0.0514511,0.876214,0.14306,0.769764,1613781480542639598
54.9985,0.00881915,0.390712,-0.000676523,-7.55015e-05,0.000481676,0.010078,0.00240844,1.54734,-0.00531448,-0.170575,0,0.539573,361055,4.43639e+06,2437.83,0.00113643,0.0278261,0.00569757,-0.000158869,0.000243603,-0.000368363,-0.000675364,-8.03519e-05,0.000480892,0.0514511,0.876214,0.14306,0.769786,1613781480552597106
54.9985,0.00881915,0.390712,-0.000676523,-7.55015e-05,0.000481676,0.010078,0.00240844,1.54734,-0.00531448,-0.170589,0,0.539617,361055,4.43639e+06,2437.83,0.00113643,0.0278261,0.00569757,-0.000158869,0.000243603,-0.000368363,-0.000675364,-8.03519e-05,0.000480892,0.0514511,0.876214,0.14306,0.769808,1613781480562678934
54.9985,0.00889258,0.39079,-0.000683466,-6.85965e-05,0.000464288,0.0100451,0.00240482,1.54736,-0.00531448,-0.170603,0,0.539661,361057,4.43639e+06,2437.84,0.00140131,0.0275865,0.00547646,-0.000125081,0.000131495,-0.000353565,-0.000682351,-7.32568e-05,0.000463577,0.0514531,0.876444,0.143086,0.769831,1613781480572613894
54.9985,0.00889258,0.39079,-0.000683466,-6.85965e-05,0.000464288,0.0100451,0.00240482,1.54736,-0.00531455,-0.170501,0,0.539611,361057,4.43639e+06,2437.84,0.00140131,0.0275865,0.00547646,-0.000125081,0.000131495,-0.000353565,-0.000682351,-7.32568e-05,0.000463577,0.0514531,0.876444,0.143086,0.769806,1613781480582602125
54.9986,0.00893387,0.390833,-0.000685535,-6.00711e-05,0.000457101,0.0100306,0.0024034,1.54737,-0.00531455,-0.170515,0,0.539655,361059,4.43639e+06,2437.84,0.00166997,0.0273208,0.00547929,-9.24947e-05,0.00038318,-0.00033536,-0.000684438,-6.4653e-05,0.000456476,0.0514582,0.875758,0.143113,0.769827,1613781480592603197
54.9986,0.00896019,0.390861,-0.000686424,-5.57896e-05,0.000452693,0.0100213,0.00240257,1.54738,-0.00531342,-0.170524,0,0.539641,361059,4.43639e+06,2437.84,0.00179249,0.0271859,0.00532944,-6.50971e-05,0.000312311,-0.000325397,-0.000685338,-6.03234e-05,0.000452113,0.0514717,0.875887,0.143125,0.769821,1613781480602628988
54.9986,0.00899389,0.390894,-0.000687245,-5.17935e-05,0.00044801,0.0100113,0.00240174,1.54739,-0.00531292,-0.170529,0,0.539648,361060,4.43639e+06,2437.84,0.00188617,0.027079,0.0052086,-5.66093e-05,0.000267147,-0.000318618,-0.00068617,-5.6276e-05,0.000447471,0.0514779,0.875964,0.143136,0.769824,1613781480612562017
54.9986,0.00899389,0.390894,-0.000687245,-5.17935e-05,0.00044801,0.0100113,0.00240174,1.54739,-0.00531188,-0.170525,0,0.539632,361060,4.43639e+06,2437.84,0.00188617,0.027079,0.0052086,-5.66093e-05,0.000267147,-0.000318618,-0.00068617,-5.6276e-05,0.000447471,0.0514779,0.875964,0.143136,0.769816,1613781480622630148
54.9986,0.00902591,0.390932,-0.000687926,-4.84254e-05,0.00044293,0.0100002,0.00240086,1.54739,-0.00531188,-0.170539,0,0.539674,361061,4.43639e+06,2437.84,0.00198604,0.0269593,0.00506507,-4.20022e-05,0.000201542,-0.00031052,-0.000686863,-5.28523e-05,0.000442425,0.0514894,0.87609,0.143146,0.769837,1613781480632659278
54.9986,0.00902591,0.390932,-0.000687926,-4.84254e-05,0.00044293,0.0100002,0.00240086,1.54739,-0.00531095,-0.170528,0,0.539659,361061,4.43639e+06,2437.84,0.00198604,0.0269593,0.00506507,-4.20022e-05,0.000201542,-0.00031052,-0.000686863,-5.28523e-05,0.000442425,0.0514894,0.87609,0.143146,0.76983,1613781480642632859
54.9987,0.00907238,0.390973,-0.000688541,-4.5407e-05,0.000437654,0.00998817,0.00239998,1.5474,-0.00531095,-0.170541,0,0.5397,361062,4.43639e+06,2437.84,0.00209146,0.0268235,0.00492842,-3.64065e-05,0.000167313,-0.000299621,-0.000687492,-4.9776e-05,0.00043718,0.0514996,0.87614,0.143158,0.76985,1613781480652629698
54.9987,0.0090965,0.390992,-0.000688676,-4.35579e-05,0.000435262,0.00998261,0.0023996,1.5474,-0.00530978,-0.170524,0,0.539659,361062,4.43639e+06,2437.84,0.00214377,0.0267571,0.00491158,-2.26138e-05,0.00021117,-0.000290432,-0.000687633,-4.79007e-05,0.000434807,0.051512,0.87599,0.143169,0.76983,1613781480662630941
54.9987,0.0091127,0.391012,-0.000688859,-4.18501e-05,0.000432913,0.00997705,0.00239922,1.54741,-0.00530914,-0.170526,0,0.539658,361063,4.43639e+06,2437.84,0.00219035,0.0266917,0.0048441,-2.26138e-05,0.00021117,-0.000290432,-0.000687822,-4.61671e-05,0.000432476,0.051512,0.87599,0.143169,0.769829,1613781480672590474
54.9987,0.00916162,0.391055,-0.000688966,-3.89246e-05,0.000427983,0.00996507,0.00239846,1.54742,-0.0053082,-0.170529,0,0.539658,361064,4.43639e+06,2437.84,0.00228476,0.0265562,0.004693,-1.02933e-05,0.000162086,-0.000279694,-0.000687941,-4.31875e-05,0.000427575,0.0515282,0.876074,0.14318,0.769829,1613781480682589429
54.9987,0.00916162,0.391055,-0.000688966,-3.89246e-05,0.000427983,0.00996507,0.00239846,1.54742,-0.00530732,-0.170513,0,0.539615,361064,4.43639e+06,2437.84,0.00228476,0.0265562,0.004693,-1.02933e-05,0.000162086,-0.000279694,-0.000687941,-4.31875e-05,0.000427575,0.0515282,0.876074,0.14318,0.769807,1613781480692599397
54.9987,0.00920676,0.391096,-0.000689022,-3.63879e-05,0.00042354,0.0099539,0.00239779,1.54742,-0.00530732,-0.170526,0,0.539653,361065,4.43639e+06,2437.84,0.00237447,0.0264261,0.00456943,-5.55365e-06,0.000149938,-0.000271628,-0.000688007,-4.06019e-05,0.000423158,0.0515371,0.876068,0.14319,0.769827,1613781480702597951
54.9987,0.00920676,0.391096,-0.000689022,-3.63879e-05,0.00042354,0.0099539,0.00239779,1.54742,-0.00530532,-0.17051,0,0.539607,361065,4.43639e+06,2437.84,0.00237447,0.0264261,0.00456943,-5.55365e-06,0.000149938,-0.000271628,-0.000688007,-4.06019e-05,0.000423158,0.0515371,0.876068,0.14319,0.769804,1613781480712567160
54.9988,0.00925477,0.39114,-0.000688726,-3.29831e-05,0.000418981,0.00994202,0.00239713,1.54743,-0.00530532,-0.170523,0,0.539644,361066,4.43639e+06,2437.84,0.00245877,0.0262908,0.00447447,1.26876e-05,0.000188358,-0.000261138,-0.000687722,-3.71469e-05,0.000418633,0.0515571,0.875933,0.1432,0.769822,1613781480722593656
54.9988,0.00931823,0.391186,-0.000688408,-2.99509e-05,0.000414502,0.00992987,0.00239652,1.54744,-0.0053042,-0.170509,0,0.539579,361067,4.43639e+06,2437.84,0.00254087,0.0261494,0.0043223,1.37411e-05,0.000164566,-0.000250096,-0.000687415,-3.40653e-05,0.000414185,0.0515678,0.875949,0.14321,0.76979,1613781480732613396
54.9988,0.00931823,0.391186,-0.000688408,-2.99509e-05,0.000414502,0.00992987,0.00239652,1.54744,-0.00530174,-0.170494,0,0.539508,361067,4.43639e+06,2437.84,0.00254087,0.0261494,0.0043223,1.37411e-05,0.000164566,-0.000250096,-0.000687415,-3.40653e-05,0.000414185,0.0515678,0.875949,0.14321,0.769754,1613781480742616817
54.9988,0.00936976,0.391228,-0.000687767,-2.74664e-05,0.000410523,0.00991856,0.00239599,1.54744,-0.00530174,-0.170508,0,0.539543,361068,4.43639e+06,2437.84,0.00261518,0.0260114,0.0041862,3.31102e-05,0.000144974,-0.000239434,-0.000686784,-3.15368e-05,0.000410232,0.0515918,0.875958,0.14322,0.769771,1613781480752584418
54.9989,0.00941416,0.391268,-0.00068699,-2.46599e-05,0.00040707,0.00990838,0.00239555,1.54745,-0.00529988,-0.170492,0,0.539469,361068,4.43639e+06,2437.84,0.00267856,0.0258881,0.00409465,4.67571e-05,0.000181367,-0.000231215,-0.000686016,-2.86921e-05,0.000406807,0.0516095,0.875828,0.143228,0.769735,1613781480762592867
54.9989,0.00941416,0.391268,-0.00068699,-2.46599e-05,0.00040707,0.00990838,0.00239555,1.54745,-0.00529823,-0.170487,0,0.539417,361068,4.43639e+06,2437.84,0.00267856,0.0258881,0.00409465,4.67571e-05,0.000181367,-0.000231215,-0.000686016,-2.86921e-05,0.000406807,0.0516095,0.875828,0.143228,0.769708,1613781480772648544
54.9989,0.00947578,0.391315,-0.000686031,-2.23169e-05,0.000403078,0.00989613,0.00239507,1.54746,-0.00529823,-0.1705,0,0.53945,361069,4.43639e+06,2437.84,0.00274016,0.0257541,0.00393549,4.61611e-05,0.000125184,-0.00022031,-0.000685066,-2.63047e-05,0.000402839,0.0516247,0.875929,0.143236,0.769725,1613781480782625956
54.9989,0.00947578,0.391315,-0.000686031,-2.23169e-05,0.000403078,0.00989613,0.00239507,1.54746,-0.00529566,-0.17048,0,0.539363,361069,4.43639e+06,2437.84,0.00274016,0.0257541,0.00393549,4.61611e-05,0.000125184,-0.00022031,-0.000685066,-2.63047e-05,0.000402839,0.0516247,0.875929,0.143236,0.769682,1613781480792632064
54.999,0.00952537,0.391359,-0.000684897,-1.99968e-05,0.000399484,0.00988455,0.00239466,1.54746,-0.00529566,-0.170493,0,0.539395,361070,4.43639e+06,2437.84,0.00280056,0.0256141,0.00380305,5.93591e-05,0.000129899,-0.000209907,-0.000683941,-2.39445e-05,0.000399268,0.0516491,0.875876,0.143244,0.769698,1613781480802619593
54.999,0.00957936,0.391399,-0.000683789,-1.7649e-05,0.000396412,0.0098742,0.00239432,1.54747,-0.00529382,-0.170482,0,0.539319,361071,4.43639e+06,2437.84,0.00285107,0.0254851,0.00369231,6.41512e-05,0.000148037,-0.000200199,-0.00068284,-2.15623e-05,0.00039622,0.0516659,0.875793,0.143252,0.769659,1613781480812625265
54.999,0.00957936,0.391399,-0.000683789,-1.7649e-05,0.000396412,0.0098742,0.00239432,1.54747,-0.00529227,-0.170473,0,0.539237,361071,4.43639e+06,2437.84,0.00285107,0.0254851,0.00369231,6.41512e-05,0.000148037,-0.000200199,-0.00068284,-2.15623e-05,0.00039622,0.0516659,0.875793,0.143252,0.769619,1613781480822632579
54.999,0.00964161,0.391445,-0.000682495,-1.57115e-05,0.000393022,0.00986221,0.00239397,1.54748,-0.00529227,-0.170487,0,0.539266,361072,4.43639e+06,2437.84,0.00289752,0.0253521,0.00354515,6.46413e-05,0.00010443,-0.000189825,-0.000681555,-1.95867e-05,0.000392849,0.0516798,0.875863,0.143259,0.769633,1613781480832632766
54.999,0.00964161,0.391445,-0.000682495,-1.57115e-05,0.000393022,0.00986221,0.00239397,1.54748,-0.00528928,-0.170468,0,0.539163,361072,4.43639e+06,2437.84,0.00289752,0.0253521,0.00354515,6.46413e-05,0.00010443,-0.000189825,-0.000681555,-1.95867e-05,0.000392849,0.0516798,0.875863,0.143259,0.769581,1613781480842629499
54.9991,0.00970303,0.391488,-0.000680983,-1.39057e-05,0.000389976,0.00985079,0.00239367,1.54748,-0.00528928,-0.170482,0,0.53919,361073,4.43639e+06,2437.84,0.00294142,0.0252117,0.00340581,8.12541e-05,0.000101419,-0.000178565,-0.00068005,-1.77465e-05,0.000389821,0.0517078,0.875832,0.143266,0.769595,1613781480852563337
54.9991,0.0097546,0.39153,-0.000679436,-1.13635e-05,0.000387241,0.00984,0.00239341,1.54749,-0.00528722,-0.170463,0,0.539084,361074,4.43639e+06,2437.84,0.00297794,0.0250839,0.00332064,8.82914e-05,0.000151617,-0.000170224,-0.00067851,-1.51734e-05,0.000387112,0.0517262,0.875668,0.143273,0.769542,1613781480862617185
54.9991,0.0097546,0.39153,-0.000679436,-1.13635e-05,0.000387241,0.00984,0.00239341,1.54749,-0.00528521,-0.170458,0,0.539001,361074,4.43639e+06,2437.84,0.00297794,0.0250839,0.00332064,8.82914e-05,0.000151617,-0.000170224,-0.00067851,-1.51734e-05,0.000387112,0.0517262,0.875668,0.143273,0.7695,1613781480872629670
54.9992,0.00981847,0.391574,-0.00067778,-9.57728e-06,0.000384472,0.00982845,0.00239318,1.5475,-0.00528521,-0.17047,0,0.539026,361075,4.43639e+06,2437.84,0.00300896,0.0249482,0.00316013,8.7873e-05,9.91898e-05,-0.000158846,-0.00067686,-1.33555e-05,0.00038436,0.0517442,0.875759,0.143279,0.769513,1613781480882622162
54.9992,0.00981847,0.391574,-0.00067778,-9.57728e-06,0.000384472,0.00982845,0.00239318,1.5475,-0.00528299,-0.170456,0,0.538916,361075,4.43639e+06,2437.84,0.00300896,0.0249482,0.00316013,8.7873e-05,9.91898e-05,-0.000158846,-0.00067686,-1.33555e-05,0.00038436,0.0517442,0.875759,0.143279,0.769458,1613781480892635443
54.9992,0.0098776,0.391616,-0.000676002,-8.24065e-06,0.000381901,0.009817,0.00239297,1.5475,-0.00528299,-0.170471,0,0.538939,361076,4.43639e+06,2437.84,0.00303697,0.0248123,0.00301866,9.55162e-05,7.37529e-05,-0.000148844,-0.000675088,-1.19893e-05,0.000381803,0.051764,0.875787,0.143285,0.76947,1613781480902598260
54.9992,0.0098776,0.391616,-0.000676002,-8.24065e-06,0.000381901,0.009817,0.00239297,1.5475,-0.00528088,-0.170455,0,0.538827,361076,4.43639e+06,2437.84,0.00303697,0.0248123,0.00301866,9.55162e-05,7.37529e-05,-0.000148844,-0.000675088,-1.19893e-05,0.000381803,0.051764,0.875787,0.143285,0.769414,1613781480912585828
54.9992,0.0099327,0.391659,-0.000674166,-6.63598e-06,0.000379454,0.00980542,0.00239279,1.54751,-0.00528088,-0.170469,0,0.538849,361077,4.43639e+06,2437.84,0.0030595,0.0246792,0.00287805,9.61944e-05,5.48849e-05,-0.000139993,-0.000673258,-1.03563e-05,0.000379372,0.0517825,0.875788,0.14329,0.769425,1613781480922962451
54.9992,0.0099327,0.391659,-0.000674166,-6.63598e-06,0.000379454,0.00980542,0.00239279,1.54751,-0.00527899,-0.170457,0,0.538739,361077,4.43639e+06,2437.84,0.0030595,0.0246792,0.00287805,9.61944e-05,5.48849e-05,-0.000139993,-0.000673258,-1.03563e-05,0.000379372,0.0517825,0.875788,0.14329,0.769369,1613781480932678891
54.9992,0.0099327,0.391659,-0.000674166,-6.63598e-06,0.000379454,0.00980542,0.00239279,1.54751,-0.00527899,-0.170471,0,0.538759,361077,4.43639e+06,2437.84,0.0030595,0.0246792,0.00287805,9.61944e-05,5.48849e-05,-0.000139993,-0.000673258,-1.03563e-05,0.000379372,0.0517825,0.875788,0.14329,0.76938,1613781480942633256
54.9994,0.010109,0.39176,-0.000670104,-7.8271e-06,0.000373442,0.00977434,0.00239227,1.54753,-0.00527899,-0.170485,0,0.53878,361079,4.43639e+06,2437.84,0.00309225,0.0244272,0.00259291,5.79659e-05,-3.37645e-05,-0.000122329,-0.000669211,-1.14768e-05,0.000373349,0.0517964,0.875964,0.1433,0.76939,1613781480952626449
54.9994,0.010109,0.39176,-0.000670104,-7.8271e-06,0.000373442,0.00977434,0.00239227,1.54753,-0.00527185,-0.170373,0,0.538415,361079,4.43639e+06,2437.84,0.00309225,0.0244272,0.00259291,5.79659e-05,-3.37645e-05,-0.000122329,-0.000669211,-1.14768e-05,0.000373349,0.0517964,0.875964,0.1433,0.769208,1613781480962615119
54.9994,0.0101955,0.391821,-0.000666548,4.70252e-07,0.000370891,0.00975811,0.00239215,1.54754,-0.00527185,-0.170386,0,0.538433,361081,4.43639e+06,2437.84,0.0031133,0.0241471,0.00260319,0.000132166,0.000316514,-0.000101672,-0.000665661,-3.14891e-06,0.000370879,0.0518633,0.875015,0.143309,0.769216,1613781480972618532
54.9994,0.0101955,0.391821,-0.000666548,4.70252e-07,0.000370891,0.00975811,0.00239215,1.54754,-0.00526886,-0.170415,0,0.538272,361081,4.43639e+06,2437.84,0.0031133,0.0241471,0.00260319,0.000132166,0.000316514,-0.000101672,-0.000665661,-3.14891e-06,0.000370879,0.0518633,0.875015,0.143309,0.769136,1613781480982598666
54.9995,0.0102372,0.391854,-0.0006645,1.91371e-06,0.000369606,0.00974879,0.00239212,1.54754,-0.00526886,-0.170431,0,0.538287,361081,4.43639e+06,2437.84,0.00310952,0.0239953,0.00231831,0.000138639,0.000102574,-8.97807e-05,-0.000663616,-1.68954e-06,0.000369608,0.0518896,0.875494,0.143313,0.769143,1613781480992602764
54.9995,0.0102858,0.391885,-0.000662586,3.18918e-06,0.000368453,0.00973988,0.00239211,1.54755,-0.0052674,-0.170429,0,0.538187,361082,4.43639e+06,2437.84,0.00310249,0.0238917,0.00221425,0.00013065,9.0192e-05,-8.38154e-05,-0.000661704,-3.99602e-07,0.000368468,0.0519014,0.875493,0.143316,0.769094,1613781481002561813
54.9995,0.0102858,0.391885,-0.000662586,3.18918e-06,0.000368453,0.00973988,0.00239211,1.54755,-0.00526536,-0.170425,0,0.538083,361082,4.43639e+06,2437.84,0.00310249,0.0238917,0.00221425,0.000154845,9.86181e-05,-7.9611e-05,-0.000661704,-3.99602e-07,0.000368468,0.0519205,0.875459,0.143317,0.769041,1613781481012596811
54.9995,0.0103237,0.391916,-0.000660592,4.47341e-06,0.000367389,0.00973084,0.00239212,1.54755,-0.00526536,-0.17044,0,0.538095,361083,4.43639e+06,2437.84,0.00309254,0.0237845,0.00211972,0.000136393,8.89289e-05,-7.57065e-05,-0.000659713,8.98246e-07,0.000367417,0.051919,0.875467,0.143319,0.769048,1613781481022653863
54.9996,0.0103784,0.391952,-0.0006584,4.77404e-06,0.000366211,0.00972009,0.00239213,1.54756,-0.00526454,-0.170439,0,0.537993,361084,4.43639e+06,2437.84,0.00307769,0.0236736,0.00196606,0.000123633,1.5534e-05,-6.9902e-05,-0.000657524,1.21427e-06,0.000366242,0.0519242,0.875619,0.143321,0.768997,1613781481032584207
54.9996,0.0103784,0.391952,-0.0006584,4.77404e-06,0.000366211,0.00972009,0.00239213,1.54756,-0.00526251,-0.170423,0,0.537865,361084,4.43639e+06,2437.84,0.00307769,0.0236736,0.00196606,0.000123633,1.5534e-05,-6.9902e-05,-0.000657524,1.21427e-06,0.000366242,0.0519242,0.875619,0.143321,0.768932,1613781481042593501
54.9996,0.0104261,0.391989,-0.00065604,4.93097e-06,0.000365077,0.00970848,0.00239216,1.54756,-0.00526251,-0.170438,0,0.537875,361085,4.43639e+06,2437.84,0.00305734,0.0235456,0.00185444,0.000124646,4.65863e-06,-6.23106e-05,-0.000655166,1.38645e-06,0.000365109,0.0519414,0.875618,0.143324,0.768937,1613781481052618236
54.9996,0.0104261,0.391989,-0.00065604,4.93097e-06,0.000365077,0.00970848,0.00239216,1.54756,-0.00526124,-0.170423,0,0.537749,361085,4.43639e+06,2437.84,0.00305734,0.0235456,0.00185444,0.000124646,4.65863e-06,-6.23106e-05,-0.000655166,1.38645e-06,0.000365109,0.0519414,0.875618,0.143324,0.768874,1613781481062654066
54.9996,0.0104261,0.391989,-0.00065604,4.93097e-06,0.000365077,0.00970848,0.00239216,1.54756,-0.00526124,-0.170437,0,0.537757,361085,4.43639e+06,2437.84,0.00305734,0.0235456,0.00185444,0.000124646,4.65863e-06,-6.23106e-05,-0.000655166,1.38645e-06,0.000365109,0.0519414,0.875618,0.143324,0.768879,1613781481072612245
54.9997,0.0105293,0.392051,-0.000652146,2.77506e-06,0.000363198,0.00968606,0.00239215,1.54758,-0.00526124,-0.170452,0,0.537765,361087,4.43639e+06,2437.84,0.00302008,0.0233472,0.00164892,9.03751e-05,-6.6102e-05,-4.95742e-05,-0.000651277,-7.4297e-07,0.000363209,0.0519492,0.875761,0.143327,0.768883,1613781481082606841
54.9998,0.0105808,0.392077,-0.000650205,5.41998e-06,0.000362615,0.00967695,0.00239217,1.54758,-0.00525719,-0.170385,0,0.53749,361087,4.43639e+06,2437.84,0.00298102,0.0231683,0.00168808,0.00013065,0.000177014,-3.92661e-05,-0.000649337,1.91078e-06,0.000362651,0.0519861,0.875118,0.14333,0.768745,1613781481092630813
54.9998,0.0106037,0.392098,-0.000648645,6.79068e-06,0.000362235,0.00966988,0.0023922,1.54759,-0.00525559,-0.170395,0,0.537381,361088,4.43639e+06,2437.84,0.00295417,0.0230764,0.00157983,0.000137479,0.000122863,-3.38495e-05,-0.000647778,3.28765e-06,0.000362285,0.0519998,0.875224,0.143331,0.76869,1613781481102586383
54.9998,0.0106037,0.392098,-0.000648645,6.79068e-06,0.000362235,0.00966988,0.0023922,1.54759,-0.00525492,-0.170407,0,0.537313,361088,4.43639e+06,2437.84,0.00295417,0.0230764,0.00157983,0.000137479,0.000122863,-3.38495e-05,-0.000647778,3.28765e-06,0.000362285,0.0519998,0.875224,0.143331,0.768656,1613781481112609131
54.9998,0.0106497,0.392122,-0.000646861,7.1848e-06,0.000361811,0.00966111,0.00239225,1.54759,-0.00525492,-0.170423,0,0.537316,361089,4.43639e+06,2437.84,0.00292613,0.0229883,0.00142389,0.000122953,-7.87215e-06,-2.93863e-05,-0.000645996,3.68902e-06,0.000361865,0.052004,0.875519,0.143332,0.768658,1613781481122630178
54.9998,0.0106497,0.392122,-0.000646861,7.1848e-06,0.000361811,0.00966111,0.00239225,1.54759,-0.00525335,-0.17042,0,0.53722,361089,4.43639e+06,2437.84,0.00292613,0.0229883,0.00142389,0.000122953,-7.87215e-06,-2.93863e-05,-0.000645996,3.68902e-06,0.000361865,0.052004,0.875519,0.143332,0.76861,1613781481132572405
54.9999,0.010705,0.392155,-0.000644141,5.83092e-06,0.000361293,0.00964771,0.00239231,1.5476,-0.00525335,-0.170436,0,0.537222,361090,4.43639e+06,2437.84,0.00288535,0.0228649,0.00129007,0.000119769,-6.62178e-05,-2.34902e-05,-0.000643277,2.34505e-06,0.000361333,0.0520165,0.875652,0.143333,0.768611,1613781481142597733
54.9999,0.0107371,0.392173,-0.000642416,6.35957e-06,0.000361081,0.00964013,0.00239234,1.5476,-0.00525047,-0.170407,0,0.537064,361091,4.43639e+06,2437.84,0.00284315,0.0227457,0.00128695,0.000138648,3.92199e-05,-1.69036e-05,-0.000641552,2.87845e-06,0.000361127,0.0520423,0.875369,0.143333,0.768532,1613781481152613609
54.9999,0.0107371,0.392173,-0.000642416,6.35957e-06,0.000361081,0.00964013,0.00239234,1.5476,-0.00525022,-0.17041,0,0.536989,361091,4.43639e+06,2437.84,0.00284315,0.0227457,0.00128695,0.000138648,3.92199e-05,-1.69036e-05,-0.000641552,2.87845e-06,0.000361127,0.0520423,0.875369,0.143333,0.768494,1613781481162594493
54.9999,0.0107757,0.392199,-0.000640267,6.68716e-06,0.000360864,0.00962924,0.00239239,1.54761,-0.00525022,-0.170426,0,0.536989,361091,4.43639e+06,2437.84,0.00280375,0.0226403,0.00120542,0.000116406,1.64552e-05,-1.06934e-05,-0.000639404,3.21206e-06,0.000360913,0.052042,0.875405,0.143334,0.768494,1613781481172629437
55,0.0108255,0.392222,-0.000638183,5.91353e-06,0.000360739,0.00961862,0.00239244,1.54761,-0.00524872,-0.170424,0,0.536874,361092,4.43639e+06,2437.84,0.00275568,0.0225233,0.00108667,0.000116093,-4.7208e-05,-6.06466e-06,-0.00063732,2.4435e-06,0.00036078,0.052054,0.875544,0.143334,0.768437,1613781481182653935
55,0.0108255,0.392222,-0.000638183,5.91353e-06,0.000360739,0.00961862,0.00239244,1.54761,-0.0052465,-0.170409,0,0.536752,361092,4.43639e+06,2437.84,0.00275568,0.0225233,0.00108667,0.000116093,-4.7208e-05,-6.06466e-06,-0.00063732,2.4435e-06,0.00036078,0.052054,0.875544,0.143334,0.768376,1613781481192626519
55,0.0108555,0.392243,-0.000635885,4.74378e-06,0.000360712,0.00960794,0.00239246,1.54762,-0.0052465,-0.170428,0,0.536748,361093,4.43639e+06,2437.84,0.00270434,0.0224064,0.000997453,0.000128154,-7.04625e-05,-1.17653e-06,-0.000635022,1.27791e-06,0.000360742,0.0520732,0.875588,0.143334,0.768374,1613781481202596763
55,0.0109032,0.39226,-0.000634055,4.50073e-06,0.000360752,0.00959839,0.00239248,1.54763,-0.00524591,-0.170414,0,0.536629,361094,4.43639e+06,2437.84,0.00265319,0.022294,0.000973987,0.000113598,-1.95062e-05,4.26054e-06,-0.000633192,1.03793e-06,0.00036078,0.0520761,0.875446,0.143334,0.768315,1613781481212595358
55,0.0109032,0.39226,-0.000634055,4.50073e-06,0.000360752,0.00959839,0.00239248,1.54763,-0.00524515,-0.170406,0,0.536525,361094,4.43639e+06,2437.84,0.00265319,0.022294,0.000973987,0.000113598,-1.95062e-05,4.26054e-06,-0.000633192,1.03793e-06,0.00036078,0.0520761,0.875446,0.143334,0.768263,1613781481222599510
55,0.0109244,0.392271,-0.000632784,3.79555e-06,0.000360841,0.0095917,0.00239248,1.54763,-0.00524515,-0.170424,0,0.53652,361095,4.43639e+06,2437.84,0.00262845,0.0222376,0.00091223,0.000119947,-6.65511e-05,8.34312e-06,-0.000631921,3.34357e-07,0.000360862,0.0520826,0.875552,0.143334,0.76826,1613781481232588963
55.0001,0.0109449,0.392281,-0.0006317,3.08443e-06,0.000360951,0.00958501,0.00239248,1.54763,-0.00524422,-0.170422,0,0.536447,361095,4.43639e+06,2437.84,0.00259241,0.0221665,0.000877147,0.000102342,-6.7113e-05,1.04002e-05,-0.000630836,-3.75384e-07,0.000360965,0.0520808,0.875551,0.143334,0.768223,1613781481242588156
55.0001,0.0109787,0.392295,-0.000630102,2.34368e-06,0.000361171,0.00957582,0.00239247,1.54764,-0.00524396,-0.170419,0,0.536373,361096,4.43639e+06,2437.84,0.00253001,0.0220411,0.000828831,0.000103407,-5.23828e-05,1.66181e-05,-0.000629238,-1.11488e-06,0.000361178,0.0520899,0.875502,0.143334,0.768187,1613781481252564155
55.0001,0.0109787,0.392295,-0.000630102,2.34368e-06,0.000361171,0.00957582,0.00239247,1.54764,-0.00524296,-0.170408,0,0.536269,361096,4.43639e+06,2437.84,0.00253001,0.0220411,0.000828831,0.000103407,-5.23828e-05,1.66181e-05,-0.000629238,-1.11488e-06,0.000361178,0.0520899,0.875502,0.143334,0.768134,1613781481262648636
55.0001,0.0110058,0.392308,-0.000628343,1.55616e-06,0.00036147,0.00956574,0.00239244,1.54764,-0.00524296,-0.170426,0,0.536261,361097,4.43639e+06,2437.84,0.00247451,0.0219388,0.000759466,0.000101987,-8.94403e-05,1.98192e-05,-0.000627478,-1.90158e-06,0.000361469,0.0520975,0.875575,0.143333,0.768131,1613781481272622681
55.0001,0.0110058,0.392308,-0.000628343,1.55616e-06,0.00036147,0.00956574,0.00239244,1.54764,-0.00524204,-0.17042,0,0.536159,361097,4.43639e+06,2437.84,0.00247451,0.0219388,0.000759466,0.000101987,-8.94403e-05,1.98192e-05,-0.000627478,-1.90158e-06,0.000361469,0.0520975,0.875575,0.143333,0.768079,1613781481282646468
55.0001,0.0110058,0.392308,-0.000628343,1.55616e-06,0.00036147,0.00956574,0.00239244,1.54764,-0.00524204,-0.170441,0,0.536149,361097,4.43639e+06,2437.84,0.00247451,0.0219388,0.000759466,0.000101987,-8.94403e-05,1.98192e-05,-0.000627478,-1.90158e-06,0.000361469,0.0520975,0.875575,0.143333,0.768075,1613781481292652270
55.0001,0.0110058,0.392308,-0.000628343,1.55616e-06,0.00036147,0.00956574,0.00239244,1.54764,-0.00524204,-0.170462,0,0.53614,361097,4.43639e+06,2437.84,0.00247451,0.0219388,0.000759466,0.000101987,-8.94403e-05,1.98192e-05,-0.000627478,-1.90158e-06,0.000361469,0.0520975,0.875575,0.143333,0.76807,1613781481302629953
55.0002,0.0110881,0.392306,-0.000623589,-1.34571e-05,0.000362619,0.00953441,0.00239177,1.54766,-0.00524204,-0.170482,0,0.536131,361100,4.43639e+06,2437.84,0.00234753,0.021719,0.000576024,6.80841e-05,-0.000278764,2.56665e-05,-0.000622722,-1.69137e-05,0.000362475,0.0521013,0.876091,0.143332,0.768065,1613781481312621676
55.0002,0.0110881,0.392306,-0.000623589,-1.34571e-05,0.000362619,0.00953441,0.00239177,1.54766,-0.00524104,-0.170289,0,0.535784,361100,4.43639e+06,2437.84,0.00234753,0.021719,0.000576024,6.80841e-05,-0.000278764,2.56665e-05,-0.000622722,-1.69137e-05,0.000362475,0.0521013,0.876091,0.143332,0.767892,1613781481322626994
55.0003,0.0111392,0.392344,-0.000620688,4.75865e-06,0.00036377,0.00951222,0.00239167,1.54768,-0.00524104,-0.170289,0,0.535784,361102,4.43639e+06,2437.84,0.00218329,0.0214346,0.00102764,6.85218e-05,0.000465491,3.49568e-05,-0.000619817,1.29823e-06,0.0003638,0.0521064,0.874189,0.143329,0.767892,1613781481332627131
55.0003,0.0111392,0.392344,-0.000620688,4.75865e-06,0.00036377,0.00951222,0.00239167,1.54768,-0.00524129,-0.17043,0,0.535621,361102,4.43639e+06,2437.84,0.00218329,0.0214346,0.00102764,6.85218e-05,0.000465491,3.49568e-05,-0.000619817,1.29823e-06,0.0003638,0.0521064,0.874189,0.143329,0.767811,1613781481342610398
55.0003,0.0111557,0.392353,-0.000619569,9.5152e-07,0.000364415,0.00950186,0.00239164,1.54768,-0.00524129,-0.17045,0,0.535607,361103,4.43639e+06,2437.84,0.00207559,0.0212698,0.000485975,6.43224e-05,-0.000209028,3.87028e-05,-0.000618697,-2.51109e-06,0.000364408,0.0521014,0.875817,0.143327,0.767804,1613781481352602588
55.0003,0.0111764,0.392359,-0.000618775,-3.47882e-08,0.000364927,0.00949413,0.0023916,1.54769,-0.00524139,-0.170418,0,0.535494,361103,4.43639e+06,2437.84,0.00201273,0.0211734,0.00055091,6.0094e-05,-8.19254e-05,4.17242e-05,-0.000617902,-3.4994e-06,0.000364911,0.052099,0.875498,0.143326,0.767747,1613781481362659564
55.0004,0.0111814,0.392363,-0.000618148,-8.55958e-07,0.000365353,0.00948793,0.00239156,1.54769,-0.00524131,-0.170418,0,0.535422,361104,4.43639e+06,2437.84,0.00196386,0.0211042,0.00052709,5.99481e-05,-8.20004e-05,4.22562e-05,-0.000617274,-4.32231e-06,0.000365329,0.0520988,0.875495,0.143325,0.767711,1613781481372595514
55.0004,0.0111891,0.392367,-0.000617464,-1.90312e-06,0.000365817,0.00948121,0.0023915,1.54769,-0.00524128,-0.170422,0,0.535352,361105,4.43639e+06,2437.84,0.00191841,0.0210388,0.000500432,5.86744e-05,-9.54308e-05,4.31711e-05,-0.000616589,-5.37136e-06,0.000365784,0.0520981,0.875527,0.143324,0.767676,1613781481382592796
