u,v,w,p,q,r,phi,theta,psi,roll_ctrl,pitch_ctrl,yaw_ctrl,throttle_ctrl,E,N,U,u_dot,v_dot,w_dot,p_dot,q_dot,r_dot,phi_dot,theta_dot,psi_dot,delta_a,delta_e,delta_r,delta_T,timestamp54.779,-0.0654028,2.24306,0.000862707,0.0674165,0.00250351,0.00408992,0.0693023,1.54882,-0.00489354,0.0442754,0,0.5348,361445,4.43638e+06,2438.22,-0.391047,0.323762,-4.68383,-0.000689366,-0.270322,-0.00534583,0.00105562,0.0674057,0.0027859,0.0534649,-0.347517,0.138512,0.7674,1616964608708412883
54.779,-0.0654028,2.24306,0.000862707,0.0674165,0.00250351,0.00408992,0.0693023,1.54882,-0.0049079,0.0400788,0,0.5348,361445,4.43638e+06,2438.22,-0.391047,0.323762,-4.68383,-0.000689366,-0.270322,-0.00534583,0.00105562,0.0674057,0.0027859,0.0534649,-0.347517,0.138512,0.7674,1616964608718427752
54.779,-0.0654028,2.24306,0.000862707,0.0674165,0.00250351,0.00408992,0.0693023,1.54882,-0.0049079,0.0494214,0,0.5348,361445,4.43638e+06,2438.22,-0.391047,0.323762,-4.68383,-0.000689366,-0.270322,-0.00534583,0.00105562,0.0674057,0.0027859,0.0534649,-0.347517,0.138512,0.7674,1616964608728387368
54.7581,-0.07062,2.19915,0.000851955,0.0606679,0.00228147,0.00412839,0.0716202,1.54892,-0.0049079,0.0587128,0,0.5348,361447,4.43638e+06,2438.29,-0.408007,0.326211,-4.5423,6.13988e-05,-0.169852,-0.00630535,0.0010336,0.060658,0.00253841,0.0533433,-0.543273,0.138811,0.7674,1616964608738361904
54.7513,-0.0721679,2.18132,0.000840575,0.0560976,0.00218871,0.00414056,0.0723011,1.54894,-0.00495407,0.00541362,0,0.5348,361447,4.43638e+06,2438.31,-0.429791,0.336189,-4.59933,-0.00156646,-0.369891,-0.0079471,0.00101592,0.056088,0.0024273,0.0528814,0.00590396,0.139173,0.7674,1616964608748390082
54.7513,-0.0721679,2.18132,0.000840575,0.0560976,0.00218871,0.00414056,0.0723011,1.54894,-0.00496867,0.00892953,0,0.5348,361447,4.43638e+06,2438.31,-0.429791,0.336189,-4.59933,-0.00156646,-0.369891,-0.0079471,0.00101592,0.056088,0.0024273,0.0528814,0.00590396,0.139173,0.7674,1616964608758390785
54.7438,-0.0737935,2.15954,0.000820932,0.0517274,0.00207793,0.00415363,0.0729953,1.54898,-0.00496867,0.0144795,0,0.5348,361448,4.43638e+06,2438.34,-0.43994,0.334267,-4.51725,-0.00137594,-0.325081,-0.00858388,0.000988592,0.0517184,0.00229889,0.0527634,-0.0641093,0.139398,0.7674,1616964608768415510
54.7363,-0.0753175,2.13628,0.000803661,0.0480666,0.00195937,0.00416634,0.0736378,1.549,-0.00498436,0.0143862,0,0.5348,361449,4.43638e+06,2438.37,-0.45051,0.331107,-4.42328,-0.00121884,-0.272842,-0.00917042,0.000962978,0.048058,0.00216548,0.0526322,-0.153609,0.139653,0.7674,1616964608778413521
54.7302,-0.0764863,2.11636,0.000789467,0.0451866,0.00185829,0.00417637,0.0741244,1.54903,-0.00499961,0.0105198,0,0.5348,361449,4.43638e+06,2438.39,-0.459867,0.329562,-4.36311,-0.00132643,-0.265637,-0.0096382,0.000941477,0.0451784,0.00205263,0.0525008,-0.136245,0.139898,0.7674,1616964608788420633
54.724,-0.0775969,2.09518,0.00077456,0.0423878,0.00175167,0.00418629,0.0745864,1.54905,-0.00501165,0.00793742,0,0.5348,361450,4.43638e+06,2438.42,-0.467924,0.327749,-4.30317,-0.00136692,-0.254935,-0.0100384,0.000918712,0.0423801,0.00193448,0.0524009,-0.130356,0.140128,0.7674,1616964608798413253
54.718,-0.0786285,2.07344,0.000759338,0.0397306,0.00164277,0.0041958,0.0750123,1.54907,-0.00502355,0.00481928,0,0.5348,361451,4.43638e+06,2438.44,-0.475822,0.325602,-4.24197,-0.00139128,-0.245702,-0.0104155,0.000895325,0.0397233,0.00181456,0.0523032,-0.118383,0.140367,0.7674,1616964608808409248
54.7117,-0.0796087,2.0503,0.000743534,0.0370918,0.00152737,0.00420525,0.0754195,1.54909,-0.00503496,0.00143219,0,0.5348,361451,4.43638e+06,2438.47,-0.483564,0.323241,-4.17977,-0.00144469,-0.238443,-0.0108006,0.000870731,0.037085,0.00168813,0.0522107,-0.103456,0.140616,0.7674,1616964608818349695
54.7045,-0.0806281,2.02246,0.000724412,0.0341499,0.00138946,0.00421583,0.0758539,1.5491,-0.0050463,-0.00232518,0,0.5348,361452,4.43638e+06,2438.5,-0.491735,0.320215,-4.10824,-0.00152964,-0.229019,-0.0111678,0.000840951,0.0341437,0.00153784,0.0521217,-0.0902794,0.140897,0.7674,1616964608828351998
54.6986,-0.0814009,1.99892,0.00070771,0.0318025,0.00127242,0.00422424,0.0761855,1.54912,-0.00505899,-0.00707303,0,0.5348,361452,4.43638e+06,2438.52,-0.49973,0.31687,-4.03931,-0.00163378,-0.223274,-0.011498,0.000815092,0.0317968,0.00141084,0.05202,-0.0692964,0.14118,0.7674,1616964608838386062
54.6986,-0.0814009,1.99892,0.00070771,0.0318025,0.00127242,0.00422424,0.0761855,1.54912,-0.00506909,-0.0111494,0,0.5348,361452,4.43638e+06,2438.52,-0.49973,0.31687,-4.03931,-0.00170033,-0.22876,-0.0116502,0.000815092,0.0317968,0.00141084,0.0519306,-0.0416961,0.141311,0.7674,1616964608848379849
54.6921,-0.0821502,1.97258,0.00068878,0.0293253,0.00114186,0.00423306,0.0765187,1.54913,-0.00506909,-0.011326,0,0.5348,361453,4.43638e+06,2438.55,-0.506925,0.313464,-3.97105,-0.00160368,-0.205338,-0.0119402,0.000785841,0.0293202,0.0012697,0.0519577,-0.0620397,0.141601,0.7674,1616964608858378577
54.6863,-0.0827656,1.94847,0.00067305,0.0273142,0.00102133,0.00424076,0.0767979,1.54915,-0.00507968,-0.0159414,0,0.5348,361454,4.43638e+06,2438.57,-0.514013,0.308967,-3.89271,-0.00152851,-0.195113,-0.0120604,0.000760554,0.0273097,0.00114052,0.0519692,-0.0715035,0.141734,0.7674,1616964608868415156
54.6801,-0.0833299,1.92262,0.000655585,0.0252287,0.000892349,0.00424857,0.0770694,1.54916,-0.00508891,-0.0214678,0,0.5348,361454,4.43638e+06,2438.6,-0.520595,0.305341,-3.8271,-0.00168057,-0.191847,-0.0122846,0.000732771,0.0252247,0.0010025,0.0518862,-0.0477501,0.142011,0.7674,1616964608878379279
54.6729,-0.0838922,1.89146,0.000630557,0.0225439,0.00073924,0.00425723,0.0773545,1.54917,-0.00509828,-0.0272198,0,0.5348,361455,4.43638e+06,2438.63,-0.52763,0.302215,-3.76745,-0.00217443,-0.210419,-0.0125278,0.000695293,0.0225406,0.000837713,0.0517289,0.0352754,0.142324,0.7674,1616964608888353293
54.6661,-0.0843067,1.86182,0.000605296,0.0201533,0.000593459,0.00426489,0.0775922,1.54918,-0.00510868,-0.0316115,0,0.5348,361455,4.43638e+06,2438.66,-0.534918,0.297054,-3.68489,-0.00219526,-0.201937,-0.0127708,0.000658118,0.0201506,0.000681455,0.0516618,0.0532146,0.142655,0.7674,1616964608898408878
54.6599,-0.0846021,1.83387,0.000581628,0.0179989,0.000455787,0.0042716,0.0777892,1.54918,-0.00511786,-0.0362628,0,0.5348,361456,4.43638e+06,2438.69,-0.541475,0.292138,-3.60849,-0.00222935,-0.196439,-0.0129896,0.000623147,0.0179967,0.000534283,0.0516045,0.0756971,0.14297,0.7674,1616964608908385406
54.6527,-0.0848548,1.80154,0.000554224,0.0156185,0.000297313,0.00427875,0.0779847,1.54919,-0.00512592,-0.0409095,0,0.5348,361457,4.43638e+06,2438.72,-0.54794,0.286801,-3.52789,-0.00227283,-0.190289,-0.0131759,0.000582679,0.015617,0.000365248,0.0515603,0.0979005,0.143299,0.7674,1616964608918420049
54.6459,-0.0849886,1.77001,0.000527133,0.0134025,0.000142942,0.00428518,0.0781466,1.54919,-0.0051345,-0.0457984,0,0.5348,361457,4.43638e+06,2438.76,-0.554477,0.280962,-3.44325,-0.00234963,-0.184258,-0.0133368,0.000542824,0.0134018,0.000200986,0.0515129,0.12197,0.143646,0.7674,1616964608928379066
54.6459,-0.0849886,1.77001,0.000527133,0.0134025,0.000142942,0.00428518,0.0781466,1.54919,-0.00514221,-0.0507403,0,0.5348,361457,4.43638e+06,2438.76,-0.554477,0.280962,-3.44325,-0.00234963,-0.184258,-0.0133368,0.000542824,0.0134018,0.000200986,0.0515129,0.12197,0.143646,0.7674,1616964608938409717
54.6384,-0.0850171,1.73545,0.000496857,0.0109784,-2.51311e-05,0.00429155,0.0782915,1.54919,-0.00514221,-0.0551058,0,0.5348,361458,4.43638e+06,2438.79,-0.560811,0.275737,-3.36779,-0.00243698,-0.195731,-0.0134821,0.000498582,0.0109784,2.20509e-05,0.0514766,0.187778,0.144004,0.7674,1616964608948350202
54.6309,-0.0849201,1.69995,0.00046413,0.00855736,-0.000196963,0.0042974,0.078407,1.54919,-0.00514986,-0.0594069,0,0.5348,361459,4.43638e+06,2438.83,-0.567241,0.268735,-3.27141,-0.00257821,-0.184359,-0.0136294,0.000451545,0.00855812,-0.000160681,0.0514452,0.204947,0.144381,0.7674,1616964608958382406
54.6239,-0.0847271,1.66675,0.000433406,0.00643875,-0.000357913,0.0043023,0.0784885,1.54919,-0.00515688,-0.0634321,0,0.5348,361459,4.43638e+06,2438.86,-0.573173,0.261767,-3.17805,-0.00261212,-0.174199,-0.0137684,0.000407435,0.00644023,-0.000331228,0.0514201,0.221082,0.14475,0.7674,1616964608968405041
54.6167,-0.0844088,1.63232,0.00040089,0.00434793,-0.00052452,0.00430678,0.078547,1.54918,-0.00516276,-0.0679771,0,0.5348,361460,4.43638e+06,2438.89,-0.578683,0.254872,-3.08778,-0.00269977,-0.166931,-0.0138468,0.00036108,0.00435014,-0.000507354,0.0514062,0.243336,0.145114,0.7674,1616964608978414175
54.6104,-0.0840591,1.60196,0.00037234,0.00257639,-0.000671354,0.00431028,0.0785788,1.54917,-0.00516813,-0.0726402,0,0.5348,361461,4.43638e+06,2438.93,-0.583661,0.248242,-3.00244,-0.00261642,-0.161754,-0.0138892,0.000320352,0.00257926,-0.000662287,0.0513966,0.268305,0.145462,0.7674,1616964608988351574
54.6039,-0.0836136,1.57075,0.000342451,0.000790061,-0.000821166,0.0043134,0.078592,1.54916,-0.00517233,-0.0775789,0,0.5348,361461,4.43638e+06,2438.96,-0.588165,0.241922,-2.92307,-0.00280399,-0.159472,-0.0138556,0.000278049,0.000793596,-0.000820283,0.0513953,0.297302,0.145791,0.7674,1616964608998401223
54.6039,-0.0836136,1.57075,0.000342451,0.000790061,-0.000821166,0.0043134,0.078592,1.54916,-0.00517608,-0.0824449,0,0.5348,361461,4.43638e+06,2438.96,-0.588165,0.241922,-2.92307,-0.00280399,-0.159472,-0.0138556,0.000278049,0.000793596,-0.000820283,0.0513953,0.297302,0.145791,0.7674,1616964609008429991
54.597,-0.0830591,1.53781,0.000308759,-0.00104768,-0.000977904,0.00431616,0.0785852,1.54915,-0.00517608,-0.089242,0,0.5348,361462,4.43638e+06,2438.99,-0.592606,0.235184,-2.8396,-0.00300282,-0.15597,-0.0138096,0.000231396,-0.00104345,-0.000985458,0.0514032,0.325252,0.146131,0.7674,1616964609018385171
54.5905,-0.0824169,1.50585,0.000274701,-0.00296029,-0.00112777,0.0043183,0.0785583,1.54914,-0.00517939,-0.0938604,0,0.5348,361462,4.43638e+06,2439.03,-0.596812,0.229768,-2.7739,-0.00317164,-0.179074,-0.0137397,0.000184917,-0.00295539,-0.00114407,0.0514183,0.416058,0.146472,0.7674,1616964609028406204
54.5834,-0.081649,1.47104,0.000235081,-0.00501612,-0.00128702,0.00432001,0.0785053,1.54913,-0.00518196,-0.097356,0,0.5348,361463,4.43638e+06,2439.06,-0.600912,0.221944,-2.68206,-0.0034285,-0.168488,-0.0134926,0.000132131,-0.00501052,-0.00131273,0.0514451,0.429825,0.146815,0.7674,1616964609038434889
54.5762,-0.0807762,1.43597,0.000195743,-0.0069177,-0.00144383,0.0043211,0.0784291,1.54911,-0.00518401,-0.100145,0,0.5348,361464,4.43638e+06,2439.1,-0.604919,0.213753,-2.58596,-0.00309415,-0.154766,-0.0132145,7.99241e-05,-0.00691139,-0.00147825,0.0514834,0.436852,0.147166,0.7674,1616964609048404551
54.5691,-0.0798195,1.40097,0.000158469,-0.00868429,-0.00159669,0.00432161,0.0783319,1.54909,-0.00518532,-0.103472,0,0.5348,361464,4.43638e+06,2439.13,-0.608608,0.205514,-2.49035,-0.0032311,-0.143933,-0.0129157,3.01958e-05,-0.00867731,-0.00163924,0.0515225,0.449922,0.14751,0.7674,1616964609058383576
54.5619,-0.0787578,1.36574,0.000117818,-0.0103628,-0.00174727,0.00432149,0.0782139,1.54907,-0.00518593,-0.107258,0,0.5348,361465,4.43638e+06,2439.17,-0.612006,0.197359,-2.396,-0.00347463,-0.135559,-0.0126567,-2.26311e-05,-0.0103552,-0.00179753,0.0515723,0.46812,0.147846,0.7674,1616964609068383206
54.5619,-0.0787578,1.36574,0.000117818,-0.0103628,-0.00174727,0.00432149,0.0782139,1.54907,-0.00518579,-0.111295,0,0.5348,361465,4.43638e+06,2439.17,-0.612006,0.197359,-2.396,-0.00347463,-0.135559,-0.0126567,-2.26311e-05,-0.0103552,-0.00179753,0.0515723,0.46812,0.147846,0.7674,1616964609078384391
54.5548,-0.0776214,1.33114,7.54043e-05,-0.0119341,-0.00188893,0.00432076,0.0780792,1.54905,-0.00518579,-0.119835,0,0.5348,361466,4.43638e+06,2439.21,-0.615313,0.189011,-2.30337,-0.0036379,-0.128816,-0.0120836,-7.64155e-05,-0.0119258,-0.00194641,0.0516334,0.489462,0.148171,0.7674,1616964609088383846
54.5477,-0.0764153,1.29625,3.41727e-05,-0.0138423,-0.00202839,0.00431941,0.0779234,1.54902,-0.00518491,-0.124118,0,0.5348,361466,4.43638e+06,2439.25,-0.61824,0.182996,-2.23567,-0.0034717,-0.157592,-0.0119581,-0.000128874,-0.0138334,-0.00209452,0.0517027,0.595738,0.148482,0.7674,1616964609098413965
54.5405,-0.0750899,1.26086,-7.19464e-06,-0.0155744,-0.00216874,0.00431742,0.0777443,1.549,-0.00518329,-0.125831,0,0.5348,361467,4.43638e+06,2439.29,-0.620863,0.174314,-2.13512,-0.00350596,-0.140392,-0.0118422,-0.000181379,-0.0155649,-0.00224274,0.0517774,0.59392,0.148793,0.7674,1616964609108388337
54.5327,-0.0735741,1.22283,-5.21501e-05,-0.017261,-0.00231775,0.00431456,0.0775296,1.54897,-0.0051809,-0.12823,0,0.5348,361468,4.43638e+06,2439.33,-0.62336,0.165342,-2.03244,-0.00353365,-0.12605,-0.011661,-0.000237989,-0.0172508,-0.0023994,0.0518631,0.598981,0.149114,0.7674,1616964609118354002
54.5327,-0.0735741,1.22283,-5.21501e-05,-0.017261,-0.00231775,0.00431456,0.0775296,1.54897,-0.00517747,-0.130761,0,0.5348,361468,4.43638e+06,2439.33,-0.62336,0.165342,-2.03244,-0.00353365,-0.12605,-0.011661,-0.000237989,-0.0172508,-0.0023994,0.0518631,0.598981,0.149114,0.7674,1616964609128354845
54.5232,-0.0715809,1.17572,-0.00010559,-0.0196779,-0.00249734,0.00431005,0.0772318,1.54893,-0.00517747,-0.140183,0,0.5348,361468,4.43638e+06,2439.38,-0.626028,0.156891,-1.93877,-0.00337577,-0.146706,-0.0114708,-0.00030541,-0.019667,-0.00258985,0.0519685,0.694215,0.149479,0.7674,1616964609138385620
54.5158,-0.0699404,1.13965,-0.000147965,-0.0210965,-0.00263462,0.00430586,0.0769799,1.5489,-0.00517206,-0.13811,0,0.5348,361469,4.43638e+06,2439.42,-0.627919,0.145788,-1.81025,-0.00355086,-0.111188,-0.0112591,-0.000358184,-0.021085,-0.00273353,0.0520902,0.653718,0.14983,0.7674,1616964609148389121
54.5084,-0.0682242,1.10392,-0.000191431,-0.0223908,-0.00276898,0.00430102,0.0767122,1.54886,-0.00516703,-0.141079,0,0.5348,361470,4.43638e+06,2439.46,-0.629403,0.137154,-1.71271,-0.00360207,-0.101005,-0.0110109,-0.000411664,-0.0223787,-0.00287371,0.0522024,0.666777,0.150132,0.7674,1616964609158400535
54.5084,-0.0682242,1.10392,-0.000191431,-0.0223908,-0.00276898,0.00430102,0.0767122,1.54886,-0.00516123,-0.144492,0,0.5348,361470,4.43638e+06,2439.46,-0.629403,0.137154,-1.71271,-0.00360207,-0.101005,-0.0110109,-0.000411664,-0.0223787,-0.00287371,0.0522024,0.666777,0.150132,0.7674,1616964609168395005
54.4997,-0.0660992,1.06244,-0.000242419,-0.0237858,-0.00292255,0.0042945,0.0763792,1.54882,-0.00516123,-0.154447,0,0.5348,361471,4.43638e+06,2439.51,-0.630772,0.12789,-1.60859,-0.00359068,-0.091936,-0.010738,-0.000473891,-0.0237731,-0.00303351,0.0523283,0.683616,0.150452,0.7674,1616964609178379013
54.4929,-0.0643707,1.03016,-0.000279598,-0.0251829,-0.00303917,0.00428886,0.0761043,1.54878,-0.0051534,-0.157008,0,0.5348,361471,4.43638e+06,2439.54,-0.630683,0.121203,-1.53615,-0.00324295,-0.120899,-0.0104839,-0.000519573,-0.0251697,-0.00315628,0.0524708,0.790681,0.150751,0.7674,1616964609188413519
54.4861,-0.0625738,0.997898,-0.00031604,-0.0264494,-0.00315399,0.00428269,0.0758133,1.54875,-0.00514663,-0.158915,0,0.5348,361472,4.43638e+06,2439.58,-0.631313,0.113257,-1.44638,-0.00330157,-0.108697,-0.0102525,-0.000564216,-0.0264357,-0.00327665,0.0525903,0.794821,0.151008,0.7674,1616964609198413801
54.4794,-0.0607408,0.966432,-0.000352177,-0.0275875,-0.00326423,0.00427614,0.0755142,1.54871,-0.00513923,-0.161256,0,0.5348,361472,4.43638e+06,2439.62,-0.631723,0.105546,-1.3595,-0.00331958,-0.0990935,-0.0100023,-0.000608066,-0.0275733,-0.00339184,0.0527165,0.804055,0.151258,0.7674,1616964609208349308
54.473,-0.0589324,0.93644,-0.000386996,-0.0286082,-0.00336756,0.0042694,0.0752155,1.54867,-0.00513137,-0.164018,0,0.5348,361473,4.43638e+06,2439.65,-0.631921,0.0982529,-1.2775,-0.0033109,-0.0923515,-0.0097421,-0.000649969,-0.0285935,-0.00349957,0.0528463,0.818421,0.151495,0.7674,1616964609218411480
54.4665,-0.0570358,0.906134,-0.000422071,-0.0296094,-0.00346989,0.00426207,0.0749002,1.54864,-0.00512328,-0.167386,0,0.5348,361473,4.43638e+06,2439.69,-0.631953,0.0912278,-1.19898,-0.00325975,-0.0887175,-0.0094611,-0.000691921,-0.0295944,-0.00360617,0.0529775,0.839351,0.151723,0.7674,1616964609228405696
54.4603,-0.0551895,0.877626,-0.000454921,-0.0305166,-0.00356428,0.0042547,0.0745912,1.5486,-0.00511449,-0.170508,0,0.5348,361474,4.43638e+06,2439.73,-0.631785,0.0843834,-1.12223,-0.00322275,-0.0847013,-0.00918524,-0.00073098,-0.0305011,-0.00370439,0.0531143,0.858399,0.151941,0.7674,1616964609238416334
54.4535,-0.0531382,0.846983,-0.000489952,-0.031478,-0.00366348,0.00424627,0.0742458,1.54856,-0.00510564,-0.174043,0,0.5348,361475,4.43638e+06,2439.77,-0.631476,0.0775475,-1.04588,-0.0031729,-0.0824124,-0.00889377,-0.000772391,-0.0314621,-0.0038076,0.0532515,0.881672,0.152156,0.7674,1616964609248384609
54.4469,-0.0510776,0.817338,-0.000520224,-0.0323554,-0.00376528,0.00423761,0.0738979,1.54851,-0.00509552,-0.176785,0,0.5348,361475,4.43638e+06,2439.8,-0.631095,0.0711685,-0.966024,-0.0028471,-0.0767723,-0.00932167,-0.000809126,-0.0323391,-0.00391304,0.0533994,0.897101,0.152379,0.7674,1616964609258537861
54.4405,-0.0490144,0.788779,-0.000549946,-0.0331791,-0.00386106,0.00422879,0.0735501,1.54847,-0.00508513,-0.180022,0,0.5348,361476,4.43638e+06,2439.84,-0.630404,0.0644634,-0.890782,-0.00284007,-0.0739719,-0.00900061,-0.000844777,-0.0331625,-0.00401218,0.0535468,0.918139,0.152598,0.7674,1616964609268378890
54.4341,-0.0469106,0.760568,-0.00057955,-0.0339689,-0.00395332,0.0042196,0.0731942,1.54843,-0.00507454,-0.183061,0,0.5348,361476,4.43638e+06,2439.88,-0.629566,0.0579003,-0.817084,-0.00283206,-0.0708995,-0.00867119,-0.000879935,-0.0339519,-0.00410762,0.0536955,0.937651,0.152807,0.7674,1616964609278422748
54.4276,-0.0447269,0.732217,-0.000609385,-0.0347487,-0.00404359,0.00420987,0.072824,1.54838,-0.00506352,-0.18628,0,0.5348,361477,4.43638e+06,2439.91,-0.62858,0.051429,-0.744219,-0.00280625,-0.0687401,-0.00834426,-0.000915046,-0.0347314,-0.00420097,0.0538487,0.959182,0.15301,0.7674,1616964609288415332
54.4243,-0.0435915,0.717816,-0.000624359,-0.0351518,-0.00408842,0.00420475,0.0726312,1.54836,-0.00505185,-0.189199,0,0.5348,361477,4.43638e+06,2439.93,-0.628064,0.0484915,-0.711833,-0.00278424,-0.0653781,-0.00799191,-0.000932581,-0.0351343,-0.00424738,0.0540087,0.977791,0.153208,0.7674,1616964609298381674
54.421,-0.0424445,0.703539,-0.000639639,-0.0355106,-0.00413228,0.00419953,0.0724364,1.54834,-0.00504571,-0.195802,0,0.5348,361478,4.43638e+06,2439.95,-0.627395,0.0448408,-0.669899,-0.00278424,-0.0653781,-0.00799191,-0.00095031,-0.0354929,-0.00429263,0.0540087,0.977791,0.153208,0.7674,1616964609308384234
54.414,-0.039994,0.673152,-0.000669015,-0.0367682,-0.00422152,0.00418823,0.0720149,1.54829,-0.00503944,-0.202666,0,0.5348,361478,4.43638e+06,2439.99,-0.626279,0.0401659,-0.62165,-0.00246913,-0.103574,-0.00763619,-0.00098466,-0.0367502,-0.00438685,0.0541767,1.10093,0.153406,0.7674,1616964609318378662
54.4056,-0.0369507,0.636695,-0.000704985,-0.0379625,-0.00432476,0.00417396,0.071486,1.54822,-0.00502588,-0.201597,0,0.5348,361479,4.43638e+06,2440.04,-0.62439,0.0314506,-0.520395,-0.00266432,-0.079932,-0.00723914,-0.00102602,-0.0379441,-0.00449465,0.0543579,1.07646,0.15362,0.7674,1616964609328347429
54.4013,-0.0353751,0.618433,-0.000723611,-0.0384012,-0.00437493,0.00416645,0.071211,1.54819,-0.00500875,-0.199479,0,0.5348,361479,4.43638e+06,2440.07,-0.623185,0.0264788,-0.461731,-0.00259989,-0.0612301,-0.00700392,-0.00104709,-0.0383826,-0.00454642,0.0545566,1.04818,0.153733,0.7674,1616964609338398513
54.397,-0.03379,0.600402,-0.000743631,-0.0387755,-0.00442314,0.00415878,0.0709334,1.54816,-0.00499974,-0.204657,0,0.5348,361480,4.43638e+06,2440.09,-0.621965,0.021959,-0.40943,-0.00279463,-0.0522524,-0.00672817,-0.00106936,-0.0387568,-0.00459591,0.0545832,1.04174,0.153844,0.7674,1616964609348436429
54.3889,-0.0307758,0.56659,-0.00077772,-0.0398785,-0.00450841,0.00414401,0.0704012,1.5481,-0.00499053,-0.21012,0,0.5348,361480,4.43638e+06,2440.14,-0.619674,0.0154644,-0.338018,-0.00250368,-0.0766074,-0.00623752,-0.00110729,-0.0398595,-0.00468523,0.0548194,1.13613,0.154047,0.7674,1616964609358423046
54.3891,-0.0286887,0.548096,-0.000798136,-0.0403691,-0.0045589,0.00413448,0.0700614,1.54806,-0.00497281,-0.207873,0,0.5348,361480,4.43638e+06,2440.14,-0.618306,0.0108311,-0.282847,-0.00242382,-0.058247,-0.0059948,-0.00112977,-0.04035,-0.00473739,0.0550214,1.10708,0.15414,0.7674,1616964609368353764
54.3789,-0.0269305,0.525203,-0.000820425,-0.0407742,-0.0046069,0.00412475,0.0697181,1.54802,-0.00496137,-0.203869,0,0.5348,361481,4.43638e+06,2440.2,-0.616577,0.00573214,-0.222572,-0.00264622,-0.0480883,-0.00569867,-0.00115387,-0.0407548,-0.00478667,0.0550506,1.09984,0.154252,0.7674,1616964609378354743
54.3719,-0.0242009,0.496663,-0.000848481,-0.0415364,-0.00466957,0.0041108,0.0692286,1.54796,-0.0049497,-0.215208,0,0.5348,361482,4.43638e+06,2440.24,-0.613556,-0.00117,-0.143774,-0.00234692,-0.0600506,-0.00519415,-0.0011841,-0.0415169,-0.0048519,0.0553347,1.162,0.15443,0.7674,1616964609388421926
54.3642,-0.0211955,0.466169,-0.000878089,-0.0421639,-0.00473252,0.00409519,0.0686864,1.5479,-0.00493296,-0.215079,0,0.5348,361483,4.43638e+06,2440.29,-0.610611,-0.00829683,-0.0584869,-0.00235026,-0.0448385,-0.00476217,-0.00121554,-0.0421442,-0.00491674,0.0555432,1.15053,0.15457,0.7674,1616964609398421201
54.3582,-0.0188065,0.442659,-0.00090038,-0.0425093,-0.00477773,0.00408259,0.0682531,1.54784,-0.00491423,-0.214818,0,0.5348,361483,4.43638e+06,2440.32,-0.607681,-0.0147292,0.018482,-0.0022006,-0.0311124,-0.00432498,-0.00123884,-0.0424894,-0.00496279,0.0557687,1.13933,0.154689,0.7674,1616964609408381768
54.3517,-0.0161914,0.417596,-0.000923124,-0.0428846,-0.00482225,0.00406866,0.0677789,1.54779,-0.00489911,-0.217519,0,0.5348,361484,4.43638e+06,2440.36,-0.604977,-0.0199745,0.0803014,-0.00207671,-0.0306636,-0.00390958,-0.00126231,-0.0428646,-0.00500819,0.0559526,1.15931,0.154789,0.7674,1616964609418406188
54.3457,-0.0137398,0.394808,-0.000942733,-0.043194,-0.00485924,0.00405549,0.0673351,1.54774,-0.00488239,-0.219387,0,0.5348,361484,4.43638e+06,2440.4,-0.602133,-0.0252086,0.142848,-0.00191525,-0.0272518,-0.00349245,-0.00128224,-0.0431739,-0.00504581,0.0561508,1.1711,0.154879,0.7674,1616964609428385360
54.3398,-0.0113243,0.372653,-0.00096104,-0.0434979,-0.00489111,0.00404226,0.0668925,1.54769,-0.00486659,-0.221877,0,0.5348,361485,4.43638e+06,2440.43,-0.599354,-0.0300688,0.19973,-0.00183852,-0.0270115,-0.00298116,-0.00130048,-0.0434778,-0.00507826,0.0563363,1.18973,0.154956,0.7674,1616964609438383412
54.3331,-0.00857396,0.348093,-0.000981406,-0.043833,-0.00492088,0.00402709,0.0663886,1.54763,-0.00485072,-0.224281,0,0.5348,361486,4.43638e+06,2440.47,-0.596295,-0.0351569,0.259747,-0.00182424,-0.0260189,-0.00244083,-0.00132031,-0.0438129,-0.00510861,0.0565231,1.20725,0.155025,0.7674,1616964609448387336
54.3331,-0.00857396,0.348093,-0.000981406,-0.043833,-0.00492088,0.00402709,0.0663886,1.54763,-0.00483251,-0.225482,0,0.5348,361486,4.43638e+06,2440.47,-0.596295,-0.0351569,0.259747,-0.00182424,-0.0260189,-0.00244083,-0.00132031,-0.0438129,-0.00510861,0.0565231,1.20725,0.155025,0.7674,1616964609458408004
54.326,-0.00563182,0.322431,-0.00100285,-0.0441127,-0.00494558,0.0040106,0.0658453,1.54756,-0.00483251,-0.235761,0,0.5348,361486,4.43638e+06,2440.52,-0.592777,-0.0407976,0.327759,-0.00179814,-0.0196764,-0.00184898,-0.00134063,-0.0440925,-0.00513358,0.0567357,1.2122,0.155085,0.7674,1616964609468385017
54.3195,-0.0029243,0.299001,-0.00102046,-0.0447484,-0.00496151,0.00399526,0.0653404,1.54751,-0.00481272,-0.236543,0,0.5348,361487,4.43638e+06,2440.56,-0.589538,-0.0444601,0.367376,-0.00155199,-0.0519734,-0.00127616,-0.0013568,-0.0447283,-0.00515124,0.0569628,1.31717,0.15513,0.7674,1616964609478411703
54.3135,-0.00042763,0.277698,-0.00103646,-0.0451611,-0.00497087,0.00398086,0.0648663,1.54745,-0.00479432,-0.23541,0,0.5348,361487,4.43638e+06,2440.59,-0.58603,-0.0498242,0.43421,-0.00158501,-0.0368233,-0.000766315,-0.00137103,-0.045141,-0.00516147,0.057171,1.29819,0.155158,0.7674,1616964609488415146
54.3071,0.00221621,0.255498,-0.00105336,-0.0455121,-0.0049753,0.00396539,0.0643581,1.54739,-0.00477703,-0.235901,0,0.5348,361488,4.43638e+06,2440.63,-0.582496,-0.0546801,0.494964,-0.00157061,-0.028752,-0.000266358,-0.00138563,-0.045492,-0.00516643,0.057368,1.29647,0.155173,0.7674,1616964609498416458
54.3014,0.00460153,0.236003,-0.00106808,-0.0457382,-0.00497437,0.00395134,0.0638984,1.54734,-0.00475847,-0.236086,0,0.5348,361489,4.43638e+06,2440.67,-0.578955,-0.0593125,0.55333,-0.00150033,-0.0203106,0.000201858,-0.00139793,-0.0457182,-0.0051656,0.0575772,1.2923,0.155177,0.7674,1616964609508375589
54.2948,0.00737024,0.213735,-0.00108396,-0.0459698,-0.00496854,0.00393478,0.0633592,1.54728,-0.0047416,-0.23756,0,0.5348,361489,4.43638e+06,2440.71,-0.575264,-0.0636073,0.608799,-0.00139001,-0.0171061,0.000596435,-0.00141066,-0.0459499,-0.00515973,0.0577683,1.30151,0.155169,0.7674,1616964609518385446
54.2948,0.00737024,0.213735,-0.00108396,-0.0459698,-0.00496854,0.00393478,0.0633592,1.54728,-0.0047416,-0.23756,0,0.5348,361489,4.43638e+06,2440.71,-0.575264,-0.0636073,0.608799,-0.00139001,-0.0171061,0.000596435,-0.00141066,-0.0459499,-0.00515973,0.0577683,1.30151,0.155169,0.7674,1616964609528375499
54.2858,0.0110878,0.183557,-0.00110335,-0.0467445,-0.00495101,0.00391204,0.0626153,1.5472,-0.00472174,-0.247358,0,0.5348,361490,4.43638e+06,2440.77,-0.57074,-0.0677242,0.65789,-0.0012688,-0.0435513,0.00126447,-0.00142523,-0.0467247,-0.00514392,0.0579926,1.39349,0.155145,0.7674,1616964609538404946
54.277,0.0147187,0.155166,-0.00112061,-0.0468377,-0.00492519,0.00388934,0.0618756,1.54712,-0.00469445,-0.240547,0,0.5348,361491,4.43638e+06,2440.82,-0.56472,-0.0750572,0.759397,-0.0011426,-0.00398314,0.00176265,-0.00143703,-0.0468182,-0.00511711,0.0582928,1.31519,0.155096,0.7674,1616964609548380631
54.2736,0.0161562,0.144253,-0.00112607,-0.0467541,-0.00491234,0.00388023,0.06158,1.54708,-0.00466721,-0.237754,0,0.5348,361491,4.43638e+06,2440.84,-0.561743,-0.078528,0.806853,-0.000864249,0.0132115,0.00203128,-0.00144014,-0.0467347,-0.00510339,0.0585791,1.28317,0.155065,0.7674,1616964609558347475
54.2701,0.0175904,0.133561,-0.00113167,-0.0466518,-0.00489806,0.00387109,0.061285,1.54705,-0.00465627,-0.24292,0,0.5348,361492,4.43638e+06,2440.86,-0.559407,-0.0806877,0.836141,-0.000884512,0.0161809,0.00225841,-0.0014433,-0.0466325,-0.00508816,0.0585869,1.28102,0.155037,0.7674,1616964609568381427
54.2626,0.0206879,0.110383,-0.00114101,-0.0469212,-0.00486227,0.00385116,0.0606402,1.54698,-0.0046453,-0.248203,0,0.5348,361492,4.43638e+06,2440.91,-0.554853,-0.0834977,0.871435,-0.000759796,-0.0156117,0.00270908,-0.00144719,-0.0469021,-0.00505222,0.0588207,1.38288,0.154967,0.7674,1616964609578393036
54.2568,0.0230305,0.093246,-0.00114659,-0.0468998,-0.00483029,0.0038358,0.060143,1.54693,-0.0046214,-0.245366,0,0.5348,361493,4.43638e+06,2440.95,-0.550157,-0.088051,0.935082,-0.000537033,0.00319576,0.00310381,-0.00144828,-0.0468809,-0.00501923,0.0590721,1.34871,0.154891,0.7674,1616964609588384858
54.2516,0.0251444,0.0780049,-0.00115039,-0.0468691,-0.00479772,0.00382174,0.0596885,1.54688,-0.00460295,-0.24652,0,0.5348,361494,4.43638e+06,2440.98,-0.546313,-0.0910817,0.977262,-0.000427251,0.00475141,0.0034373,-0.0014478,-0.0468505,-0.00498568,0.0592637,1.35697,0.154819,0.7674,1616964609598389263
54.2451,0.0277624,0.0594089,-0.00115423,-0.0468421,-0.00475285,0.00380414,0.0591188,1.54682,-0.00458609,-0.248275,0,0.5348,361494,4.43638e+06,2441.02,-0.542085,-0.0940719,1.0205,-0.000382938,0.00425676,0.00378625,-0.00144609,-0.0468237,-0.00493964,0.0594381,1.37126,0.154734,0.7674,1616964609608380702
54.2393,0.0300405,0.043567,-0.00115648,-0.0467319,-0.00470916,0.00378859,0.0586159,1.54677,-0.00456496,-0.247963,0,0.5348,361495,4.43638e+06,2441.06,-0.537611,-0.097453,1.06924,-0.000244274,0.0115883,0.00414708,-0.00144322,-0.0467138,-0.00489458,0.0596548,1.36445,0.154635,0.7674,1616964609618387773
54.2334,0.0323796,0.0276186,-0.00115775,-0.0466077,-0.00465982,0.00377246,0.0580939,1.54671,-0.00454631,-0.24911,0,0.5348,361495,4.43638e+06,2441.1,-0.533317,-0.10031,1.11066,-0.000165314,0.0126725,0.00449733,-0.00143898,-0.0465898,-0.00484379,0.0598444,1.37314,0.154532,0.7674,1616964609628405761
54.228,0.0344975,0.0133965,-0.00115777,-0.0464674,-0.00461078,0.00375761,0.0576132,1.54666,-0.00452695,-0.249881,0,0.5348,361496,4.43638e+06,2441.13,-0.529107,-0.102964,1.15064,-4.97133e-05,0.0149065,0.00481598,-0.00143378,-0.0464498,-0.00479331,0.0600397,1.37822,0.154423,0.7674,1616964609638487402
54.2225,0.0366477,-0.000802046,-0.00115704,-0.0463326,-0.00455701,0.00374237,0.0571192,1.54661,-0.00450914,-0.251334,0,0.5348,361496,4.43638e+06,2441.17,-0.524972,-0.105306,1.18648,1.83308e-05,0.0140973,0.00512248,-0.00142753,-0.0463152,-0.0047381,0.060218,1.39055,0.154309,0.7674,1616964609648388228
54.2196,0.0377247,-0.00786339,-0.00115594,-0.0462636,-0.00452833,0.00373463,0.0568678,1.54659,-0.00449085,-0.252235,0,0.5348,361497,4.43638e+06,2441.19,-0.522887,-0.106409,1.20347,0.000201972,0.0126857,0.0052761,-0.00142357,-0.0462464,-0.00470868,0.0604014,1.39857,0.154248,0.7674,1616964609658372141
54.2168,0.0387924,-0.0147919,-0.00115533,-0.0461802,-0.00449881,0.0037269,0.0566168,1.54656,-0.00448155,-0.25669,0,0.5348,361497,4.43638e+06,2441.2,-0.520701,-0.107682,1.22335,0.000111861,0.015345,0.00542911,-0.00142007,-0.0461631,-0.00467838,0.0603998,1.39727,0.154185,0.7674,1616964609668387221
54.2115,0.0408142,-0.0279752,-0.00115404,-0.0461699,-0.00443955,0.00371206,0.0561329,1.54651,-0.00447228,-0.261202,0,0.5348,361498,4.43638e+06,2441.24,-0.516605,-0.10944,1.24984,5.47938e-05,0.00287808,0.00572172,-0.00141313,-0.0461531,-0.00461817,0.0604908,1.44045,0.154054,0.7674,1616964609678375364
54.2057,0.0429373,-0.0418351,-0.00115067,-0.0462999,-0.00437315,0.00369629,0.0556144,1.54646,-0.00445447,-0.261234,0,0.5348,361498,4.43638e+06,2441.28,-0.51239,-0.111108,1.27635,0.000225069,-0.00945034,0.00599109,-0.00140365,-0.0462834,-0.00455129,0.0607593,1.484,0.153915,0.7674,1616964609688385192
54.2002,0.0449695,-0.0549837,-0.00114688,-0.0462897,-0.00430496,0.00368089,0.0551045,1.54641,-0.00443554,-0.259616,0,0.5348,361499,4.43638e+06,2441.31,-0.507777,-0.113674,1.31889,0.000299339,0.00189563,0.00625636,-0.00139374,-0.0462735,-0.00448212,0.0609443,1.46405,0.153765,0.7674,1616964609698375600
54.1947,0.0469591,-0.0676357,-0.00114239,-0.0461954,-0.00423401,0.00366564,0.0545963,1.54636,-0.00441707,-0.258821,0,0.5348,361499,4.43638e+06,2441.35,-0.503214,-0.115952,1.35741,0.000362084,0.00954977,0.00651683,-0.00138303,-0.0461795,-0.00440989,0.0611238,1.45318,0.153611,0.7674,1616964609708375931
54.1887,0.0490537,-0.0808866,-0.00113676,-0.0460226,-0.00415347,0.00364915,0.0540439,1.54631,-0.00439877,-0.258414,0,0.5348,361500,4.43638e+06,2441.39,-0.498423,-0.118095,1.39503,0.000417361,0.0154233,0.0067844,-0.00137053,-0.0460072,-0.00432771,0.0613002,1.44663,0.153443,0.7674,1616964609718389990
54.1887,0.0490537,-0.0808866,-0.00113676,-0.0460226,-0.00415347,0.00364915,0.0540439,1.54631,-0.00437898,-0.257592,0,0.5348,361500,4.43638e+06,2441.39,-0.498423,-0.118095,1.39503,0.000417361,0.0154233,0.0067844,-0.00137053,-0.0460072,-0.00432771,0.0613002,1.44663,0.153443,0.7674,1616964609728380491
54.1807,0.0517889,-0.0984669,-0.00112837,-0.0461357,-0.00403989,0.00362713,0.0532965,1.54624,-0.00437898,-0.26499,0,0.5348,361501,4.43638e+06,2441.44,-0.492742,-0.119489,1.42204,0.000402414,-0.00412471,0.0070891,-0.00135281,-0.0461208,-0.00421318,0.0614879,1.51113,0.153228,0.7674,1616964609738358957
54.1745,0.0538686,-0.111398,-0.00112051,-0.0458141,-0.00394602,0.0036099,0.0527075,1.54619,-0.00435255,-0.258719,0,0.5348,361502,4.43638e+06,2441.48,-0.486503,-0.122793,1.48104,0.000597905,0.0248914,0.0073824,-0.00133741,-0.0457996,-0.0041171,0.0617427,1.4435,0.152997,0.7674,1616964609748389550
54.1677,0.056054,-0.124657,-0.00111066,-0.0453724,-0.00383971,0.00359134,0.0520707,1.54613,-0.00433188,-0.257725,0,0.5348,361502,4.43638e+06,2441.53,-0.480826,-0.124797,1.5203,0.00064355,0.0322158,0.00766522,-0.00131927,-0.0453583,-0.00400806,0.0619371,1.43188,0.152775,0.7674,1616964609758593644
54.1677,0.056054,-0.124657,-0.00111066,-0.0453724,-0.00383971,0.00359134,0.0520707,1.54613,-0.00430961,-0.256605,0,0.5348,361502,4.43638e+06,2441.53,-0.480826,-0.124797,1.5203,0.00064355,0.0322158,0.00766522,-0.00131927,-0.0453583,-0.00400806,0.0619371,1.43188,0.152775,0.7674,1616964609768382838
54.1616,0.0579777,-0.136406,-0.00110051,-0.0452117,-0.0037385,0.00357454,0.051489,1.54608,-0.00430961,-0.263307,0,0.5348,361503,4.43638e+06,2441.57,-0.475529,-0.125797,1.54047,0.000714707,0.0143414,0.00793009,-0.0013015,-0.0451981,-0.00390527,0.0621462,1.48802,0.152545,0.7674,1616964609778420293
54.156,0.0596596,-0.146542,-0.00109043,-0.0449079,-0.00364313,0.00355934,0.0509589,1.54604,-0.00428945,-0.261031,0,0.5348,361504,4.43638e+06,2441.61,-0.470331,-0.127604,1.57699,0.000817055,0.0260647,0.00814497,-0.0012844,-0.0448946,-0.0038079,0.0623345,1.46308,0.152327,0.7674,1616964609788411059
54.1506,0.0612701,-0.156023,-0.00107974,-0.04455,-0.00354621,0.00354448,0.0504377,1.54599,-0.00427121,-0.260347,0,0.5348,361504,4.43638e+06,2441.64,-0.465427,-0.128955,1.60617,0.000867495,0.0310811,0.00834982,-0.00126673,-0.0445371,-0.00370881,0.0625026,1.45522,0.152113,0.7674,1616964609798422484
54.1451,0.0628268,-0.165082,-0.0010682,-0.0441471,-0.0034454,0.00352961,0.0499127,1.54595,-0.00425338,-0.260009,0,0.5348,361505,4.43638e+06,2441.68,-0.460529,-0.130107,1.63287,0.00092589,0.0343696,0.0085425,-0.00124809,-0.0441346,-0.00360569,0.0626657,1.45126,0.151894,0.7674,1616964609808382541
54.1396,0.0643387,-0.173672,-0.00105586,-0.0437041,-0.00334095,0.00351476,0.0493857,1.54591,-0.00423553,-0.259712,0,0.5348,361506,4.43638e+06,2441.72,-0.455586,-0.131148,1.65814,0.000974843,0.0371746,0.00873133,-0.00122859,-0.043692,-0.0034988,0.0628277,1.44802,0.151666,0.7674,1616964609818419489
54.1347,0.0656215,-0.180832,-0.00104424,-0.0432868,-0.00324592,0.00350172,0.0489205,1.54587,-0.00421772,-0.259531,0,0.5348,361506,4.43638e+06,2441.75,-0.450961,-0.132054,1.6803,0.00104383,0.0391529,0.00889947,-0.00121058,-0.0432752,-0.00340155,0.0629894,1.44622,0.151445,0.7674,1616964609828416174
54.1324,0.0662151,-0.184145,-0.00103812,-0.043093,-0.00319933,0.00349548,0.0486968,1.54585,-0.00420206,-0.260098,0,0.5348,361507,4.43638e+06,2441.77,-0.448814,-0.132341,1.68845,0.00118021,0.0373276,0.00897376,-0.00120138,-0.0430816,-0.00335392,0.0631385,1.45218,0.151339,0.7674,1616964609838412301
54.1301,0.0668006,-0.187355,-0.00103242,-0.0428957,-0.00315238,0.00348928,0.0484742,1.54584,-0.00419457,-0.263342,0,0.5348,361507,4.43638e+06,2441.78,-0.446695,-0.132671,1.69776,0.00109661,0.0380061,0.00904288,-0.00119261,-0.0428844,-0.00330592,0.0631297,1.45226,0.151235,0.7674,1616964609848413163
54.1251,0.0680134,-0.194182,-0.0010196,-0.0426795,-0.00304971,0.00347605,0.0479947,1.5458,-0.00418714,-0.266563,0,0.5348,361507,4.43638e+06,2441.82,-0.442605,-0.13239,1.69877,0.00114434,0.0134818,0.00917662,-0.0011732,-0.0426686,-0.00320173,0.0632623,1.51906,0.151017,0.7674,1616964609858420199
54.1201,0.069164,-0.200726,-0.00100582,-0.0424449,-0.00294476,0.00346291,0.0475127,1.54577,-0.00417125,-0.265342,0,0.5348,361508,4.43638e+06,2441.85,-0.437955,-0.133182,1.72193,0.00117806,0.020844,0.0092809,-0.00115283,-0.0424345,-0.00309521,0.0634023,1.50575,0.150787,0.7674,1616964609868387421
54.1149,0.0702943,-0.207084,-0.000990923,-0.0421239,-0.00283432,0.00344949,0.0470147,1.54573,-0.00415549,-0.26401,0,0.5348,361509,4.43638e+06,2441.89,-0.433196,-0.133851,1.74383,0.00121946,0.027269,0.009385,-0.00113111,-0.0421139,-0.0029829,0.0635399,1.49171,0.150548,0.7674,1616964609878413855
54.1099,0.0713331,-0.212866,-0.000975701,-0.0417435,-0.00272451,0.00343654,0.046529,1.5457,-0.00413938,-0.262818,0,0.5348,361509,4.43638e+06,2441.92,-0.428437,-0.134417,1.76409,0.0012709,0.0327489,0.00948188,-0.00110924,-0.0417339,-0.00287105,0.0636801,1.47953,0.150304,0.7674,1616964609888408553
54.1051,0.0722571,-0.218018,-0.000960423,-0.0413361,-0.0026172,0.00342425,0.0460633,1.54567,-0.00412384,-0.262053,0,0.5348,361510,4.43638e+06,2441.95,-0.423845,-0.134826,1.78145,0.0013226,0.0362282,0.00956876,-0.00108759,-0.0413269,-0.00276166,0.0638143,1.47206,0.150063,0.7674,1616964609898412879
54.1003,0.0731326,-0.222758,-0.000944606,-0.040908,-0.00250862,0.00341216,0.0456008,1.54564,-0.0041091,-0.261677,0,0.5348,361511,4.43638e+06,2441.99,-0.419353,-0.135076,1.79632,0.0013597,0.0379436,0.00964511,-0.00106545,-0.0408992,-0.00265095,0.06394,1.46884,0.149823,0.7674,1616964609908387060
54.1003,0.0731326,-0.222758,-0.000944606,-0.040908,-0.00250862,0.00341216,0.0456008,1.54564,-0.00409459,-0.261337,0,0.5348,361511,4.43638e+06,2441.99,-0.419353,-0.135076,1.79632,0.0013597,0.0379436,0.00964511,-0.00106545,-0.0408992,-0.00265095,0.06394,1.46884,0.149823,0.7674,1616964609918393790
54.0954,0.0739626,-0.2273,-0.000927451,-0.040439,-0.00239311,0.00339968,0.0451177,1.5456,-0.00409459,-0.266281,0,0.5348,361511,4.43638e+06,2442.02,-0.414742,-0.135215,1.81027,0.00139828,0.0392989,0.00971148,-0.0010417,-0.0404306,-0.00253315,0.0640619,1.46619,0.149574,0.7674,1616964609928391907
54.0903,0.0747437,-0.231757,-0.0009093,-0.0401687,-0.00227338,0.00338711,0.0446238,1.54557,-0.00407961,-0.265732,0,0.5348,361512,4.43638e+06,2442.06,-0.410198,-0.134733,1.81174,0.0014155,0.0229154,0.00976188,-0.00101689,-0.0401607,-0.00241182,0.0641868,1.51216,0.149313,0.7674,1616964609938410709
54.0856,0.0753975,-0.235525,-0.000891795,-0.039802,-0.0021601,0.00337554,0.0441619,1.54555,-0.00406453,-0.263585,0,0.5348,361512,4.43638e+06,2442.09,-0.405469,-0.134998,1.82917,0.00148166,0.0313129,0.00978932,-0.000993187,-0.0397945,-0.00229668,0.0643129,1.49044,0.149055,0.7674,1616964609948379895
54.0811,0.0759553,-0.238744,-0.000874592,-0.0394053,-0.0020516,0.00336473,0.0437248,1.54552,-0.00405065,-0.262437,0,0.5348,361513,4.43638e+06,2442.12,-0.401047,-0.135048,1.84219,0.00152213,0.0355897,0.00980867,-0.000970155,-0.0393982,-0.00218627,0.0644275,1.4794,0.148809,0.7674,1616964609958422528
54.0766,0.0764507,-0.241613,-0.000856908,-0.0389843,-0.00194238,0.00335414,0.04329,1.5455,-0.00403768,-0.261806,0,0.5348,361514,4.43638e+06,2442.16,-0.39675,-0.134949,1.85256,0.00155677,0.0376237,0.00982204,-0.000946709,-0.0389776,-0.00207507,0.0645326,1.47393,0.148567,0.7674,1616964609968415003
54.0721,0.0768961,-0.244195,-0.00083825,-0.0385292,-0.00182912,0.00334343,0.0428446,1.54548,-0.00402497,-0.261231,0,0.5348,361514,4.43638e+06,2442.19,-0.392392,-0.134753,1.86187,0.00158109,0.0392159,0.00982581,-0.000922188,-0.0385229,-0.00195973,0.0646342,1.46924,0.14832,0.7674,1616964609978381734
54.0681,0.0772394,-0.246149,-0.000821428,-0.0381084,-0.00172916,0.00333421,0.0424557,1.54546,-0.00401212,-0.260553,0,0.5348,361515,4.43638e+06,2442.22,-0.388306,-0.134573,1.87009,0.00162298,0.0410359,0.00982058,-0.000900282,-0.0381024,-0.00185788,0.0647378,1.46359,0.148083,0.7674,1616964609988382420
54.0641,0.0775353,-0.247844,-0.000804091,-0.0376898,-0.00162767,0.00332507,0.0420649,1.54544,-0.00400106,-0.260539,0,0.5348,361515,4.43638e+06,2442.25,-0.384455,-0.134231,1.87539,0.00164202,0.0402429,0.00980931,-0.000877874,-0.0376842,-0.00175454,0.0648243,1.46483,0.14786,0.7674,1616964609998386577
54.0599,0.0777729,-0.249326,-0.000785454,-0.0372487,-0.00152017,0.00331562,0.0416548,1.54542,-0.00399009,-0.260374,0,0.5348,361516,4.43638e+06,2442.28,-0.380463,-0.13382,1.88049,0.00166412,0.0398887,0.00978537,-0.00085396,-0.0372435,-0.00164509,0.0649087,1.4646,0.147628,0.7674,1616964610008466650
54.0579,0.0778759,-0.249924,-0.000776153,-0.0370307,-0.00146838,0.00331116,0.0414585,1.54541,-0.00397875,-0.259945,0,0.5348,361516,4.43638e+06,2442.29,-0.378427,-0.133653,1.88379,0.00175418,0.0411205,0.00976764,-0.000842151,-0.0370257,-0.00159235,0.0650094,1.46095,0.147509,0.7674,1616964610018376414
54.0559,0.0779502,-0.250451,-0.000767186,-0.0368165,-0.00141667,0.00330675,0.0412633,1.5454,-0.00397339,-0.261634,0,0.5348,361517,4.43638e+06,2442.3,-0.376482,-0.133417,1.88547,0.0016912,0.0404125,0.00975273,-0.000830702,-0.0368116,-0.00153971,0.0649961,1.46174,0.147394,0.7674,1616964610028412248
54.0519,0.078065,-0.251377,-0.000749441,-0.036468,-0.00131386,0.00329814,0.0408767,1.54539,-0.0039681,-0.263314,0,0.5348,361517,4.43638e+06,2442.33,-0.372695,-0.132728,1.88429,0.00164232,0.0329904,0.00970707,-0.000808096,-0.0364635,-0.00143533,0.065024,1.4806,0.147165,0.7674,1616964610038387440
54.0479,0.0781125,-0.252135,-0.000731278,-0.0361763,-0.00121126,0.00328973,0.0404918,1.54537,-0.00395776,-0.262449,0,0.5348,361518,4.43638e+06,2442.36,-0.368879,-0.132113,1.8853,0.00174448,0.0293588,0.00964359,-0.000785172,-0.0361721,-0.00133136,0.0651557,1.49013,0.146937,0.7674,1616964610048414989
54.0441,0.0781148,-0.252614,-0.000712315,-0.0358231,-0.00111001,0.00328162,0.0401127,1.54536,-0.00394768,-0.261154,0,0.5348,361518,4.43638e+06,2442.39,-0.36501,-0.131669,1.89065,0.00176947,0.0329782,0.00957327,-0.000761583,-0.0358192,-0.00122855,0.0652299,1.47806,0.146711,0.7674,1616964610058387158
54.0404,0.0780552,-0.252836,-0.000693807,-0.0354568,-0.00101279,0.00327402,0.0397496,1.54535,-0.00393795,-0.260214,0,0.5348,361519,4.43638e+06,2442.42,-0.361265,-0.131169,1.89451,0.00178468,0.0353869,0.00949895,-0.000738703,-0.0354533,-0.00112976,0.0653007,1.46981,0.14649,0.7674,1616964610068416091
54.0365,0.0779289,-0.252813,-0.000674126,-0.0350571,-0.000910986,0.00326624,0.0393703,1.54534,-0.00392882,-0.259546,0,0.5348,361519,4.43638e+06,2442.45,-0.357492,-0.130554,1.89695,0.001797,0.0365836,0.00941596,-0.00071452,-0.0350539,-0.00102628,0.065365,1.46452,0.146269,0.7674,1616964610078383263
54.0325,0.0777417,-0.252501,-0.00065344,-0.0346194,-0.000805526,0.00325839,0.0389785,1.54533,-0.00391949,-0.2587,0,0.5348,361520,4.43638e+06,2442.48,-0.353561,-0.129882,1.89911,0.00180626,0.0382203,0.00932191,-0.000689253,-0.0346166,-0.000919023,0.0654297,1.45762,0.146039,0.7674,1616964610088382763
54.0287,0.0775058,-0.251937,-0.000633759,-0.0341873,-0.00070703,0.00325123,0.0386132,1.54532,-0.00391007,-0.257785,0,0.5348,361521,4.43638e+06,2442.5,-0.349726,-0.129215,1.90064,0.00182181,0.0399722,0.00922226,-0.000665367,-0.0341849,-0.000818787,0.0654954,1.45014,0.145813,0.7674,1616964610098383693
54.0249,0.0772038,-0.251087,-0.000613278,-0.033736,-0.000606275,0.0032441,0.0382401,1.54531,-0.00390148,-0.257194,0,0.5348,361521,4.43638e+06,2442.53,-0.345959,-0.128442,1.90057,0.00183241,0.0403725,0.00911385,-0.00064066,-0.0337338,-0.000716239,0.0655528,1.44609,0.145592,0.7674,1616964610108393383
54.0205,0.0767748,-0.249759,-0.000589548,-0.0332075,-0.000491422,0.00323622,0.0378158,1.5453,-0.00389292,-0.256509,0,0.5348,361522,4.43638e+06,2442.56,-0.341834,-0.127518,1.89973,0.00183564,0.0407994,0.00898894,-0.000612207,-0.0332057,-0.000599315,0.065607,1.44137,0.145353,0.7674,1616964610118539371
54.0205,0.0767748,-0.249759,-0.000589548,-0.0332075,-0.000491422,0.00323622,0.0378158,1.5453,-0.00388346,-0.255392,0,0.5348,361522,4.43638e+06,2442.56,-0.341834,-0.127518,1.89973,0.00183564,0.0407994,0.00898894,-0.000612207,-0.0332057,-0.000599315,0.065607,1.44137,0.145353,0.7674,1616964610128389806
54.0165,0.0763074,-0.248196,-0.00056731,-0.0326927,-0.000386109,0.0032292,0.0374266,1.5453,-0.00388346,-0.257945,0,0.5348,361523,4.43638e+06,2442.59,-0.337681,-0.12663,1.89899,0.00185064,0.0426346,0.00884783,-0.000585721,-0.0326912,-0.000492023,0.0656691,1.43243,0.145108,0.7674,1616964610138347336
54.0121,0.0757215,-0.246291,-0.000542946,-0.0322558,-0.000273201,0.00322191,0.0370083,1.54529,-0.00387504,-0.25719,0,0.5348,361523,4.43638e+06,2442.63,-0.333618,-0.125349,1.89005,0.0018468,0.0335193,0.00869377,-0.000556909,-0.0322548,-0.000377383,0.0657202,1.45336,0.144866,0.7674,1616964610148401583
54.0081,0.0751035,-0.244166,-0.000519818,-0.0317784,-0.000167967,0.00321532,0.0366165,1.54529,-0.00386629,-0.25538,0,0.5348,361524,4.43638e+06,2442.66,-0.329406,-0.12443,1.88972,0.00185876,0.0379443,0.00852849,-0.000529714,-0.0317777,-0.000270325,0.0657741,1.43715,0.144624,0.7674,1616964610158385216
54.0043,0.0744613,-0.241929,-0.000498272,-0.0313113,-7.21188e-05,0.00320949,0.036258,1.54528,-0.00385838,-0.254152,0,0.5348,361525,4.43638e+06,2442.69,-0.325534,-0.123472,1.88735,0.00186814,0.0401238,0.00836123,-0.000504534,-0.0313109,-0.000172725,0.0658215,1.42703,0.144401,0.7674,1616964610168352556
54.0009,0.0738126,-0.239586,-0.000477883,-0.0308625,1.69243e-05,0.00320423,0.0359233,1.54528,-0.00385139,-0.253326,0,0.5348,361525,4.43638e+06,2442.71,-0.321956,-0.12251,1.88357,0.00186796,0.0407858,0.00820251,-0.000480828,-0.0308624,-8.20191e-05,0.0658617,1.42101,0.144196,0.7674,1616964610178408922
53.9974,0.0731183,-0.237036,-0.000457492,-0.0304166,0.000104126,0.00319923,0.0355939,1.54528,-0.00384508,-0.252719,0,0.5348,361526,4.43638e+06,2442.74,-0.31851,-0.121509,1.87877,0.0018702,0.0405934,0.00804178,-0.000457249,-0.0304168,6.82063e-06,0.0658958,1.41723,0.144,0.7674,1616964610188369331
53.9941,0.0723996,-0.234403,-0.000437962,-0.0299907,0.000186011,0.00319468,0.0352827,1.54528,-0.00383908,-0.252092,0,0.5348,361526,4.43638e+06,2442.76,-0.315187,-0.120518,1.87362,0.00186961,0.0404608,0.0078773,-0.000434778,-0.0299911,9.02559e-05,0.0659274,1.41325,0.143813,0.7674,1616964610198404008
53.9908,0.0716221,-0.231509,-0.00041793,-0.0295589,0.00026849,0.00319024,0.0349671,1.54529,-0.00383362,-0.251582,0,0.5348,361527,4.43638e+06,2442.79,-0.31191,-0.11948,1.86771,0.00186547,0.0398424,0.00770855,-0.000411837,-0.0295596,0.000174296,0.065954,1.41048,0.14363,0.7674,1616964610208419675
53.9908,0.0716221,-0.231509,-0.00041793,-0.0295589,0.00026849,0.00319024,0.0349671,1.54529,-0.00382828,-0.250967,0,0.5348,361527,4.43638e+06,2442.79,-0.31191,-0.11948,1.86771,0.00186547,0.0398424,0.00770855,-0.000411837,-0.0295596,0.000174296,0.065954,1.41048,0.14363,0.7674,1616964610218353630
53.9874,0.0707697,-0.228329,-0.000397324,-0.0291169,0.000351619,0.00318591,0.0346463,1.54529,-0.00382828,-0.252709,0,0.5348,361527,4.43638e+06,2442.81,-0.30857,-0.118399,1.86133,0.00186087,0.0394906,0.00752955,-0.000388352,-0.0291178,0.000259009,0.0659784,1.40673,0.143446,0.7674,1616964610228415032
53.9842,0.0699132,-0.225212,-0.000378239,-0.0287931,0.000429545,0.00318199,0.0343419,1.54529,-0.00382309,-0.25202,0,0.5348,361528,4.43638e+06,2442.84,-0.305404,-0.117117,1.84868,0.00178695,0.0304133,0.00734452,-0.000366629,-0.0287943,0.000338123,0.0659499,1.42697,0.143268,0.7674,1616964610238371783
53.981,0.0690287,-0.221932,-0.00035862,-0.0284128,0.000504995,0.00317832,0.0340431,1.5453,-0.00381839,-0.250757,0,0.5348,361529,4.43638e+06,2442.86,-0.302169,-0.116171,1.84548,0.00185773,0.0353154,0.0071511,-0.000344498,-0.0284143,0.000414928,0.0660216,1.40918,0.143097,0.7674,1616964610248416564
53.9775,0.06796,-0.217987,-0.000336304,-0.0279725,0.000588902,0.00317442,0.0337064,1.5453,-0.00381399,-0.249884,0,0.5348,361529,4.43638e+06,2442.89,-0.298764,-0.114986,1.83831,0.00184791,0.0358271,0.00694447,-0.000319441,-0.0279742,0.000500387,0.0660357,1.40281,0.14292,0.7674,1616964610258421258
53.9741,0.0669001,-0.214018,-0.000315066,-0.0275342,0.000666772,0.00317095,0.0333889,1.54531,-0.0038093,-0.248718,0,0.5348,361530,4.43638e+06,2442.92,-0.295293,-0.11381,1.83097,0.00183194,0.0372149,0.00672668,-0.000295711,-0.0275361,0.000579782,0.0660515,1.39364,0.142741,0.7674,1616964610268388893
53.971,0.0658767,-0.210184,-0.000295528,-0.027122,0.000736658,0.00316798,0.0330991,1.54531,-0.00380515,-0.247771,0,0.5348,361530,4.43638e+06,2442.94,-0.292079,-0.112673,1.82316,0.0018211,0.0378568,0.00651521,-0.000273981,-0.0271241,0.00065109,0.0660641,1.38665,0.142577,0.7674,1616964610278412242
53.9676,0.0647056,-0.205784,-0.000274221,-0.0266711,0.00081115,0.00316498,0.0327852,1.54532,-0.00380158,-0.247044,0,0.5348,361531,4.43638e+06,2442.97,-0.288833,-0.111443,1.81415,0.00180371,0.0375363,0.0063004,-0.000250387,-0.0266736,0.000727123,0.0660706,1.38201,0.142417,0.7674,1616964610288382416
53.9645,0.063587,-0.201607,-0.000254863,-0.0262549,0.00087692,0.00316247,0.0325024,1.54533,-0.00379798,-0.246125,0,0.5348,361532,4.43638e+06,2442.99,-0.28566,-0.110255,1.80522,0.0017903,0.0378933,0.00607666,-0.00022905,-0.0262576,0.000794304,0.0660777,1.37544,0.142261,0.7674,1616964610298355823
53.9615,0.062435,-0.197272,-0.000235623,-0.0258413,0.000940653,0.00316018,0.0322228,1.54534,-0.00379497,-0.245423,0,0.5348,361532,4.43638e+06,2443.02,-0.282641,-0.109066,1.79577,0.00177422,0.0375009,0.00586027,-0.000207934,-0.0258442,0.000859431,0.0660803,1.37101,0.142118,0.7674,1616964610308356732
53.9615,0.062435,-0.197272,-0.000235623,-0.0258413,0.000940653,0.00316018,0.0322228,1.54534,-0.00379221,-0.24471,0,0.5348,361532,4.43638e+06,2443.02,-0.282641,-0.109066,1.79577,0.00177422,0.0375009,0.00586027,-0.000207934,-0.0258442,0.000859431,0.0660803,1.37101,0.142118,0.7674,1616964610318401700
53.9546,0.059642,-0.186679,-0.000191015,-0.0250167,0.00108063,0.00315591,0.0315946,1.54536,-0.00379221,-0.245697,0,0.5348,361534,4.43638e+06,2443.07,-0.277466,-0.106613,1.77499,0.00179035,0.0313279,0.0054877,-0.000159357,-0.02502,0.00100217,0.0660623,1.37828,0.141888,0.7674,1616964610328384614
53.9546,0.059642,-0.186679,-0.000191015,-0.0250167,0.00108063,0.00315591,0.0315946,1.54536,-0.00378709,-0.242195,0,0.5348,361534,4.43638e+06,2443.07,-0.277466,-0.106613,1.77499,0.00179035,0.0313279,0.0054877,-0.000159357,-0.02502,0.00100217,0.0660623,1.37828,0.141888,0.7674,1616964610338399806
53.9498,0.0575902,-0.178879,-0.000160335,-0.0243626,0.00117075,0.00315355,0.0311635,1.54538,-0.00378709,-0.243012,0,0.5348,361534,4.43638e+06,2443.11,-0.271848,-0.1045,1.75791,0.00171402,0.0355004,0.00503481,-0.000126234,-0.0243661,0.00109445,0.0660594,1.35609,0.141635,0.7674,1616964610348354201
53.9467,0.0561774,-0.173503,-0.000140521,-0.0239081,0.00122716,0.00315226,0.0308803,1.5454,-0.00378426,-0.241361,0,0.5348,361535,4.43638e+06,2443.13,-0.268062,-0.10302,1.74488,0.00166006,0.0374152,0.00472391,-0.000104942,-0.0239119,0.00115234,0.0660518,1.3431,0.141473,0.7674,1616964610358441280
53.9467,0.0561774,-0.173503,-0.000140521,-0.0239081,0.00122716,0.00315226,0.0308803,1.5454,-0.00378271,-0.240637,0,0.5348,361535,4.43638e+06,2443.13,-0.268062,-0.10302,1.74488,0.00165655,0.0385905,0.00459642,-0.000104942,-0.0239119,0.00115234,0.0660534,1.33727,0.141412,0.7674,1616964610368451136
53.9435,0.0547115,-0.167848,-0.000120617,-0.0234544,0.00128195,0.00315118,0.0305955,1.54541,-0.00378271,-0.241266,0,0.5348,361536,4.43638e+06,2443.16,-0.264954,-0.101645,1.73206,0.00163716,0.0364927,0.00447004,-8.3645e-05,-0.0234583,0.0012086,0.0660391,1.33894,0.14135,0.7674,1616964610378408953
53.9401,0.0530813,-0.161604,-9.93586e-05,-0.0230053,0.0013378,0.00315031,0.0302929,1.54543,-0.00378142,-0.240471,0,0.5348,361536,4.43638e+06,2443.18,-0.261735,-0.100122,1.71665,0.00161702,0.0332965,0.00419565,-6.10167e-05,-0.0230094,0.0012659,0.0660226,1.34059,0.141227,0.7674,1616964610388380887
53.9373,0.0517013,-0.15634,-8.21218e-05,-0.0226265,0.00138109,0.0031498,0.0300466,1.54544,-0.00378037,-0.239347,0,0.5348,361537,4.43638e+06,2443.21,-0.258743,-0.0988265,1.70439,0.00158041,0.0339488,0.0039348,-4.27545e-05,-0.0226308,0.00131041,0.0660055,1.33223,0.141117,0.7674,1616964610398387724
53.9347,0.0503503,-0.151129,-6.56724e-05,-0.0222617,0.00142076,0.00314949,0.0298106,1.54546,-0.00377976,-0.23857,0,0.5348,361538,4.43638e+06,2443.23,-0.256078,-0.0976091,1.69252,0.00155047,0.0336207,0.00369998,-2.53972e-05,-0.0222661,0.00135124,0.0659875,1.32712,0.141025,0.7674,1616964610408360193
53.932,0.0489478,-0.145704,-4.90601e-05,-0.0218926,0.0014589,0.00314936,0.0295727,1.54547,-0.00377938,-0.237819,0,0.5348,361538,4.43638e+06,2443.25,-0.25344,-0.0963831,1.68034,0.00153027,0.0331664,0.0034666,-7.94386e-06,-0.021897,0.00139055,0.0659676,1.3223,0.140939,0.7674,1616964610418386721
53.9291,0.0474122,-0.139762,-3.18408e-05,-0.0215014,0.00149718,0.00314943,0.0293207,1.54549,-0.00377923,-0.237044,0,0.5348,361539,4.43638e+06,2443.27,-0.250683,-0.0950766,1.66712,0.00147105,0.0324956,0.0032185,1.00838e-05,-0.021506,0.00143007,0.065945,1.31737,0.140854,0.7674,1616964610428393790
53.9291,0.0474122,-0.139762,-3.18408e-05,-0.0215014,0.00149718,0.00314943,0.0293207,1.54549,-0.00377931,-0.236177,0,0.5348,361539,4.43638e+06,2443.27,-0.250683,-0.0950766,1.66712,0.00147105,0.0324956,0.0032185,1.00838e-05,-0.021506,0.00143007,0.065945,1.31737,0.140854,0.7674,1616964610438411891
53.9248,0.0450723,-0.130621,-6.02238e-06,-0.0209437,0.00154964,0.00314996,0.0289508,1.54551,-0.00377931,-0.236415,0,0.5348,361540,4.43638e+06,2443.31,-0.247104,-0.0932613,1.64849,0.00147844,0.0302938,0.00289409,3.69429e-05,-0.0209485,0.00148429,0.0659135,1.31481,0.140752,0.7674,1616964610448422733
53.9221,0.0435625,-0.12471,9.93061e-06,-0.020576,0.00157931,0.00315052,0.0287181,1.54553,-0.00377995,-0.234913,0,0.5348,361540,4.43638e+06,2443.33,-0.243812,-0.0917719,1.6327,0.00139956,0.0315901,0.00257331,5.34355e-05,-0.0205808,0.0015151,0.0658769,1.30324,0.140662,0.7674,1616964610458378260
53.9195,0.0420803,-0.118944,2.48373e-05,-0.0202264,0.00160528,0.00315123,0.0284975,1.54555,-0.00378062,-0.234101,0,0.5348,361541,4.43638e+06,2443.35,-0.241255,-0.0905273,1.61933,0.00137104,0.0312112,0.00233096,6.8779e-05,-0.0202313,0.00154216,0.0658482,1.29789,0.140601,0.7674,1616964610468384966
53.9168,0.0405461,-0.112882,4.0035e-05,-0.0198682,0.00162959,0.00315214,0.0282719,1.54556,-0.00378147,-0.233321,0,0.5348,361542,4.43638e+06,2443.37,-0.238707,-0.0892694,1.60563,0.00134512,0.0306787,0.00209131,8.43475e-05,-0.0198733,0.00156758,0.0658181,1.29288,0.140545,0.7674,1616964610478414726
53.9143,0.0391031,-0.107129,5.3965e-05,-0.0195356,0.0016499,0.00315315,0.0280633,1.54558,-0.00378257,-0.232505,0,0.5348,361542,4.43638e+06,2443.39,-0.236244,-0.0880517,1.59208,0.00130684,0.0303279,0.00185349,9.85494e-05,-0.0195407,0.00158892,0.0657863,1.28747,0.140495,0.7674,1616964610488418232
53.912,0.0376941,-0.101555,6.70396e-05,-0.0192198,0.00166712,0.00315426,0.0278659,1.5456,-0.00378378,-0.231737,0,0.5348,361543,4.43638e+06,2443.41,-0.233928,-0.0868917,1.57906,0.0012788,0.0299599,0.00162704,0.000111817,-0.019225,0.00160711,0.0657548,1.28239,0.140454,0.7674,1616964610498417823
53.912,0.0376941,-0.101555,6.70396e-05,-0.0192198,0.00166712,0.00315426,0.0278659,1.5456,-0.00378511,-0.230999,0,0.5348,361543,4.43638e+06,2443.41,-0.233928,-0.0868917,1.57906,0.0012788,0.0299599,0.00162704,0.000111817,-0.019225,0.00160711,0.0657548,1.28239,0.140454,0.7674,1616964610508391180
53.9094,0.036137,-0.0953419,8.11448e-05,-0.0188768,0.00168357,0.00315565,0.0276516,1.54562,-0.00378511,-0.230903,0,0.5348,361543,4.43638e+06,2443.43,-0.231549,-0.0856748,1.56527,0.00125204,0.0293529,0.00139604,0.000126062,-0.018882,0.00162462,0.065722,1.27771,0.140416,0.7674,1616964610518389888
53.9057,0.0338646,-0.0861363,0.00010145,-0.0183855,0.00170313,0.00315798,0.0273464,1.54564,-0.00378677,-0.230094,0,0.5348,361544,4.43638e+06,2443.46,-0.228474,-0.0840449,1.54688,0.00124595,0.0283176,0.00109795,0.000146447,-0.0183908,0.00164567,0.0656808,1.27218,0.140375,0.7674,1616964610528387059
53.9057,0.0338646,-0.0861363,0.00010145,-0.0183855,0.00170313,0.00315798,0.0273464,1.54564,-0.00378958,-0.229025,0,0.5348,361544,4.43638e+06,2443.46,-0.228474,-0.0840449,1.54688,0.00124595,0.0283176,0.00109795,0.000146447,-0.0183908,0.00164567,0.0656808,1.27218,0.140375,0.7674,1616964610538387941
53.9027,0.0319619,-0.0784342,0.000117618,-0.0179885,0.00171483,0.00316016,0.0270977,1.54567,-0.00378958,-0.22882,0,0.5348,361545,4.43638e+06,2443.49,-0.225306,-0.0824311,1.52736,0.00116846,0.0276402,0.000778672,0.000162556,-0.0179939,0.00165858,0.0656263,1.26523,0.140341,0.7674,1616964610548419739
53.9002,0.0304305,-0.0721656,0.000130021,-0.0176637,0.00172126,0.00316208,0.0268998,1.54568,-0.0037922,-0.227876,0,0.5348,361546,4.43638e+06,2443.51,-0.222733,-0.0811403,1.51192,0.00110536,0.0280994,0.00051991,0.000174831,-0.017669,0.001666,0.0655796,1.25678,0.140321,0.7674,1616964610558370488
53.8975,0.028704,-0.0649821,0.000143633,-0.0173041,0.00172558,0.00316443,0.026679,1.54571,-0.0037945,-0.227117,0,0.5348,361546,4.43638e+06,2443.53,-0.220264,-0.079834,1.49595,0.0010766,0.0271994,0.000277031,0.00018822,-0.0173095,0.00167141,0.065538,1.25217,0.140309,0.7674,1616964610568414528
53.8953,0.0273349,-0.0593363,0.000153836,-0.0170271,0.00172656,0.00316638,0.0265084,1.54572,-0.00379732,-0.226272,0,0.5348,361547,4.43638e+06,2443.55,-0.218,-0.0786679,1.48126,0.00101823,0.026877,4.67315e-05,0.000198185,-0.0170325,0.00167322,0.0654926,1.24649,0.140304,0.7674,1616964610578422494
53.893,0.0258189,-0.0530244,0.000164785,-0.0167232,0.00172537,0.00316867,0.0263219,1.54574,-0.00379966,-0.225526,0,0.5348,361547,4.43638e+06,2443.57,-0.215877,-0.0775463,1.46726,0.00099227,0.0263898,-0.000161568,0.000208816,-0.0167286,0.00167295,0.065454,1.24162,0.140304,0.7674,1616964610588384776
53.8905,0.0242357,-0.0463041,0.00017601,-0.0164077,0.00172148,0.00317122,0.0261276,1.54576,-0.0038024,-0.224751,0,0.5348,361548,4.43638e+06,2443.59,-0.213611,-0.0763407,1.45195,0.000957963,0.0257493,-0.000386835,0.000219639,-0.016413,0.00167001,0.0654106,1.23667,0.140309,0.7674,1616964610598414672
53.8882,0.0227371,-0.0399236,0.000186189,-0.0161145,0.00171529,0.00317376,0.0259467,1.54578,-0.00380547,-0.223943,0,0.5348,361549,4.43638e+06,2443.6,-0.211385,-0.0751674,1.43669,0.000913182,0.0252526,-0.000608242,0.000229378,-0.0161198,0.00166469,0.0653644,1.23136,0.140321,0.7674,1616964610608420358
53.8882,0.0227371,-0.0399236,0.000186189,-0.0161145,0.00171529,0.00317376,0.0259467,1.54578,-0.00380851,-0.22315,0,0.5348,361549,4.43638e+06,2443.6,-0.211385,-0.0751674,1.43669,0.000913182,0.0252526,-0.000608242,0.000229378,-0.0161198,0.00166469,0.0653644,1.23136,0.140321,0.7674,1616964610618413674
53.8858,0.0211303,-0.0330629,0.000196634,-0.0158062,0.00170604,0.0031766,0.0257562,1.5458,-0.00380851,-0.222676,0,0.5348,361549,4.43638e+06,2443.62,-0.209154,-0.0739757,1.42114,0.000876813,0.0246672,-0.000827448,0.000239292,-0.0158115,0.00165637,0.0653191,1.22622,0.140338,0.7674,1616964610628423695
53.8835,0.0196228,-0.0265393,0.000206032,-0.0154998,0.00169476,0.0031794,0.0255792,1.54582,-0.00381193,-0.221866,0,0.5348,361550,4.43638e+06,2443.64,-0.206937,-0.0728395,1.40672,0.000832264,0.0258943,-0.00104554,0.000248131,-0.0155051,0.00164601,0.0652707,1.21616,0.140361,0.7674,1616964610638413905
53.8811,0.0180824,-0.0197701,0.000215162,-0.0151957,0.0016806,0.0031824,0.0253993,1.54584,-0.00381528,-0.221205,0,0.5348,361550,4.43638e+06,2443.66,-0.204782,-0.0716829,1.39068,0.000777683,0.024797,-0.001254,0.000256629,-0.015201,0.00163276,0.0652237,1.2124,0.140389,0.7674,1616964610648386620
53.8788,0.0165582,-0.0130315,0.000223961,-0.0149039,0.00166405,0.00318548,0.0252235,1.54586,-0.00381888,-0.220498,0,0.5348,361551,4.43638e+06,2443.68,-0.202632,-0.0705275,1.37443,0.000762974,0.0238744,-0.00146152,0.000264745,-0.0149092,0.00161708,0.0651749,1.20817,0.140423,0.7674,1616964610658381878
53.8767,0.0151835,-0.00689174,0.00023177,-0.0146449,0.00164679,0.00318838,0.0250658,1.54587,-0.00382258,-0.219761,0,0.5348,361552,4.43638e+06,2443.7,-0.200615,-0.0694593,1.35924,0.000729268,0.0232596,-0.00165645,0.000271886,-0.01465,0.00160059,0.0651257,1.20345,0.140461,0.7674,1616964610668384843
53.8746,0.0138526,-0.000891409,0.000238899,-0.0143961,0.00162805,0.00319128,0.0249142,1.54589,-0.00382606,-0.219024,0,0.5348,361552,4.43638e+06,2443.72,-0.198728,-0.0685098,1.34509,0.000682102,0.0228182,-0.00182792,0.000278324,-0.0144012,0.00158259,0.0650802,1.19857,0.140501,0.7674,1616964610678356595
53.8726,0.0125179,0.00512289,0.000245544,-0.0141508,0.00160746,0.00319426,0.0247646,1.54591,-0.00382954,-0.218288,0,0.5348,361553,4.43638e+06,2443.73,-0.19688,-0.0675455,1.33117,0.000634463,0.022417,-0.00200093,0.000284241,-0.0141558,0.00156273,0.0650353,1.19365,0.140544,0.7674,1616964610688413900
53.8707,0.01125,0.0109697,0.000251499,-0.0139155,0.00158563,0.00319722,0.0246214,1.54592,-0.00383311,-0.21755,0,0.5348,361553,4.43638e+06,2443.75,-0.195078,-0.0665848,1.31747,0.000581916,0.0220836,-0.00217207,0.000289452,-0.0139205,0.00154159,0.0649905,1.18867,0.140591,0.7674,1616964610698406142
