u,v,w,p,q,r,phi,theta,psi,roll_ctrl,pitch_ctrl,yaw_ctrl,throttle_ctrl,E,N,U,u_dot,v_dot,w_dot,p_dot,q_dot,r_dot,phi_dot,theta_dot,psi_dot,delta_a,delta_e,delta_r,delta_T,timestamp49.6424,0.140649,0.750278,0.00231848,-0.0351079,-0.00197136,0.00183027,0.121516,1.53275,-0.00219633,-0.1706,0,0.5348,361340,4.43638e+06,2489.26,-0.740933,-0.171243,0.798352,-0.00428576,-0.00224797,0.000959122,0.0020699,-0.0351042,-0.00205073,0.0788245,0.801407,0.148528,0.7674,1616956319264492616
49.6328,0.140797,0.73828,0.00225948,-0.0350837,-0.0019567,0.00185739,0.121047,1.53272,-0.00219633,-0.1706,0,0.5348,361340,4.43638e+06,2489.33,-0.743259,-0.175397,0.837593,-0.00431179,0.0029014,0.00113513,0.00201354,-0.03508,-0.00203677,0.07849,0.797824,0.148494,0.7674,1616956319274486406
49.6229,0.14095,0.726388,0.002199,-0.0350004,-0.0019393,0.00188464,0.120562,1.53269,-0.00222887,-0.1706,0,0.5348,361341,4.43638e+06,2489.41,-0.744989,-0.17886,0.871357,-0.00426012,0.00704697,0.00129932,0.00195607,-0.0349967,-0.00201993,0.0782494,0.795085,0.148459,0.7674,1616956319284518295
49.6151,0.141066,0.717457,0.00215213,-0.0348949,-0.00192401,0.00190552,0.120183,1.53267,-0.00226157,-0.1706,0,0.5348,361341,4.43638e+06,2489.47,-0.746373,-0.181857,0.900471,-0.00423043,0.0104363,0.00144125,0.00191175,-0.0348912,-0.00200496,0.0779979,0.792947,0.148422,0.7674,1616956319294515779
49.6066,0.141187,0.708096,0.0021017,-0.0347462,-0.00190573,0.00192775,0.119771,1.53265,-0.00228662,-0.1706,0,0.5348,361342,4.43638e+06,2489.53,-0.74742,-0.184429,0.926428,-0.00416011,0.0132769,0.0015772,0.00186429,-0.0347425,-0.00198694,0.0778165,0.791256,0.148385,0.7674,1616956319304458601
49.5991,0.141283,0.700268,0.00205836,-0.0345887,-0.00188831,0.00194672,0.119413,1.53263,-0.0023133,-0.1706,0,0.5348,361343,4.43638e+06,2489.59,-0.748329,-0.186843,0.95064,-0.00410306,0.0157926,0.00171261,0.00182372,-0.0345849,-0.00196967,0.0776159,0.789841,0.148345,0.7674,1616956319314453751
49.5914,0.141378,0.692478,0.00201414,-0.0344015,-0.00186891,0.00196596,0.119043,1.53261,-0.00233606,-0.1706,0,0.5348,361343,4.43638e+06,2489.65,-0.749021,-0.188989,0.972844,-0.00402875,0.017962,0.00183773,0.00178252,-0.0343977,-0.00195034,0.0774504,0.788705,0.148305,0.7674,1616956319324519365
49.5838,0.141462,0.685197,0.00197167,-0.034197,-0.00184861,0.00198437,0.118683,1.53259,-0.00235916,-0.1706,0,0.5348,361344,4.43638e+06,2489.71,-0.749601,-0.191039,0.994269,-0.00395778,0.0199334,0.00196132,0.00174315,-0.0341933,-0.00193004,0.0772808,0.787752,0.14826,0.7674,1616956319334501771
49.5797,0.141489,0.681426,0.00194872,-0.0340795,-0.0018372,0.00199409,0.11849,1.53258,-0.00238124,-0.1706,0,0.5348,361344,4.43638e+06,2489.74,-0.749828,-0.192033,1.0046,-0.00406997,0.020829,0.00202214,0.00172191,-0.0340758,-0.00191861,0.077089,0.787349,0.148238,0.7674,1616956319344515839
49.5756,0.14153,0.677751,0.00192676,-0.0339569,-0.00182546,0.00200368,0.118299,1.53256,-0.0023929,-0.1706,0,0.5348,361344,4.43638e+06,2489.77,-0.750057,-0.193042,1.01544,-0.00389221,0.0217404,0.0020829,0.00170171,-0.0339532,-0.00190682,0.0771219,0.786963,0.148212,0.7674,1616956319354491835
49.5678,0.141577,0.671033,0.00188635,-0.0337106,-0.00180215,0.00202162,0.117937,1.53254,-0.00240442,-0.1706,0,0.5348,361345,4.43638e+06,2489.83,-0.750414,-0.194912,1.0357,-0.00369032,0.0233596,0.00220288,0.00166474,-0.0337069,-0.00188338,0.077066,0.786352,0.148161,0.7674,1616956319364521374
49.5601,0.141619,0.664706,0.00184684,-0.033451,-0.00177777,0.00203904,0.117581,1.53252,-0.00242595,-0.1706,0,0.5348,361345,4.43638e+06,2489.88,-0.750644,-0.196607,1.05446,-0.00375707,0.0247387,0.00232107,0.00162879,-0.0334473,-0.00185881,0.0767909,0.785925,0.148108,0.7674,1616956319374481324
49.5512,0.141647,0.657813,0.00180084,-0.0331351,-0.00174808,0.00205866,0.117172,1.5325,-0.00244684,-0.1706,0,0.5348,361346,4.43638e+06,2489.95,-0.750752,-0.198273,1.07373,-0.00364435,0.0260272,0.00244698,0.00158704,-0.0331314,-0.00182883,0.0766437,0.785635,0.148048,0.7674,1616956319384516856
49.5438,0.141662,0.652465,0.00176399,-0.0328627,-0.00172241,0.00207449,0.116838,1.53248,-0.00247039,-0.1706,0,0.5348,361346,4.43638e+06,2490,-0.750803,-0.199826,1.0914,-0.00355822,0.027088,0.0025568,0.00155382,-0.0328591,-0.00180287,0.0764666,0.785512,0.147986,0.7674,1616956319394480520
49.5362,0.141657,0.64723,0.00172662,-0.032571,-0.00169465,0.00209058,0.116495,1.53247,-0.00248939,-0.1706,0,0.5348,361347,4.43638e+06,2490.06,-0.750721,-0.201122,1.10695,-0.00346962,0.0279093,0.00266324,0.00152034,-0.0325674,-0.00177477,0.0763292,0.78553,0.147927,0.7674,1616956319404449273
49.5271,0.141646,0.641404,0.0016832,-0.0322138,-0.00166012,0.00210929,0.116089,1.53244,-0.00250869,-0.1706,0,0.5348,361347,4.43638e+06,2490.13,-0.750511,-0.202427,1.12345,-0.0033674,0.0286592,0.00278233,0.00148169,-0.0322102,-0.00173977,0.0761937,0.785686,0.147858,0.7674,1616956319414513059
49.5196,0.141618,0.636955,0.00164866,-0.0319141,-0.00163067,0.0021243,0.11576,1.53243,-0.00253115,-0.1706,0,0.5348,361348,4.43638e+06,2490.18,-0.750274,-0.203655,1.13863,-0.003283,0.0292271,0.00288454,0.00145117,-0.0319106,-0.00170991,0.076024,0.785972,0.147787,0.7674,1616956319424516361
49.5119,0.141579,0.632693,0.00161405,-0.031602,-0.00159941,0.00213939,0.115425,1.53241,-0.00254916,-0.1706,0,0.5348,361348,4.43638e+06,2490.24,-0.749938,-0.204647,1.1518,-0.00320042,0.0296137,0.00298142,0.00142077,-0.0315985,-0.00167818,0.0758929,0.786339,0.14772,0.7674,1616956319434510131
49.5119,0.141579,0.632693,0.00161405,-0.031602,-0.00159941,0.00213939,0.115425,1.53241,-0.00256727,-0.1706,0,0.5348,361348,4.43638e+06,2490.24,-0.749938,-0.204647,1.1518,-0.00320042,0.0296137,0.00298142,0.00142077,-0.0315985,-0.00167818,0.0758929,0.786339,0.14772,0.7674,1616956319444456460
49.5027,0.141501,0.628003,0.00157383,-0.0312255,-0.00156077,0.00215699,0.11503,1.53239,-0.00256727,-0.1706,0,0.5348,361349,4.43638e+06,2490.3,-0.749456,-0.205612,1.16562,-0.00309761,0.0299024,0.0030885,0.00138571,-0.0312221,-0.00163895,0.0757651,0.786855,0.147642,0.7674,1616956319454528240
49.4955,0.141419,0.624588,0.00154526,-0.0309261,-0.00152932,0.00217062,0.114721,1.53237,-0.00258839,-0.1706,0,0.5348,361350,4.43638e+06,2490.36,-0.748978,-0.20651,1.17804,-0.00280816,0.0300441,0.00317288,0.00136131,-0.0309227,-0.00160701,0.075814,0.787458,0.147564,0.7674,1616956319464517658
49.4873,0.141322,0.621038,0.00151096,-0.030587,-0.00149276,0.00218572,0.114375,1.53235,-0.00260474,-0.1706,0,0.5348,361350,4.43638e+06,2490.42,-0.748398,-0.207208,1.18909,-0.00296353,0.030063,0.00326304,0.0013318,-0.0305836,-0.00156987,0.0754833,0.788106,0.147489,0.7674,1616956319474483766
49.4791,0.141194,0.617802,0.00147769,-0.0302483,-0.0014552,0.00220051,0.114032,1.53234,-0.00262286,-0.1706,0,0.5348,361351,4.43638e+06,2490.48,-0.747735,-0.207872,1.19999,-0.00287098,0.0299706,0.00334732,0.0013034,-0.030245,-0.0015317,0.0753499,0.788872,0.147406,0.7674,1616956319484623952
49.4715,0.141063,0.615065,0.00144766,-0.0299348,-0.00141941,0.00221401,0.113717,1.53232,-0.00264061,-0.1706,0,0.5348,361351,4.43638e+06,2490.53,-0.747041,-0.208437,1.20977,-0.00279057,0.0297779,0.00342261,0.00127798,-0.0299316,-0.00149534,0.0752171,0.78968,0.147325,0.7674,1616956319494515672
49.4637,0.140903,0.612542,0.00141776,-0.0296182,-0.00138219,0.0022275,0.113399,1.5323,-0.00265681,-0.1706,0,0.5348,361352,4.43638e+06,2490.59,-0.74629,-0.208886,1.2186,-0.0027327,0.0294986,0.00349414,0.00125283,-0.0296151,-0.00145753,0.0750975,0.790524,0.147244,0.7674,1616956319504514180
49.456,0.140727,0.610285,0.00138879,-0.0293062,-0.00134437,0.00224068,0.113086,1.53229,-0.002673,-0.1706,0,0.5348,361352,4.43638e+06,2490.64,-0.745483,-0.209263,1.22688,-0.00264583,0.0291368,0.00355814,0.00122866,-0.0293031,-0.0014191,0.0749774,0.791424,0.147161,0.7674,1616956319514514100
49.4485,0.140536,0.608337,0.00136157,-0.0290082,-0.0013071,0.00225321,0.112785,1.53227,-0.00268882,-0.1706,0,0.5348,361353,4.43638e+06,2490.7,-0.744642,-0.209572,1.23442,-0.0025698,0.0287065,0.00361868,0.00120612,-0.0290052,-0.00138123,0.0748588,0.792352,0.147077,0.7674,1616956319524516844
49.441,0.140328,0.606601,0.00133494,-0.0287134,-0.001269,0.00226558,0.112485,1.53226,-0.00270385,-0.1706,0,0.5348,361353,4.43638e+06,2490.75,-0.743757,-0.209802,1.24129,-0.00249912,0.0282141,0.0036751,0.00118424,-0.0287104,-0.00134254,0.0747466,0.793304,0.146994,0.7674,1616956319534484596
49.4333,0.140097,0.605057,0.00130859,-0.0284184,-0.0012296,0.00227797,0.112183,1.53225,-0.0027187,-0.1706,0,0.5348,361354,4.43638e+06,2490.8,-0.742812,-0.209962,1.24771,-0.00242136,0.0276535,0.00372582,0.00116277,-0.0284155,-0.00130252,0.0746357,0.7943,0.146908,0.7674,1616956319544484678
49.4258,0.139859,0.603754,0.0012835,-0.0281354,-0.00119046,0.00228991,0.11189,1.53223,-0.00273357,-0.1706,0,0.5348,361354,4.43638e+06,2490.86,-0.741827,-0.210069,1.25358,-0.00235078,0.0270355,0.00377215,0.0011425,-0.0281326,-0.00126278,0.0745233,0.795322,0.146821,0.7674,1616956319554488911
49.4175,0.139562,0.602551,0.00125654,-0.0278304,-0.00114668,0.00230287,0.111569,1.53222,-0.00274789,-0.1706,0,0.5348,361355,4.43638e+06,2490.92,-0.740734,-0.210094,1.25919,-0.00227877,0.0263375,0.00381841,0.00112089,-0.0278277,-0.00121835,0.074417,0.796409,0.146729,0.7674,1616956319564517709
49.4101,0.139286,0.601666,0.00123304,-0.0275637,-0.00110689,0.00231432,0.111283,1.53221,-0.00276344,-0.1706,0,0.5348,361355,4.43638e+06,2490.97,-0.739635,-0.21009,1.26422,-0.00221385,0.025589,0.00385254,0.00110223,-0.0275611,-0.00117797,0.074297,0.797512,0.146636,0.7674,1616956319574502944
49.4025,0.138975,0.600956,0.00120994,-0.0273013,-0.00106625,0.00232573,0.110996,1.5322,-0.00277719,-0.1706,0,0.5348,361356,4.43638e+06,2491.02,-0.738527,-0.210011,1.26857,-0.0021472,0.0248357,0.0038835,0.00108403,-0.0272988,-0.00113673,0.0741925,0.798574,0.146546,0.7674,1616956319584484896
49.4025,0.138975,0.600956,0.00120994,-0.0273013,-0.00106625,0.00232573,0.110996,1.5322,-0.00279088,-0.1706,0,0.5348,361356,4.43638e+06,2491.02,-0.738527,-0.210011,1.26857,-0.0021472,0.0248357,0.0038835,0.00108403,-0.0272988,-0.00113673,0.0741925,0.798574,0.146546,0.7674,1616956319594486714
49.3943,0.138619,0.600382,0.00118532,-0.0270229,-0.00102132,0.00233803,0.110684,1.53218,-0.00279088,-0.1706,0,0.5348,361356,4.43638e+06,2491.08,-0.737303,-0.209862,1.27271,-0.00208121,0.0240024,0.00391456,0.00106479,-0.0270204,-0.00109118,0.0740894,0.799702,0.146452,0.7674,1616956319604484409
49.3865,0.138263,0.600022,0.0011635,-0.0267684,-0.000978468,0.00234949,0.110392,1.53217,-0.00280564,-0.1706,0,0.5348,361357,4.43638e+06,2491.14,-0.736041,-0.209679,1.27643,-0.00203494,0.0231163,0.003936,0.00104807,-0.0267661,-0.00104774,0.0739738,0.800856,0.146354,0.7674,1616956319614484101
49.3792,0.137912,0.599838,0.00114273,-0.0265381,-0.000937982,0.00236012,0.110119,1.53216,-0.00281939,-0.1706,0,0.5348,361358,4.43638e+06,2491.19,-0.734811,-0.209464,1.27955,-0.00197574,0.0222526,0.00395259,0.0010321,-0.0265359,-0.00100671,0.073867,0.801944,0.146262,0.7674,1616956319624449971
49.3708,0.137477,0.599806,0.00111977,-0.0262868,-0.000891784,0.00237199,0.109812,1.53215,-0.00283214,-0.1706,0,0.5348,361358,4.43638e+06,2491.25,-0.73347,-0.209156,1.2824,-0.00191248,0.021334,0.00396803,0.00101457,-0.0262846,-0.000959915,0.0737705,0.803066,0.146165,0.7674,1616956319634452646
49.3632,0.137063,0.599929,0.00109927,-0.0260653,-0.000849102,0.00238277,0.109532,1.53214,-0.00284639,-0.1706,0,0.5348,361359,4.43638e+06,2491.3,-0.732097,-0.208834,1.28491,-0.00185581,0.020374,0.00397253,0.000999065,-0.0260632,-0.000916701,0.0736586,0.804204,0.146067,0.7674,1616956319644500684
49.3525,0.136439,0.600343,0.00107135,-0.0257708,-0.000789136,0.00239756,0.109143,1.53213,-0.00285933,-0.1706,0,0.5348,361359,4.43638e+06,2491.38,-0.730392,-0.208321,1.28739,-0.00177869,0.0192451,0.00398461,0.000978105,-0.0257688,-0.000856014,0.0735639,0.805503,0.145953,0.7674,1616956319654456011
49.3525,0.136439,0.600343,0.00107135,-0.0257708,-0.000789136,0.00239756,0.109143,1.53213,-0.00287708,-0.1706,0,0.5348,361359,4.43638e+06,2491.38,-0.730392,-0.208321,1.28739,-0.00177869,0.0192451,0.00398461,0.000978105,-0.0257688,-0.000856014,0.0735639,0.805503,0.145953,0.7674,1616956319664457669
49.3445,0.135946,0.600808,0.00105132,-0.0255642,-0.000744345,0.00240846,0.108854,1.53212,-0.00287708,-0.1706,0,0.5348,361360,4.43638e+06,2491.43,-0.72873,-0.207877,1.28938,-0.00172882,0.0180743,0.00397044,0.000963245,-0.0255623,-0.000810712,0.0734197,0.806807,0.145837,0.7674,1616956319674463098
49.3364,0.135434,0.601408,0.00103239,-0.0253671,-0.000699246,0.00241931,0.108565,1.53211,-0.00289016,-0.1706,0,0.5348,361360,4.43638e+06,2491.49,-0.727206,-0.207403,1.29081,-0.00169072,0.0170647,0.00396067,0.000949491,-0.0253653,-0.000765119,0.0733158,0.807903,0.145737,0.7674,1616956319684517116
49.326,0.134725,0.602372,0.00100751,-0.0251281,-0.000640978,0.00243311,0.108194,1.5321,-0.00290317,-0.1706,0,0.5348,361361,4.43638e+06,2491.56,-0.725362,-0.206755,1.2921,-0.00161781,0.0158937,0.00394879,0.000931247,-0.0251264,-0.000706245,0.0732175,0.809141,0.145622,0.7674,1616956319694514402
49.3187,0.134212,0.603154,0.000990726,-0.0249726,-0.000600352,0.00244266,0.107935,1.53209,-0.00291973,-0.1706,0,0.5348,361362,4.43638e+06,2491.62,-0.723664,-0.206219,1.29298,-0.00158063,0.0147685,0.00391475,0.000919064,-0.0249711,-0.000665221,0.0730809,0.810297,0.145512,0.7674,1616956319704516192
49.3114,0.133677,0.604016,0.000974348,-0.024827,-0.000560034,0.00245207,0.107678,1.53208,-0.00293119,-0.1706,0,0.5348,361362,4.43638e+06,2491.67,-0.722175,-0.205697,1.29351,-0.00154062,0.0138501,0.00389117,0.00090723,-0.0248256,-0.000624527,0.0729897,0.81122,0.145423,0.7674,1616956319714520219
49.3041,0.133128,0.604966,0.000958186,-0.0246892,-0.000519519,0.00246147,0.107419,1.53208,-0.00294249,-0.1706,0,0.5348,361363,4.43638e+06,2491.72,-0.720652,-0.205144,1.29387,-0.00150081,0.0129318,0.00386318,0.000895611,-0.0246879,-0.000583654,0.0728996,0.812123,0.145333,0.7674,1616956319724515825
49.2969,0.132562,0.605962,0.000942817,-0.024564,-0.00048028,0.00247054,0.107167,1.53207,-0.00295377,-0.1706,0,0.5348,361363,4.43638e+06,2491.77,-0.719117,-0.204582,1.29406,-0.00146269,0.0120285,0.00383039,0.00088462,-0.0245628,-0.000544086,0.072809,0.812994,0.145244,0.7674,1616956319734512859
49.2899,0.131987,0.607008,0.00092794,-0.0244491,-0.000441805,0.00247941,0.10692,1.53207,-0.00296465,-0.1706,0,0.5348,361364,4.43638e+06,2491.82,-0.717581,-0.204011,1.29411,-0.0014333,0.01115,0.00379546,0.000874015,-0.0244479,-0.000505308,0.0727214,0.813822,0.145158,0.7674,1616956319744476872
49.2827,0.131381,0.608129,0.000913142,-0.024341,-0.000403034,0.00248833,0.106669,1.53206,-0.00297529,-0.1706,0,0.5348,361364,4.43638e+06,2491.87,-0.716013,-0.203409,1.29403,-0.00139893,0.0102809,0.00375393,0.000863502,-0.0243399,-0.000466251,0.072636,0.814625,0.145072,0.7674,1616956319754457096
49.275,0.130716,0.609388,0.000897611,-0.0242347,-0.000361921,0.00249778,0.106401,1.53206,-0.002986,-0.1706,0,0.5348,361365,4.43638e+06,2491.92,-0.714338,-0.202759,1.29382,-0.00136254,0.0093866,0.00370932,0.000852492,-0.0242337,-0.000424855,0.0725503,0.815435,0.144984,0.7674,1616956319764453948
49.275,0.130716,0.609388,0.000897611,-0.0242347,-0.000361921,0.00249778,0.106401,1.53206,-0.00299733,-0.1706,0,0.5348,361365,4.43638e+06,2491.92,-0.714338,-0.202759,1.29382,-0.00136254,0.0093866,0.00370932,0.000852492,-0.0242337,-0.000424855,0.0724474,0.815435,0.144984,0.7674,1616956319774500611
49.2674,0.130031,0.610695,0.000882501,-0.0241389,-0.000321485,0.00250707,0.106135,1.53205,-0.00299733,-0.1706,0,0.5348,361365,4.43638e+06,2491.98,-0.712595,-0.202087,1.29349,-0.00133208,0.00847879,0.00365888,0.000841804,-0.024138,-0.000384163,0.0724585,0.816238,0.144893,0.7674,1616956319784523644
49.2602,0.129386,0.611961,0.000869869,-0.0240581,-0.000284184,0.00251568,0.105887,1.53205,-0.00300849,-0.1706,0,0.5348,361366,4.43638e+06,2492.02,-0.710893,-0.201435,1.29308,-0.00119485,0.00761989,0.00360323,0.000833232,-0.0240574,-0.000346648,0.0724783,0.816981,0.144807,0.7674,1616956319794517812
49.2533,0.128725,0.613218,0.000857634,-0.0239881,-0.000248605,0.00252396,0.105647,1.53205,-0.00301882,-0.1706,0,0.5348,361366,4.43638e+06,2492.07,-0.709246,-0.200797,1.2926,-0.00119277,0.00681992,0.00354798,0.000824851,-0.0239874,-0.000310883,0.0723842,0.817656,0.144726,0.7674,1616956319804508267
49.2458,0.128002,0.614616,0.000843863,-0.0239205,-0.000210541,0.00253283,0.105387,1.53204,-0.00302875,-0.1706,0,0.5348,361367,4.43638e+06,2492.13,-0.707516,-0.200114,1.29205,-0.00128719,0.00601859,0.00349159,0.000815183,-0.0239199,-0.000272639,0.0721992,0.818317,0.144644,0.7674,1616956319814514039
49.2391,0.127337,0.615894,0.000831748,-0.0238675,-0.000176929,0.00254073,0.105154,1.53204,-0.0030394,-0.1706,0,0.5348,361367,4.43638e+06,2492.17,-0.70581,-0.19946,1.29145,-0.00127083,0.00524574,0.00342702,0.000806674,-0.023867,-0.000238889,0.0721107,0.818938,0.144565,0.7674,1616956319824483433
49.2323,0.126637,0.617213,0.000820071,-0.0238208,-0.00014338,0.00254868,0.104917,1.53204,-0.00304888,-0.1706,0,0.5348,361368,4.43638e+06,2492.22,-0.704142,-0.198813,1.29086,-0.00114692,0.00453072,0.00336501,0.000798579,-0.0238203,-0.000205219,0.0721282,0.819501,0.14449,0.7674,1616956319834483311
49.2243,0.125802,0.618794,0.000805243,-0.0237742,-0.000104481,0.00255796,0.104638,1.53204,-0.00305842,-0.1706,0,0.5348,361368,4.43638e+06,2492.28,-0.702264,-0.198064,1.29014,-0.00122241,0.00376533,0.00329724,0.000787883,-0.0237739,-0.000166203,0.0719565,0.820088,0.14441,0.7674,1616956319844521456
49.2243,0.125802,0.618794,0.000805243,-0.0237742,-0.000104481,0.00255796,0.104638,1.53204,-0.00306955,-0.1706,0,0.5348,361368,4.43638e+06,2492.28,-0.702264,-0.198064,1.29014,-0.00122241,0.00376533,0.00329724,0.000787883,-0.0237739,-0.000166203,0.0719565,0.820088,0.14441,0.7674,1616956319854525701
49.2123,0.124509,0.621201,0.000783469,-0.0237202,-4.73468e-05,0.00257166,0.10422,1.53203,-0.00306955,-0.1706,0,0.5348,361369,4.43638e+06,2492.36,-0.699631,-0.196984,1.28914,-0.00116572,0.00276556,0.00320616,0.000772136,-0.02372,-0.000108938,0.0718715,0.820834,0.144303,0.7674,1616956319864455321
49.2033,0.123518,0.623016,0.000767781,-0.0236941,-6.1259e-06,0.00258177,0.103906,1.53203,-0.00308599,-0.1706,0,0.5348,361370,4.43638e+06,2492.42,-0.696972,-0.19602,1.28807,-0.00114984,0.00175675,0.00308652,0.000760763,-0.023694,-6.76633e-05,0.0717328,0.821548,0.144194,0.7674,1616956319874453311
49.1962,0.122717,0.624463,0.000755531,-0.0236816,2.56459e-05,0.00258973,0.103656,1.53203,-0.00309812,-0.1706,0,0.5348,361370,4.43638e+06,2492.47,-0.694879,-0.195258,1.28725,-0.00113309,0.00101932,0.00298902,0.000751819,-0.0236816,-3.58757e-05,0.071631,0.822046,0.144113,0.7674,1616956319884481973
49.1892,0.121917,0.625875,0.000743693,-0.0236759,5.58741e-05,0.00259743,0.103411,1.53203,-0.00310768,-0.1706,0,0.5348,361371,4.43638e+06,2492.52,-0.692991,-0.19456,1.28654,-0.00111674,0.000402556,0.00290826,0.00074311,-0.0236759,-5.65263e-06,0.0715524,0.822447,0.144044,0.7674,1616956319894486384
49.182,0.121069,0.627338,0.000731526,-0.0236763,8.64425e-05,0.00260534,0.103157,1.53203,-0.00311692,-0.1706,0,0.5348,361371,4.43638e+06,2492.57,-0.691056,-0.193842,1.28584,-0.00110011,-0.000193785,0.00282341,0.000734089,-0.0236765,2.48896e-05,0.071477,0.82282,0.143977,0.7674,1616956319904517931
49.1751,0.120255,0.628726,0.00072006,-0.0236828,0.000114738,0.0026128,0.102914,1.53203,-0.00312641,-0.1706,0,0.5348,361372,4.43638e+06,2492.62,-0.689119,-0.193142,1.28517,-0.00108858,-0.000762425,0.00273567,0.000725519,-0.023683,5.31407e-05,0.0713986,0.823159,0.143912,0.7674,1616956319914518916
49.168,0.119406,0.630147,0.000708381,-0.0236951,0.00014301,0.0026204,0.102663,1.53203,-0.00313536,-0.1706,0,0.5348,361372,4.43638e+06,2492.67,-0.687165,-0.192439,1.28455,-0.00107459,-0.0012999,0.00264912,0.000716717,-0.0236954,8.13469e-05,0.0713253,0.823466,0.143849,0.7674,1616956319924479165
49.161,0.118547,0.631543,0.000696929,-0.0237129,0.00017011,0.00262786,0.102414,1.53204,-0.00314449,-0.1706,0,0.5348,361373,4.43638e+06,2492.72,-0.685175,-0.191735,1.28395,-0.0010617,-0.00181898,0.00255762,0.000708008,-0.0237132,0.000108364,0.0712504,0.823747,0.143787,0.7674,1616956319934484719
49.154,0.117682,0.632928,0.000685661,-0.0237359,0.000196359,0.00263525,0.102164,1.53204,-0.00315343,-0.1706,0,0.5348,361374,4.43638e+06,2492.76,-0.683168,-0.191003,1.28335,-0.00103121,-0.00230806,0.00246716,0.000699379,-0.0237364,0.00013451,0.071177,0.823998,0.143728,0.7674,1616956319944517719
49.1469,0.116775,0.634326,0.000674376,-0.0237646,0.000222223,0.00264273,0.101908,1.53204,-0.0031623,-0.1706,0,0.5348,361374,4.43638e+06,2492.81,-0.68111,-0.190293,1.28283,-0.00101737,-0.0027764,0.00237322,0.000690678,-0.0237651,0.00016025,0.0711041,0.824222,0.14367,0.7674,1616956319954451652
49.1402,0.115911,0.635627,0.000663805,-0.0237963,0.000245655,0.0026497,0.101665,1.53204,-0.00317128,-0.1706,0,0.5348,361375,4.43638e+06,2492.86,-0.679078,-0.189608,1.28237,-0.00101312,-0.00321632,0.00227517,0.000682433,-0.0237969,0.000183549,0.0710296,0.824416,0.143616,0.7674,1616956319964482322
49.1335,0.115051,0.636895,0.000653406,-0.0238318,0.000267903,0.00265653,0.101425,1.53204,-0.00317964,-0.1706,0,0.5348,361375,4.43638e+06,2492.91,-0.677089,-0.188947,1.28198,-0.00100675,-0.00361619,0.00218184,0.000674228,-0.0238324,0.000205649,0.0709607,0.824577,0.143565,0.7674,1616956319974481640
49.1268,0.114162,0.638161,0.000642889,-0.0238718,0.000289541,0.00266337,0.10118,1.53204,-0.00318783,-0.1706,0,0.5348,361376,4.43638e+06,2492.95,-0.675073,-0.188281,1.28165,-0.000999875,-0.00399513,0.00208574,0.00066583,-0.0238725,0.000227122,0.0708935,0.824714,0.143516,0.7674,1616956319984492004
49.1201,0.11327,0.639404,0.000632433,-0.0239155,0.000310176,0.00267015,0.100935,1.53205,-0.00319605,-0.1706,0,0.5348,361376,4.43638e+06,2493,-0.673025,-0.187618,1.28137,-0.000995729,-0.00435364,0.00198831,0.00065738,-0.0239163,0.000247577,0.0708261,0.824828,0.143469,0.7674,1616956319994522067
49.1134,0.11237,0.64063,0.000621977,-0.0239631,0.000329931,0.00267686,0.100688,1.53205,-0.00320418,-0.1706,0,0.5348,361377,4.43638e+06,2493.05,-0.670952,-0.186955,1.28115,-0.000987004,-0.00469017,0.00188849,0.000648829,-0.0239639,0.000267137,0.0707595,0.824919,0.143424,0.7674,1616956320004473151
49.11,0.111909,0.641242,0.000616573,-0.0239885,0.000339558,0.00268024,0.100562,1.53205,-0.00321224,-0.1706,0,0.5348,361377,4.43638e+06,2493.07,-0.669904,-0.186626,1.28106,-0.000983877,-0.00500782,0.00178863,0.000644348,-0.0239893,0.00027666,0.0706936,0.824989,0.143381,0.7674,1616956320014475043
49.1066,0.111443,0.641846,0.000611425,-0.0240147,0.000348917,0.00268359,0.100437,1.53205,-0.00321628,-0.1706,0,0.5348,361377,4.43638e+06,2493.09,-0.668839,-0.186294,1.28099,-0.000982449,-0.00515843,0.00173613,0.000640093,-0.0240156,0.000285911,0.0706604,0.825015,0.143361,0.7674,1616956320024448318
49.0999,0.110522,0.643027,0.000601404,-0.0240692,0.000366742,0.0026902,0.100186,1.53206,-0.00322031,-0.1706,0,0.5348,361378,4.43638e+06,2493.14,-0.6667,-0.185637,1.28091,-0.000941241,-0.0053031,0.00168555,0.000631761,-0.0240701,0.000303512,0.0706677,0.825035,0.143341,0.7674,1616956320034518839
49.0927,0.109539,0.64425,0.000590733,-0.0241301,0.000384512,0.0026971,0.0999196,1.53206,-0.00322824,-0.1706,0,0.5348,361378,4.43638e+06,2493.19,-0.664475,-0.184957,1.28088,-0.000985827,-0.00558377,0.00158099,0.000622757,-0.0241311,0.000321031,0.0705623,0.825061,0.143301,0.7674,1616956320044489235
49.0843,0.108371,0.645655,0.00057751,-0.024206,0.000404144,0.00270514,0.0996028,1.53206,-0.00323652,-0.1706,0,0.5348,361379,4.43638e+06,2493.25,-0.661928,-0.184184,1.28095,-0.00097582,-0.00587102,0.00146641,0.000611354,-0.024207,0.000340349,0.0704968,0.825065,0.143259,0.7674,1616956320054517818
49.0762,0.107229,0.646974,0.000564806,-0.0242834,0.000421564,0.00271281,0.099294,1.53207,-0.00324617,-0.1706,0,0.5348,361379,4.43638e+06,2493.31,-0.659219,-0.183405,1.28113,-0.000973112,-0.00615026,0.00133729,0.00060024,-0.0242845,0.000357447,0.0704185,0.82504,0.143218,0.7674,1616956320064500995
49.0685,0.106135,0.64818,0.000552871,-0.0243596,0.000436514,0.00271994,0.0990011,1.53207,-0.00325537,-0.1706,0,0.5348,361380,4.43638e+06,2493.36,-0.656601,-0.182673,1.28141,-0.000967907,-0.006389,0.00121204,0.000589647,-0.0243607,0.000372078,0.0703438,0.824989,0.143182,0.7674,1616956320074446634
49.0619,0.105182,0.649202,0.000542506,-0.0244283,0.000448304,0.00272606,0.0987447,1.53208,-0.00326392,-0.1706,0,0.5348,361380,4.43638e+06,2493.41,-0.654212,-0.182028,1.28173,-0.000967317,-0.00658306,0.00109593,0.00058032,-0.0244294,0.000383577,0.0702738,0.824921,0.143153,0.7674,1616956320084485236
49.0554,0.104251,0.650168,0.000532367,-0.0244969,0.000458727,0.00273193,0.0984941,1.53208,-0.00327127,-0.1706,0,0.5348,361381,4.43638e+06,2493.45,-0.651979,-0.181429,1.2821,-0.000970725,-0.00674278,0.000993054,0.000571082,-0.0244981,0.00039371,0.0702148,0.824842,0.143128,0.7674,1616956320094516862
49.0522,0.103792,0.650633,0.000527277,-0.0245313,0.000463474,0.00273478,0.0983703,1.53208,-0.00327831,-0.1706,0,0.5348,361381,4.43638e+06,2493.47,-0.65087,-0.181132,1.28231,-0.000967284,-0.00688075,0.000889878,0.000566396,-0.0245325,0.000398311,0.0701585,0.82475,0.143106,0.7674,1616956320104513570
49.0458,0.102867,0.651546,0.000517463,-0.0246015,0.000472247,0.00274046,0.0981209,1.53209,-0.00328174,-0.1706,0,0.5348,361382,4.43638e+06,2493.52,-0.648669,-0.18055,1.28278,-0.000967075,-0.00694342,0.000839579,0.000557313,-0.0246027,0.000406783,0.0701312,0.824699,0.143096,0.7674,1616956320114521264
49.0395,0.101951,0.652421,0.000507931,-0.0246721,0.000479916,0.00274601,0.0978731,1.53209,-0.00328855,-0.1706,0,0.5348,361382,4.43638e+06,2493.56,-0.646433,-0.179976,1.28332,-0.000935501,-0.00710743,0.00068753,0.0005484,-0.0246733,0.000414146,0.0700835,0.824526,0.14307,0.7674,1616956320124512426
49.0333,0.101041,0.653266,0.000498358,-0.0247435,0.00048655,0.00275144,0.0976256,1.5321,-0.00329521,-0.1706,0,0.5348,361383,4.43638e+06,2493.61,-0.644243,-0.179416,1.28391,-0.000976035,-0.00715381,0.000638275,0.000539342,-0.0247447,0.000420471,0.0700234,0.824463,0.143062,0.7674,1616956320134487622
49.0301,0.10058,0.653682,0.000493588,-0.02478,0.000489531,0.00275415,0.0975,1.5321,-0.00330173,-0.1706,0,0.5348,361383,4.43638e+06,2493.63,-0.643119,-0.179136,1.28423,-0.000941628,-0.0071973,0.000588338,0.000534793,-0.0247812,0.000423292,0.0700304,0.824397,0.143055,0.7674,1616956320144503130
49.0237,0.0996366,0.654512,0.000483657,-0.0248552,0.000494835,0.00275961,0.0972425,1.5321,-0.00330498,-0.1706,0,0.5348,361383,4.43638e+06,2493.67,-0.640818,-0.178567,1.28494,-0.000938529,-0.00727596,0.000484705,0.000525237,-0.0248565,0.000428266,0.0699791,0.824252,0.143042,0.7674,1616956320154450820
49.0164,0.0985559,0.655425,0.000471798,-0.0249424,0.000499694,0.00276575,0.0969457,1.53211,-0.00331153,-0.1706,0,0.5348,361384,4.43638e+06,2493.72,-0.638291,-0.177939,1.28578,-0.000969354,-0.00734232,0.000378068,0.000513685,-0.0249437,0.00043274,0.0698964,0.824084,0.143031,0.7674,1616956320164454027
49.0103,0.0976675,0.656155,0.000462067,-0.0250153,0.000502585,0.00277074,0.0966991,1.53211,-0.0033189,-0.1706,0,0.5348,361385,4.43638e+06,2493.77,-0.635861,-0.177393,1.28667,-0.000972396,-0.00739552,0.000269265,0.000504096,-0.0250166,0.000435306,0.0698378,0.823907,0.143023,0.7674,1616956320174487490
49.0041,0.0967528,0.656875,0.000452384,-0.0250902,0.00050458,0.00277576,0.0964459,1.53212,-0.00332489,-0.1706,0,0.5348,361385,4.43638e+06,2493.81,-0.633586,-0.176864,1.28754,-0.000975455,-0.00742967,0.00017324,0.000494462,-0.0250915,0.000436964,0.0697914,0.823736,0.143017,0.7674,1616956320184482847
48.9977,0.0958142,0.657594,0.000442032,-0.0251683,0.000505619,0.00278086,0.0961821,1.53212,-0.00333091,-0.1706,0,0.5348,361386,4.43638e+06,2493.85,-0.631224,-0.176321,1.28851,-0.000968151,-0.00745207,7.36729e-05,0.000484061,-0.0251696,0.00043765,0.0697456,0.82355,0.143014,0.7674,1616956320194506552
48.9913,0.0948534,0.65829,0.000431616,-0.0252472,0.000505605,0.0027859,0.0959154,1.53212,-0.00333703,-0.1706,0,0.5348,361386,4.43638e+06,2493.9,-0.628796,-0.175779,1.28956,-0.000965658,-0.00746462,-2.70622e-05,0.000473493,-0.0252485,0.000437277,0.0696991,0.823353,0.143013,0.7674,1616956320204491819
48.9847,0.0938843,0.658974,0.000420974,-0.0253282,0.000504489,0.00279093,0.095641,1.53213,-0.00334308,-0.1706,0,0.5348,361387,4.43638e+06,2493.95,-0.626312,-0.175232,1.29069,-0.000962631,-0.00746419,-0.000128609,0.00046259,-0.0253295,0.00043579,0.0696535,0.823144,0.143014,0.7674,1616956320214540056
48.9781,0.0929113,0.659635,0.000410245,-0.0254098,0.000502234,0.0027959,0.0953631,1.53213,-0.00334912,-0.1706,0,0.5348,361387,4.43638e+06,2493.99,-0.623771,-0.174685,1.2919,-0.000962225,-0.00745335,-0.000231536,0.00045149,-0.0254111,0.000433157,0.0696081,0.822925,0.143018,0.7674,1616956320224515581
48.972,0.0919989,0.660224,0.00040028,-0.0254856,0.000499098,0.00280044,0.0951034,1.53214,-0.00335509,-0.1706,0,0.5348,361388,4.43638e+06,2494.04,-0.621304,-0.174176,1.29312,-0.000962434,-0.00743382,-0.000331595,0.000441081,-0.0254869,0.000429667,0.0695631,0.822706,0.143024,0.7674,1616956320234488951
48.9653,0.0910067,0.660846,0.000389274,-0.0255689,0.000494566,0.00280529,0.0948164,1.53214,-0.00336052,-0.1706,0,0.5348,361388,4.43638e+06,2494.08,-0.618761,-0.173637,1.29443,-0.000962363,-0.00740137,-0.000429346,0.000429487,-0.0255702,0.000424744,0.0695236,0.822477,0.143032,0.7674,1616956320244480347
48.9653,0.0910067,0.660846,0.000389274,-0.0255689,0.000494566,0.00280529,0.0948164,1.53214,-0.00336635,-0.1706,0,0.5348,361388,4.43638e+06,2494.08,-0.618761,-0.173637,1.29443,-0.000962363,-0.00740137,-0.000429346,0.000429487,-0.0255702,0.000424744,0.0695236,0.822477,0.143032,0.7674,1616956320254485892
48.9563,0.0896848,0.661631,0.000374497,-0.0256803,0.00048686,0.00281162,0.0944282,1.53215,-0.00336635,-0.1706,0,0.5348,361389,4.43638e+06,2494.15,-0.61557,-0.172941,1.29613,-0.000946496,-0.00734542,-0.000543842,0.000413769,-0.0256816,0.000416511,0.0694837,0.822189,0.143045,0.7674,1616956320264513674
48.9459,0.0881533,0.662477,0.000358331,-0.0258075,0.000475446,0.00281867,0.0939747,1.53216,-0.00336635,-0.1706,0,0.5348,361390,4.43638e+06,2494.22,-0.611633,-0.172142,1.29841,-0.000892815,-0.00720869,-0.000687925,0.000396287,-0.0258088,0.000404486,0.0695059,0.821824,0.143066,0.7674,1616956320274486647
48.9459,0.0881533,0.662477,0.000358331,-0.0258075,0.000475446,0.00281867,0.0939747,1.53216,-0.0033824,-0.1706,0,0.5348,361390,4.43638e+06,2494.22,-0.611633,-0.172142,1.29841,-0.000892815,-0.00720869,-0.000687925,0.000396287,-0.0258088,0.000404486,0.0695059,0.821824,0.143066,0.7674,1616956320284485636
48.9385,0.0870838,0.663051,0.000345768,-0.0258976,0.000465369,0.00282352,0.0936485,1.53216,-0.0033824,-0.1706,0,0.5348,361390,4.43639e+06,2494.27,-0.608077,-0.171534,1.3005,-0.000988555,-0.00712658,-0.000826205,0.000382609,-0.0258988,0.000393971,0.0693651,0.821483,0.143091,0.7674,1616956320294513633
48.9321,0.0861448,0.663529,0.000334779,-0.0259753,0.00045543,0.00282764,0.0933634,1.53217,-0.00338823,-0.1706,0,0.5348,361391,4.43639e+06,2494.32,-0.605245,-0.171031,1.30219,-0.000987822,-0.00705277,-0.000928048,0.000370546,-0.0259764,0.000383651,0.0693236,0.821214,0.143113,0.7674,1616956320304480353
48.9252,0.0851502,0.664017,0.000323052,-0.0260577,0.000443667,0.0028319,0.0930566,1.53217,-0.00339317,-0.1706,0,0.5348,361391,4.43639e+06,2494.37,-0.602458,-0.170509,1.3039,-0.000977762,-0.00697217,-0.0010231,0.000357571,-0.0260588,0.00037148,0.0692903,0.820953,0.143137,0.7674,1616956320314485263
48.9187,0.0842164,0.664458,0.00031198,-0.026135,0.000431391,0.00283581,0.092764,1.53217,-0.00339828,-0.1706,0,0.5348,361392,4.43639e+06,2494.41,-0.599652,-0.170013,1.30563,-0.000974378,-0.00688643,-0.00111882,0.000345218,-0.0261362,0.000358818,0.0692553,0.820688,0.143164,0.7674,1616956320324519723
48.9123,0.0832845,0.664878,0.000300907,-0.0262116,0.00041809,0.00283959,0.09247,1.53218,-0.00340297,-0.1706,0,0.5348,361393,4.43639e+06,2494.46,-0.596892,-0.169531,1.30739,-0.000972964,-0.00679637,-0.00120782,0.000332776,-0.0262126,0.000345132,0.0692241,0.820428,0.143192,0.7674,1616956320334521671
48.906,0.0823855,0.665272,0.00029003,-0.026286,0.000403985,0.00284317,0.0921794,1.53218,-0.0034075,-0.1706,0,0.5348,361393,4.43639e+06,2494.5,-0.594138,-0.169057,1.30916,-0.00097182,-0.00670382,-0.00129652,0.000320466,-0.026287,0.000330652,0.0691943,0.82017,0.143223,0.7674,1616956320344514773
48.8997,0.0815124,0.665645,0.000279265,-0.026359,0.000389017,0.00284659,0.0918894,1.53219,-0.0034118,-0.1706,0,0.5348,361394,4.43639e+06,2494.55,-0.591396,-0.168597,1.31094,-0.000965046,-0.00660724,-0.0013804,0.000308198,-0.02636,0.000315312,0.0691667,0.819914,0.143255,0.7674,1616956320354516117
48.8997,0.0815124,0.665645,0.000279265,-0.026359,0.000389017,0.00284659,0.0918894,1.53219,-0.00341591,-0.1706,0,0.5348,361394,4.43639e+06,2494.55,-0.591396,-0.168597,1.31094,-0.000988032,-0.00655793,-0.00141984,0.000308198,-0.02636,0.000315312,0.0691331,0.819786,0.143272,0.7674,1616956320364483839
48.8934,0.0806307,0.666003,0.000268449,-0.0264314,0.000373039,0.00284991,0.0915965,1.53219,-0.00341591,-0.1706,0,0.5348,361394,4.43639e+06,2494.59,-0.588637,-0.168141,1.31277,-0.000963157,-0.0065068,-0.00146241,0.000295794,-0.0264324,0.000298964,0.0691409,0.819658,0.143289,0.7674,1616956320374487053
48.8873,0.0797897,0.666335,0.000258382,-0.0265009,0.000356601,0.002853,0.0913105,1.53219,-0.00341989,-0.1706,0,0.5348,361395,4.43639e+06,2494.64,-0.585898,-0.167704,1.3146,-0.000923318,-0.00640492,-0.00154129,0.000284111,-0.0265018,0.000282168,0.0691558,0.819406,0.143325,0.7674,1616956320384485650
48.8816,0.0790049,0.666635,0.000248845,-0.0265652,0.000340355,0.00285582,0.0910405,1.53219,-0.00342361,-0.1706,0,0.5348,361395,4.43639e+06,2494.68,-0.583269,-0.167297,1.31637,-0.000931185,-0.00630577,-0.00161528,0.000272991,-0.0265661,0.000265588,0.06913,0.819165,0.143361,0.7674,1616956320394486102
48.8758,0.0782074,0.666928,0.00023882,-0.0266301,0.000322994,0.00285857,0.0907636,1.5322,-0.00342698,-0.1706,0,0.5348,361396,4.43639e+06,2494.72,-0.580665,-0.166883,1.31812,-0.000973,-0.0062067,-0.00168627,0.000261288,-0.0266309,0.000247889,0.0690727,0.818931,0.143399,0.7674,1616956320404478378
48.8699,0.0774229,0.667211,0.000228503,-0.0266947,0.00030466,0.00286123,0.0904823,1.5322,-0.00343029,-0.1706,0,0.5348,361396,4.43639e+06,2494.76,-0.578005,-0.166472,1.31994,-0.000966897,-0.00610365,-0.00175621,0.000249215,-0.0266955,0.000229217,0.0690542,0.818694,0.143438,0.7674,1616956320414516616
48.8642,0.0766537,0.667477,0.000218429,-0.026757,0.000285977,0.00286372,0.0902058,1.5322,-0.00343348,-0.1706,0,0.5348,361397,4.43639e+06,2494.8,-0.57535,-0.166074,1.32176,-0.000964986,-0.00599982,-0.00182399,0.000237365,-0.0267577,0.000210206,0.0690368,0.81846,0.143479,0.7674,1616956320424451175
48.8574,0.0757608,0.667779,0.00020635,-0.0268306,0.00026267,0.00286654,0.0898722,1.5322,-0.00343647,-0.1706,0,0.5348,361397,4.43639e+06,2494.85,-0.572401,-0.165606,1.32378,-0.000955795,-0.0058834,-0.00189226,0.000223089,-0.0268313,0.00018651,0.0690227,0.818207,0.143526,0.7674,1616956320434483880
48.8501,0.0748154,0.668086,0.000193509,-0.0269077,0.000236681,0.00286936,0.0895137,1.53221,-0.00343985,-0.1706,0,0.5348,361398,4.43639e+06,2494.9,-0.569077,-0.165111,1.32609,-0.00094956,-0.00575092,-0.0019692,0.000207822,-0.0269083,0.000160113,0.0690067,0.817923,0.143581,0.7674,1616956320444504118
48.8501,0.0748154,0.668086,0.000193509,-0.0269077,0.000236681,0.00286936,0.0895137,1.53221,-0.00344324,-0.1706,0,0.5348,361398,4.43639e+06,2494.9,-0.569077,-0.165111,1.32609,-0.00094956,-0.00575092,-0.0019692,0.000207822,-0.0269083,0.000160113,0.0690067,0.817923,0.143581,0.7674,1616956320454457231
48.843,0.0739153,0.668368,0.000181067,-0.0269811,0.000210386,0.00287191,0.0891639,1.53221,-0.00344324,-0.1706,0,0.5348,361399,4.43639e+06,2494.95,-0.565692,-0.164636,1.32844,-0.000948966,-0.00561694,-0.00204527,0.000192948,-0.0269815,0.000133428,0.0689907,0.817638,0.143639,0.7674,1616956320464522499
48.8355,0.0729696,0.668656,0.000167731,-0.0270581,0.000181063,0.00287444,0.0887862,1.53221,-0.00344629,-0.1706,0,0.5348,361399,4.43639e+06,2495.01,-0.562186,-0.164135,1.33089,-0.000943668,-0.00547837,-0.00211794,0.000176925,-0.0270585,0.000103694,0.0689785,0.81735,0.1437,0.7674,1616956320474527945
48.8295,0.0722297,0.668878,0.000157218,-0.0271179,0.000156895,0.0028763,0.0884848,1.53221,-0.00344933,-0.1706,0,0.5348,361400,4.43639e+06,2495.05,-0.558975,-0.16374,1.33314,-0.000942081,-0.0053537,-0.00218816,0.000164218,-0.0271183,7.92045e-05,0.068965,0.817087,0.14376,0.7674,1616956320484483773
48.8233,0.0714862,0.669099,0.000146278,-0.0271787,0.000131188,0.00287808,0.0881716,1.53221,-0.00345156,-0.1706,0,0.5348,361400,4.43639e+06,2495.1,-0.556012,-0.163341,1.3352,-0.000942747,-0.00524011,-0.00224325,0.00015096,-0.0271789,5.31716e-05,0.068958,0.816855,0.143815,0.7674,1616956320494459416
48.8173,0.0707676,0.669308,0.000135417,-0.0272373,0.000105192,0.00287968,0.087862,1.53221,-0.00345369,-0.1706,0,0.5348,361401,4.43639e+06,2495.14,-0.553015,-0.162944,1.33723,-0.000953952,-0.00512937,-0.00229949,0.000137774,-0.0272375,2.68605e-05,0.0689522,0.816624,0.143873,0.7674,1616956320504452111
48.8173,0.0707676,0.669308,0.000135417,-0.0272373,0.000105192,0.00287968,0.087862,1.53221,-0.00345562,-0.1706,0,0.5348,361401,4.43639e+06,2495.14,-0.553015,-0.162944,1.33723,-0.000953952,-0.00512937,-0.00229949,0.000137774,-0.0272375,2.68605e-05,0.0689522,0.816624,0.143873,0.7674,1616956320514478631
48.8101,0.0699203,0.669548,0.000122294,-0.0273064,7.31203e-05,0.00288142,0.0874877,1.53221,-0.00345562,-0.1706,0,0.5348,361402,4.43639e+06,2495.19,-0.549677,-0.162478,1.33954,-0.00094396,-0.00500318,-0.00235344,0.000121806,-0.0273065,-5.58245e-06,0.0689502,0.816374,0.143937,0.7674,1616956320524456923
48.8031,0.0691226,0.669773,0.000109653,-0.027372,4.10381e-05,0.00288288,0.0871216,1.53221,-0.0034577,-0.1706,0,0.5348,361402,4.43639e+06,2495.24,-0.546109,-0.162035,1.34201,-0.000938931,-0.00487179,-0.00241164,0.000106345,-0.0273721,-3.80166e-05,0.0689477,0.816111,0.144008,0.7674,1616956320534463914
48.797,0.068447,0.669966,9.86816e-05,-0.0274282,1.22631e-05,0.00288402,0.0868,1.53221,-0.00345946,-0.1706,0,0.5348,361403,4.43639e+06,2495.29,-0.542815,-0.161654,1.34428,-0.000930791,-0.00475417,-0.00246375,9.28652e-05,-0.0274281,-6.70927e-05,0.0689469,0.815873,0.144076,0.7674,1616956320544449434
48.797,0.068447,0.669966,9.86816e-05,-0.0274282,1.22631e-05,0.00288402,0.0868,1.53221,-0.00346082,-0.1706,0,0.5348,361403,4.43639e+06,2495.29,-0.542815,-0.161654,1.34428,-0.000930791,-0.00475417,-0.00246375,9.28652e-05,-0.0274281,-6.70927e-05,0.0689469,0.815873,0.144076,0.7674,1616956320554505261
48.7881,0.067491,0.670229,8.26082e-05,-0.027508,-3.04783e-05,0.00288535,0.0863289,1.53221,-0.00346082,-0.1706,0,0.5348,361404,4.43639e+06,2495.35,-0.538883,-0.161096,1.34695,-0.000923796,-0.00461525,-0.00251008,7.31015e-05,-0.0275078,-0.000110259,0.0689528,0.815605,0.144155,0.7674,1616956320564455202
48.7827,0.0669117,0.670393,7.2984e-05,-0.0275556,-5.74185e-05,0.00288602,0.0860386,1.53221,-0.00346242,-0.1706,0,0.5348,361404,4.43639e+06,2495.39,-0.535314,-0.160783,1.34942,-0.000918115,-0.00449391,-0.0025643,6.11724e-05,-0.0275553,-0.000137453,0.068955,0.815355,0.144232,0.7674,1616956320574489701
48.777,0.0663222,0.670562,6.27573e-05,-0.0276049,-8.63303e-05,0.0028866,0.0857305,1.53221,-0.00346323,-0.1706,0,0.5348,361405,4.43639e+06,2495.43,-0.532401,-0.160433,1.35138,-0.00091038,-0.00439845,-0.00259894,4.84899e-05,-0.0276046,-0.000166626,0.0689611,0.815165,0.144294,0.7674,1616956320584516058
48.7714,0.0657594,0.670729,5.2674e-05,-0.0276528,-0.000115359,0.00288704,0.0854246,1.5322,-0.00346393,-0.1706,0,0.5348,361405,4.43639e+06,2495.48,-0.529423,-0.160096,1.35336,-0.000907306,-0.00430385,-0.0026307,3.5959e-05,-0.0276524,-0.000195908,0.0689687,0.814975,0.144359,0.7674,1616956320594527447
48.766,0.065227,0.670887,4.29943e-05,-0.0276981,-0.00014373,0.00288733,0.0851286,1.5322,-0.00346445,-0.1706,0,0.5348,361406,4.43639e+06,2495.51,-0.526506,-0.159776,1.3553,-0.000903372,-0.00421354,-0.00265997,2.39047e-05,-0.0276976,-0.000224515,0.0689775,0.814793,0.144422,0.7674,1616956320604487791
48.7606,0.0647002,0.670996,3.61499e-05,-0.027788,-0.000173108,0.00288751,0.0848247,1.5322,-0.00346479,-0.1706,0,0.5348,361406,4.43639e+06,2495.56,-0.523723,-0.159195,1.35438,-0.000669652,-0.00813115,-0.0026918,1.46083e-05,-0.0277874,-0.00025426,0.0689856,0.814503,0.144486,0.7674,1616956320614480430
48.7606,0.0647002,0.670996,3.61499e-05,-0.027788,-0.000173108,0.00288751,0.0848247,1.5322,-0.00346501,-0.1706,0,0.5348,361406,4.43639e+06,2495.56,-0.523723,-0.159195,1.35438,-0.000682557,-0.00799924,-0.00270661,1.46083e-05,-0.0277874,-0.00025426,0.0689856,0.814503,0.144486,0.7674,1616956320624508576
48.7552,0.0642065,0.671083,2.87312e-05,-0.0278732,-0.000202235,0.00288757,0.0845257,1.5322,-0.00346501,-0.1706,0,0.5348,361407,4.43639e+06,2495.59,-0.520797,-0.158905,1.35654,-0.000699604,-0.00786979,-0.00271983,4.77703e-06,-0.0278725,-0.000283733,0.0689939,0.81411,0.144551,0.7674,1616956320634486719
48.7489,0.0636333,0.671157,1.95282e-05,-0.0279708,-0.000237102,0.00288752,0.0841698,1.53219,-0.00346509,-0.1706,0,0.5348,361407,4.43639e+06,2495.64,-0.517578,-0.158557,1.35894,-0.000728459,-0.00758571,-0.00274503,-7.28993e-06,-0.02797,-0.000318997,0.069005,0.813693,0.144622,0.7674,1616956320644488880
48.7416,0.0629945,0.67121,8.33441e-06,-0.0280806,-0.000278431,0.00288726,0.0837506,1.53219,-0.00346503,-0.1706,0,0.5348,361408,4.43639e+06,2495.7,-0.513768,-0.158155,1.36181,-0.000754305,-0.00725393,-0.00277305,-2.1845e-05,-0.0280796,-0.00036077,0.0690202,0.813214,0.144707,0.7674,1616956320654452997
48.7386,0.0627523,0.671225,3.77395e-06,-0.0281232,-0.00029524,0.00288709,0.0835812,1.53219,-0.00346471,-0.1706,0,0.5348,361408,4.43639e+06,2495.72,-0.511783,-0.15802,1.36335,-0.000757047,-0.00707695,-0.00279037,-2.77622e-05,-0.0281222,-0.000377752,0.0690315,0.812961,0.144753,0.7674,1616956320664480062
48.7333,0.0623065,0.671244,-4.81329e-06,-0.0281994,-0.000326347,0.00288668,0.0832688,1.53218,-0.0034645,-0.1706,0,0.5348,361409,4.43639e+06,2495.76,-0.508521,-0.157757,1.36585,-0.000774159,-0.00680212,-0.00281261,-3.88447e-05,-0.0281984,-0.000409166,0.0690468,0.812564,0.144828,0.7674,1616956320674534125
48.7285,0.0619285,0.67125,-1.25449e-05,-0.0282648,-0.000354146,0.00288623,0.0829906,1.53218,-0.00346402,-0.1706,0,0.5348,361410,4.43639e+06,2495.79,-0.505752,-0.157522,1.36797,-0.000796143,-0.00647036,-0.00283251,-4.8789e-05,-0.0282636,-0.000437228,0.0690683,0.812091,0.144921,0.7674,1616956320684515959
48.7238,0.0615595,0.671248,-2.03666e-05,-0.0283278,-0.000381988,0.00288567,0.0827127,1.53217,-0.00346347,-0.1706,0,0.5348,361410,4.43639e+06,2495.83,-0.503108,-0.157283,1.36999,-0.000803099,-0.00625483,-0.00284428,-5.88107e-05,-0.0283265,-0.000465322,0.069085,0.81179,0.144983,0.7674,1616956320694516968
48.7214,0.061384,0.671243,-2.44094e-05,-0.0283592,-0.000396306,0.00288535,0.0825699,1.53217,-0.00346281,-0.1706,0,0.5348,361410,4.43639e+06,2495.85,-0.50172,-0.157164,1.37105,-0.000806054,-0.00614662,-0.00284746,-6.39786e-05,-0.028358,-0.000479765,0.0690975,0.811639,0.145015,0.7674,1616956320704479764
48.7141,0.0608571,0.671217,-3.68024e-05,-0.0284519,-0.000440067,0.00288421,0.0821339,1.53216,-0.00346242,-0.1706,0,0.5348,361411,4.43639e+06,2495.9,-0.497446,-0.156811,1.37432,-0.000807112,-0.00592487,-0.00285791,-7.97834e-05,-0.0284505,-0.000523892,0.0691134,0.811331,0.145081,0.7674,1616956320714519914
48.7095,0.0605255,0.671191,-4.48343e-05,-0.0285088,-0.000468293,0.00288334,0.0818527,1.53216,-0.00346105,-0.1706,0,0.5348,361411,4.43639e+06,2495.94,-0.494726,-0.156591,1.37639,-0.000809607,-0.00572219,-0.00286154,-8.99945e-05,-0.0285074,-0.000552341,0.0691387,0.811051,0.145143,0.7674,1616956320724481566
48.7071,0.060374,0.671177,-4.88758e-05,-0.0285368,-0.000482525,0.00288287,0.081711,1.53215,-0.00346001,-0.1706,0,0.5348,361412,4.43639e+06,2495.95,-0.493346,-0.156476,1.37743,-0.000813669,-0.00562123,-0.00286526,-9.51284e-05,-0.0285353,-0.000566681,0.0691444,0.810912,0.145174,0.7674,1616956320734473330
48.7021,0.0600393,0.67114,-5.76973e-05,-0.0285958,-0.000513479,0.00288175,0.0814022,1.53215,-0.00345945,-0.1706,0,0.5348,361412,4.43639e+06,2495.99,-0.490443,-0.156235,1.37963,-0.000820098,-0.00541349,-0.00286568,-0.000106311,-0.0285942,-0.000597863,0.0691669,0.810628,0.14524,0.7674,1616956320744518646
48.6974,0.0597452,0.671102,-6.60773e-05,-0.0286497,-0.000542841,0.00288058,0.0811091,1.53214,-0.0034581,-0.1706,0,0.5348,361413,4.43639e+06,2496.03,-0.487519,-0.156016,1.38184,-0.000823564,-0.0052095,-0.00286788,-0.000116912,-0.028648,-0.000627429,0.0691849,0.810349,0.145307,0.7674,1616956320754508634
48.6925,0.059459,0.67106,-7.45659e-05,-0.0287025,-0.000572754,0.00287927,0.0808097,1.53213,-0.0034567,-0.1706,0,0.5348,361413,4.43639e+06,2496.06,-0.484627,-0.155793,1.38401,-0.000807356,-0.00501464,-0.00286549,-0.000127644,-0.0287007,-0.00065754,0.0692246,0.810084,0.145373,0.7674,1616956320764490083
48.688,0.0592061,0.671017,-8.25588e-05,-0.0287506,-0.00060103,0.00287793,0.080526,1.53213,-0.00345513,-0.1706,0,0.5348,361414,4.43639e+06,2496.1,-0.481793,-0.155591,1.38613,-0.000805883,-0.00482991,-0.0028629,-0.000137739,-0.0287488,-0.000685993,0.0692521,0.809833,0.145437,0.7674,1616956320774519807
48.6829,0.0589249,0.670966,-9.16425e-05,-0.0288039,-0.000633454,0.00287627,0.0801994,1.53212,-0.00345352,-0.1706,0,0.5348,361414,4.43639e+06,2496.14,-0.478785,-0.155341,1.38834,-0.000802799,-0.00464144,-0.00285649,-0.000149213,-0.0288019,-0.000718608,0.0692805,0.809579,0.145505,0.7674,1616956320784518551
48.6782,0.0586886,0.67092,-9.9789e-05,-0.02885,-0.000662697,0.00287466,0.0799036,1.53211,-0.00345152,-0.1706,0,0.5348,361415,4.43639e+06,2496.17,-0.475768,-0.155144,1.39056,-0.000797483,-0.00445713,-0.00284923,-0.000159495,-0.028848,-0.000748015,0.0693129,0.809329,0.145573,0.7674,1616956320794513106
48.6736,0.0584748,0.670874,-0.000107867,-0.0288942,-0.000691696,0.00287295,0.0796088,1.5321,-0.00344959,-0.1706,0,0.5348,361415,4.43639e+06,2496.21,-0.472885,-0.154942,1.39266,-0.000796912,-0.00428919,-0.00283856,-0.000169671,-0.0288921,-0.000777166,0.0693439,0.809102,0.145638,0.7674,1616956320804516350
48.669,0.0582732,0.670828,-0.000115986,-0.0289373,-0.000720923,0.00287111,0.0793101,1.5321,-0.00344754,-0.1706,0,0.5348,361416,4.43639e+06,2496.24,-0.469982,-0.154738,1.39475,-0.000788918,-0.00412622,-0.00282647,-0.000179885,-0.0289351,-0.000806537,0.0693761,0.808882,0.145703,0.7674,1616956320814514349
48.6644,0.0580646,0.670784,-0.000124164,-0.0289791,-0.000750333,0.00286915,0.0790075,1.53209,-0.00344533,-0.1706,0,0.5348,361416,4.43639e+06,2496.28,-0.467041,-0.154535,1.39684,-0.000786766,-0.00396773,-0.00281182,-0.000190152,-0.0289768,-0.000836083,0.0694099,0.808668,0.145768,0.7674,1616956320824514546
48.6596,0.05788,0.670738,-0.000132615,-0.0290211,-0.000780911,0.00286699,0.0786909,1.53208,-0.00344298,-0.1706,0,0.5348,361417,4.43639e+06,2496.32,-0.464004,-0.154315,1.39897,-0.000780841,-0.00381105,-0.00279738,-0.000200753,-0.0290188,-0.000866793,0.0694453,0.808457,0.145834,0.7674,1616956320834519573
48.6547,0.057716,0.670696,-0.00014117,-0.0290622,-0.000811825,0.00286466,0.0783681,1.53207,-0.00344039,-0.1706,0,0.5348,361417,4.43639e+06,2496.35,-0.460872,-0.154106,1.40115,-0.000774818,-0.00365648,-0.00277685,-0.000211459,-0.0290597,-0.000897831,0.0694836,0.808247,0.145902,0.7674,1616956320844470046
48.6518,0.0576157,0.670669,-0.000146375,-0.0290867,-0.000830763,0.00286317,0.0781689,1.53206,-0.0034376,-0.1706,0,0.5348,361418,4.43639e+06,2496.38,-0.45924,-0.15395,1.40226,-0.000772115,-0.00348843,-0.00275078,-0.00021797,-0.0290842,-0.00091684,0.0695252,0.808021,0.145979,0.7674,1616956320854494071
48.6488,0.0575218,0.670645,-0.000151664,-0.0291106,-0.000849608,0.00286163,0.0779695,1.53205,-0.00343581,-0.1706,0,0.5348,361418,4.43639e+06,2496.4,-0.45729,-0.153823,1.40359,-0.000772115,-0.00348843,-0.00275078,-0.00022455,-0.0291081,-0.000935751,0.0695252,0.808021,0.145979,0.7674,1616956320864462699
48.6428,0.0573533,0.670599,-0.000162159,-0.0291573,-0.000887579,0.00285837,0.077564,1.53204,-0.00343396,-0.1706,0,0.5348,361419,4.43639e+06,2496.45,-0.45335,-0.153563,1.40624,-0.000761557,-0.00331365,-0.00272189,-0.000237619,-0.0291547,-0.000973846,0.0695768,0.807782,0.146063,0.7674,1616956320874515066
48.638,0.0572371,0.670571,-0.000170437,-0.0291934,-0.000918023,0.0028556,0.0772351,1.53203,-0.00343004,-0.1706,0,0.5348,361419,4.43639e+06,2496.48,-0.449807,-0.153388,1.4086,-0.000742479,-0.0031651,-0.00269454,-0.000247934,-0.0291906,-0.00100438,0.0696295,0.807576,0.146139,0.7674,1616956320884513080
48.6333,0.0571282,0.67055,-0.000178529,-0.0292276,-0.000947798,0.00285275,0.0769098,1.53202,-0.00342672,-0.1706,0,0.5348,361420,4.43639e+06,2496.52,-0.446604,-0.153188,1.41068,-0.000732625,-0.00304025,-0.00266664,-0.000257993,-0.0292247,-0.00103423,0.0696746,0.807402,0.146205,0.7674,1616956320894513611
48.629,0.0570599,0.670534,-0.000185839,-0.0292577,-0.000974844,0.00285004,0.0766108,1.53201,-0.0034233,-0.1706,0,0.5348,361420,4.43639e+06,2496.55,-0.443562,-0.153017,1.41263,-0.000722607,-0.00292798,-0.00263845,-0.000267069,-0.0292549,-0.00106134,0.0697199,0.807243,0.146269,0.7674,1616956320904516135
48.6247,0.056985,0.670525,-0.000193127,-0.0292872,-0.00100186,0.00284721,0.0763085,1.532,-0.00342005,-0.1706,0,0.5348,361421,4.43639e+06,2496.59,-0.440613,-0.152834,1.41448,-0.000711671,-0.0028251,-0.00260894,-0.000276101,-0.0292842,-0.00108841,0.069763,0.807098,0.146329,0.7674,1616956320914535609
48.6205,0.0569388,0.670521,-0.000200269,-0.0293154,-0.00102842,0.00284431,0.0760075,1.53199,-0.00341665,-0.1706,0,0.5348,361421,4.43639e+06,2496.62,-0.437655,-0.152655,1.41631,-0.000702359,-0.00272792,-0.00257839,-0.000284937,-0.0293124,-0.00111502,0.0698074,0.806958,0.146388,0.7674,1616956320924481544
48.6157,0.0568853,0.670523,-0.00020826,-0.0293462,-0.00105797,0.00284092,0.0756679,1.53197,-0.00341317,-0.1706,0,0.5348,361422,4.43639e+06,2496.66,-0.434485,-0.15244,1.41823,-0.000698403,-0.0026304,-0.00254285,-0.000294787,-0.0293431,-0.00114461,0.0698532,0.806817,0.14645,0.7674,1616956320934595976
48.6113,0.0568624,0.670531,-0.000215578,-0.0293739,-0.00108524,0.00283764,0.0753497,1.53196,-0.0034091,-0.1706,0,0.5348,361422,4.43639e+06,2496.69,-0.431272,-0.152261,1.42016,-0.000685141,-0.00253714,-0.00250734,-0.000303798,-0.0293707,-0.00117191,0.069905,0.806678,0.146513,0.7674,1616956320944487939
48.6092,0.0568534,0.670537,-0.000219032,-0.029387,-0.00109834,0.00283602,0.075195,1.53195,-0.00340517,-0.1706,0,0.5348,361423,4.43639e+06,2496.71,-0.429716,-0.152175,1.42107,-0.000672894,-0.00245363,-0.00247138,-0.000308057,-0.0293838,-0.00118503,0.0699547,0.806553,0.146573,0.7674,1616956320954564449
48.605,0.0568401,0.670556,-0.000226005,-0.0294125,-0.00112404,0.00283273,0.0748881,1.53194,-0.00340323,-0.1706,0,0.5348,361423,4.43639e+06,2496.74,-0.426681,-0.151998,1.42283,-0.000663114,-0.00241516,-0.00245309,-0.000316591,-0.0294092,-0.00121075,0.0699793,0.806493,0.146601,0.7674,1616956320964514717
48.6029,0.0568488,0.670566,-0.000229515,-0.0294248,-0.00113664,0.00283107,0.0747359,1.53193,-0.00339928,-0.1706,0,0.5348,361423,4.43639e+06,2496.76,-0.425187,-0.151909,1.42369,-0.000678232,-0.00237816,-0.0024351,-0.000320858,-0.0294214,-0.00122335,0.0699842,0.806436,0.14663,0.7674,1616956320974493594
48.5988,0.0568536,0.670594,-0.000236393,-0.029449,-0.00116176,0.00282765,0.0744286,1.53192,-0.00339728,-0.1706,0,0.5348,361424,4.43639e+06,2496.79,-0.42218,-0.151732,1.42539,-0.000665556,-0.00230698,-0.00239692,-0.00032923,-0.0294456,-0.00124848,0.0700338,0.806325,0.146685,0.7674,1616956320984488827
48.5947,0.0568724,0.670627,-0.000243266,-0.0294723,-0.00118612,0.0028242,0.0741252,1.53191,-0.00339318,-0.1706,0,0.5348,361424,4.43639e+06,2496.83,-0.419182,-0.151565,1.42705,-0.000675071,-0.00224149,-0.00235641,-0.00033753,-0.0294688,-0.00127285,0.0700637,0.806219,0.14674,0.7674,1616956320994488637
48.5907,0.0568995,0.670667,-0.00024977,-0.029495,-0.00121025,0.00282064,0.0738198,1.53189,-0.00338904,-0.1706,0,0.5348,361425,4.43639e+06,2496.86,-0.416188,-0.151384,1.42868,-0.000613661,-0.00217981,-0.00231964,-0.000345425,-0.0294915,-0.00129697,0.0701561,0.806118,0.146794,0.7674,1616956321004455520
48.5867,0.0569432,0.670713,-0.000256091,-0.029517,-0.0012338,0.00281702,0.0735162,1.53188,-0.00338477,-0.1706,0,0.5348,361425,4.43639e+06,2496.89,-0.413195,-0.151214,1.43028,-0.000597155,-0.00212361,-0.00227868,-0.000353083,-0.0295134,-0.00132051,0.0702081,0.806022,0.146847,0.7674,1616956321014519524
48.5825,0.0569956,0.670767,-0.00026238,-0.0295394,-0.00125798,0.00281315,0.0731981,1.53187,-0.00338043,-0.1706,0,0.5348,361426,4.43639e+06,2496.92,-0.410129,-0.151035,1.43189,-0.00059361,-0.00206969,-0.00223328,-0.00036072,-0.0295358,-0.00134467,0.0702606,0.805928,0.1469,0.7674,1616956321024520076
48.5785,0.0570717,0.670825,-0.000268282,-0.0295605,-0.00128078,0.00280936,0.0728922,1.53185,-0.00337578,-0.1706,0,0.5348,361426,4.43639e+06,2496.96,-0.407068,-0.150866,1.43346,-0.000581754,-0.00202031,-0.00219118,-0.00036787,-0.0295568,-0.00136745,0.0703159,0.805838,0.146952,0.7674,1616956321034518369
48.5743,0.0571477,0.670896,-0.000274684,-0.0295829,-0.00130515,0.00280513,0.0725577,1.53184,-0.00337123,-0.1706,0,0.5348,361427,4.43639e+06,2496.99,-0.403896,-0.150671,1.43506,-0.00057623,-0.0019736,-0.00214355,-0.000375581,-0.0295792,-0.00139179,0.0703704,0.80575,0.147005,0.7674,1616956321044491770
48.5688,0.0572758,0.670994,-0.000282805,-0.029611,-0.00133561,0.00279956,0.0721286,1.53182,-0.00336616,-0.1706,0,0.5348,361428,4.43639e+06,2497.04,-0.400071,-0.150395,1.43694,-0.000575379,-0.00192203,-0.00208499,-0.000385298,-0.0296071,-0.0014222,0.0704316,0.80565,0.147066,0.7674,1616956321054511635
48.5688,0.0572758,0.670994,-0.000282805,-0.029611,-0.00133561,0.00279956,0.0721286,1.53182,-0.00335948,-0.1706,0,0.5348,361428,4.43639e+06,2497.04,-0.400071,-0.150395,1.43694,-0.000575379,-0.00192203,-0.00208499,-0.000385298,-0.0296071,-0.0014222,0.0704316,0.80565,0.147066,0.7674,1616956321064532867
48.5643,0.0574023,0.671087,-0.000289323,-0.0296339,-0.00136037,0.00279481,0.0717692,1.5318,-0.00335948,-0.1706,0,0.5348,361428,4.43639e+06,2497.07,-0.39624,-0.150231,1.4388,-0.000549033,-0.00187613,-0.00202591,-0.000393077,-0.02963,-0.00144691,0.0705092,0.805553,0.147127,0.7674,1616956321074517128
48.5596,0.0575344,0.671192,-0.000295958,-0.0296573,-0.00138547,0.00278976,0.0713939,1.53178,-0.00335377,-0.1706,0,0.5348,361429,4.43639e+06,2497.11,-0.392611,-0.150021,1.44051,-0.000538007,-0.0018382,-0.00196859,-0.000400957,-0.0296533,-0.00147195,0.0705759,0.805467,0.147182,0.7674,1616956321084513508
48.5549,0.0576958,0.671309,-0.000302531,-0.0296806,-0.00141026,0.0027845,0.0710114,1.53176,-0.00334771,-0.1706,0,0.5348,361429,4.43639e+06,2497.15,-0.388875,-0.149812,1.44222,-0.000523757,-0.00180448,-0.00190774,-0.000408723,-0.0296766,-0.00149668,0.0706462,0.805383,0.147237,0.7674,1616956321094514002
48.5512,0.0578207,0.67141,-0.000307598,-0.0296991,-0.00142964,0.00278021,0.0707033,1.53174,-0.00334141,-0.1706,0,0.5348,361430,4.43639e+06,2497.18,-0.385527,-0.149677,1.44373,-0.000498309,-0.00177799,-0.0018552,-0.000414694,-0.0296951,-0.00151599,0.0707178,0.80531,0.147286,0.7674,1616956321104514077
48.5471,0.0579776,0.671526,-0.000313004,-0.0297191,-0.0014502,0.00277546,0.070367,1.53173,-0.00333625,-0.1706,0,0.5348,361431,4.43639e+06,2497.21,-0.382332,-0.149483,1.44512,-0.000490472,-0.00175623,-0.0018025,-0.000421033,-0.0297149,-0.00153648,0.070777,0.805246,0.147331,0.7674,1616956321114514683
48.5432,0.058137,0.671646,-0.000318118,-0.0297383,-0.00146965,0.00277075,0.0700389,1.53171,-0.00333055,-0.1706,0,0.5348,361431,4.43639e+06,2497.25,-0.379064,-0.14931,1.44652,-0.000476486,-0.00173709,-0.00174825,-0.000426999,-0.0297341,-0.00155585,0.0708418,0.805182,0.147375,0.7674,1616956321124514167
48.5432,0.058137,0.671646,-0.000318118,-0.0297383,-0.00146965,0.00277075,0.0700389,1.53171,-0.0033249,-0.1706,0,0.5348,361431,4.43639e+06,2497.25,-0.379064,-0.14931,1.44652,-0.000435965,-0.00172769,-0.00172163,-0.000426999,-0.0297341,-0.00155585,0.0709022,0.805151,0.147397,0.7674,1616956321134479224
48.5393,0.0583118,0.671772,-0.000323144,-0.0297576,-0.00148875,0.00276592,0.0697061,1.53169,-0.0033249,-0.1706,0,0.5348,361432,4.43639e+06,2497.28,-0.375805,-0.149129,1.44789,-0.00046264,-0.0017207,-0.00169363,-0.000432834,-0.0297534,-0.00157487,0.0709057,0.80512,0.147418,0.7674,1616956321144453312
48.5354,0.0584868,0.671904,-0.000328348,-0.0297767,-0.00150717,0.00276104,0.069374,1.53167,-0.0033191,-0.1706,0,0.5348,361432,4.43639e+06,2497.31,-0.372529,-0.148954,1.44924,-0.000446591,-0.00170649,-0.00163691,-0.000438786,-0.0297724,-0.00159321,0.0709715,0.805061,0.14746,0.7674,1616956321154453835
48.5319,0.058663,0.672028,-0.000332552,-0.0297937,-0.00152325,0.00275658,0.0690743,1.53166,-0.00331324,-0.1706,0,0.5348,361433,4.43639e+06,2497.34,-0.369438,-0.148806,1.45048,-0.00042916,-0.00169576,-0.00158497,-0.000443619,-0.0297894,-0.00160921,0.0710368,0.805007,0.147498,0.7674,1616956321164449398
48.528,0.0588627,0.672229,-0.000340401,-0.0297673,-0.00154121,0.00275133,0.0687274,1.53164,-0.00330789,-0.1706,0,0.5348,361433,4.43639e+06,2497.38,-0.366078,-0.148797,1.45451,-0.000636166,0.00219793,-0.00152613,-0.000452129,-0.0297629,-0.00162694,0.0710995,0.805071,0.147536,0.7674,1616956321174449881
48.524,0.0590802,0.672459,-0.00034729,-0.029743,-0.00155858,0.00274593,0.0683778,1.53162,-0.00330159,-0.1706,0,0.5348,361434,4.43639e+06,2497.41,-0.362638,-0.148591,1.45557,-0.000590428,0.00202558,-0.00146173,-0.000459621,-0.0297386,-0.00164408,0.071173,0.805245,0.147575,0.7674,1616956321184452398
48.5203,0.0592883,0.672698,-0.000353232,-0.029722,-0.00157418,0.0027408,0.0680496,1.5316,-0.00329512,-0.1706,0,0.5348,361434,4.43639e+06,2497.44,-0.359307,-0.148411,1.45654,-0.000546232,0.00185471,-0.00139742,-0.000466072,-0.0297176,-0.00165948,0.0712471,0.805411,0.147611,0.7674,1616956321194502845
48.5166,0.0595063,0.672964,-0.00035885,-0.0297025,-0.00158943,0.00273549,0.0677147,1.53158,-0.00328896,-0.1706,0,0.5348,361435,4.43639e+06,2497.47,-0.356025,-0.148204,1.45742,-0.00050498,0.00168569,-0.0013373,-0.000472153,-0.0296981,-0.00167451,0.0713172,0.805571,0.147646,0.7674,1616956321204449630
48.513,0.0597255,0.673241,-0.00036388,-0.0296855,-0.00160354,0.00273029,0.0673906,1.53156,-0.00328259,-0.1706,0,0.5348,361435,4.43639e+06,2497.5,-0.352776,-0.14801,1.45823,-0.000470595,0.00151697,-0.00127762,-0.000477578,-0.029681,-0.00168842,0.0713888,0.805725,0.147678,0.7674,1616956321214483100
48.5093,0.0599549,0.673545,-0.000368706,-0.0296699,-0.00161739,0.00272487,0.0670569,1.53155,-0.00327635,-0.1706,0,0.5348,361436,4.43639e+06,2497.54,-0.349516,-0.147802,1.45899,-0.000436917,0.00134796,-0.00121665,-0.000482755,-0.0296654,-0.00170206,0.0714585,0.805876,0.147709,0.7674,1616956321224479691
48.5093,0.0599549,0.673545,-0.000368706,-0.0296699,-0.00161739,0.00272487,0.0670569,1.53155,-0.00326985,-0.1706,0,0.5348,361436,4.43639e+06,2497.54,-0.349516,-0.147802,1.45899,-0.000385798,0.00126314,-0.00118604,-0.000482755,-0.0296654,-0.00170206,0.0715272,0.80595,0.147724,0.7674,1616956321234516762
48.5058,0.0601783,0.673858,-0.000373079,-0.0296564,-0.00163028,0.00271952,0.0667306,1.53153,-0.00326985,-0.1706,0,0.5348,361436,4.43639e+06,2497.57,-0.346256,-0.147607,1.45971,-0.000409033,0.00117886,-0.00115528,-0.00048742,-0.0296519,-0.00171474,0.0715303,0.806022,0.147739,0.7674,1616956321244489097
48.5019,0.0604354,0.674224,-0.000377642,-0.0296435,-0.00164392,0.00271348,0.0663661,1.53151,-0.00326342,-0.1706,0,0.5348,361437,4.43639e+06,2497.6,-0.342808,-0.147358,1.46041,-0.000382893,0.00100302,-0.00109408,-0.000492249,-0.029639,-0.00172816,0.0716011,0.80617,0.147768,0.7674,1616956321254504007
