u,v,w,p,q,r,phi,theta,psi,roll_ctrl,pitch_ctrl,yaw_ctrl,throttle_ctrl,E,N,U,u_dot,v_dot,w_dot,p_dot,q_dot,r_dot,phi_dot,theta_dot,psi_dot,delta_a,delta_e,delta_r,delta_T,timestamp
54.2847,0.0067884,0.422024,2.23675e-05,-0.00322024,-0.00139536,-2.03045e-05,0.0249973,1.49395,-0.00406154,-0.1708,0,0.5343,362007,4.43646e+06,2457.61,-0.190731,-0.0645992,0.180846,-4.56227e-06,-0.000864145,-1.14291e-06,-1.25184e-05,-0.00322027,-0.00139573,0.0630219,0.871301,0.147232,0.76715,1616528495421113507
54.2847,0.0067884,0.422024,2.23675e-05,-0.00322024,-0.00139536,-2.03045e-05,0.0249973,1.49395,-0.00406044,-0.1708,0,0.5343,362007,4.43646e+06,2457.61,-0.190731,-0.0645992,0.180846,-4.56227e-06,-0.000864145,-1.14291e-06,-1.25184e-05,-0.00322027,-0.00139573,0.0630219,0.871301,0.147232,0.76715,1616528495431107632
54.2805,0.00682759,0.422198,2.23621e-05,-0.00323969,-0.00139539,-2.05896e-05,0.0249242,1.49392,-0.00406038,-0.1708,0,0.5343,362009,4.43646e+06,2457.64,-0.189843,-0.0646886,0.181874,-5.20945e-06,-0.00085987,-1.02335e-06,-1.24223e-05,-0.00323972,-0.00139575,0.0630335,0.871251,0.147232,0.76715,1616528495441078821
54.2805,0.00682759,0.422198,2.23621e-05,-0.00323969,-0.00139539,-2.05896e-05,0.0249242,1.49392,-0.0040593,-0.1708,0,0.5343,362009,4.43646e+06,2457.64,-0.189843,-0.0646886,0.181874,-5.20945e-06,-0.00085987,-1.02335e-06,-1.24223e-05,-0.00323972,-0.00139575,0.0630335,0.871251,0.147232,0.76715,1616528495451085352
54.2782,0.00684521,0.422297,2.2344e-05,-0.00325045,-0.00139538,-2.0746e-05,0.0248834,1.4939,-0.00405923,-0.1708,0,0.5343,362009,4.43646e+06,2457.65,-0.189162,-0.0647641,0.182661,-3.16805e-06,-0.000858563,1.23469e-06,-1.23833e-05,-0.00325048,-0.00139574,0.0630445,0.871213,0.147232,0.76715,1616528495461109985
54.2758,0.00687401,0.422403,2.23376e-05,-0.003262,-0.00139537,-2.09128e-05,0.0248396,1.49388,-0.00405861,-0.1708,0,0.5343,362010,4.43646e+06,2457.67,-0.188653,-0.0648146,0.183244,-4.21349e-06,-0.000857124,1.22951e-06,-1.23282e-05,-0.00326203,-0.00139573,0.0630514,0.871185,0.147232,0.76715,1616528495471088853
54.2734,0.0068952,0.422507,2.2334e-05,-0.00327337,-0.00139535,-2.10758e-05,0.0247962,1.49386,-0.00405795,-0.1708,0,0.5343,362011,4.43646e+06,2457.68,-0.188129,-0.0648678,0.18383,-2.63814e-06,-0.000856264,1.8715e-06,-1.22706e-05,-0.0032734,-0.00139571,0.063058,0.871157,0.147232,0.76715,1616528495481114414
54.2715,0.00691491,0.422589,2.23413e-05,-0.00328223,-0.00139532,-2.11987e-05,0.0247622,1.49385,-0.0040573,-0.1708,0,0.5343,362011,4.43646e+06,2457.7,-0.187667,-0.0649162,0.184344,-3.79732e-06,-0.000855459,2.87641e-06,-1.22153e-05,-0.00328226,-0.00139568,0.0630646,0.871132,0.147232,0.76715,1616528495491129176
54.2715,0.00691491,0.422589,2.23413e-05,-0.00328223,-0.00139532,-2.11987e-05,0.0247622,1.49385,-0.00405679,-0.1708,0,0.5343,362011,4.43646e+06,2457.7,-0.187667,-0.0649162,0.184344,-3.79732e-06,-0.000855459,2.87641e-06,-1.22153e-05,-0.00328226,-0.00139568,0.0630646,0.871132,0.147232,0.76715,1616528495501155176
54.2715,0.00691491,0.422589,2.23413e-05,-0.00328223,-0.00139532,-2.11987e-05,0.0247622,1.49385,-0.00405673,-0.1708,0,0.5343,362011,4.43646e+06,2457.7,-0.187667,-0.0649162,0.184344,-3.79732e-06,-0.000855459,2.87641e-06,-1.22153e-05,-0.00328226,-0.00139568,0.0630646,0.871132,0.147232,0.76715,1616528495511133889
54.2651,0.00696378,0.422845,2.23719e-05,-0.00331221,-0.00139534,-2.16235e-05,0.0246458,1.4938,-0.00405666,-0.1708,0,0.5343,362013,4.43646e+06,2457.74,-0.186762,-0.0649892,0.185361,-6.52222e-06,-0.000847674,-1.37376e-06,-1.20226e-05,-0.00331224,-0.00139569,0.0630707,0.871081,0.147232,0.76715,1616528495521088751
54.2651,0.00696378,0.422845,2.23719e-05,-0.00331221,-0.00139534,-2.16235e-05,0.0246458,1.4938,-0.00405507,-0.1708,0,0.5343,362013,4.43646e+06,2457.74,-0.186762,-0.0649892,0.185361,-6.52222e-06,-0.000847674,-1.37376e-06,-1.20226e-05,-0.00331224,-0.00139569,0.0630707,0.871081,0.147232,0.76715,1616528495531111526
54.262,0.00697883,0.422979,2.23565e-05,-0.00332691,-0.00139532,-2.18312e-05,0.0245879,1.49378,-0.004055,-0.1708,0,0.5343,362014,4.43646e+06,2457.76,-0.185725,-0.0651009,0.186542,-2.82798e-06,-0.000843418,9.18481e-07,-1.19567e-05,-0.00332694,-0.00139567,0.0630875,0.871024,0.147232,0.76715,1616528495541079465
54.2597,0.00700324,0.42308,2.23684e-05,-0.00333788,-0.00139534,-2.19877e-05,0.0245444,1.49376,-0.00405419,-0.1708,0,0.5343,362015,4.43646e+06,2457.77,-0.185122,-0.0651562,0.187199,-1.88977e-07,-0.000842299,-9.80961e-07,-1.18844e-05,-0.00333791,-0.00139568,0.0630957,0.870992,0.147232,0.76715,1616528495551077086
54.2576,0.00702291,0.423171,2.23657e-05,-0.00334775,-0.00139533,-2.21228e-05,0.0245052,1.49374,-0.00405356,-0.1708,0,0.5343,362016,4.43646e+06,2457.79,-0.184631,-0.0652072,0.187737,-6.07125e-07,-0.000841744,4.01765e-07,-1.18323e-05,-0.00334778,-0.00139568,0.063102,0.870966,0.147232,0.76715,1616528495561077544
54.2556,0.00703315,0.423257,2.23551e-05,-0.00335713,-0.00139533,-2.22569e-05,0.0244678,1.49373,-0.00405301,-0.1708,0,0.5343,362016,4.43646e+06,2457.8,-0.184176,-0.0652491,0.188218,-3.14322e-07,-0.000840932,-4.42567e-07,-1.17906e-05,-0.00335716,-0.00139567,0.0631076,0.870943,0.147232,0.76715,1616528495571109106
54.2536,0.0070481,0.423345,2.23682e-05,-0.0033667,-0.00139534,-2.23901e-05,0.0244295,1.49371,-0.00405246,-0.1708,0,0.5343,362017,4.43646e+06,2457.81,-0.183725,-0.0652904,0.18871,9.60193e-07,-0.000839997,-1.47624e-06,-1.17243e-05,-0.00336673,-0.00139569,0.0631131,0.870919,0.147232,0.76715,1616528495581114629
54.2526,0.00705806,0.423389,2.23782e-05,-0.0033715,-0.00139535,-2.24553e-05,0.0244102,1.4937,-0.00405191,-0.1708,0,0.5343,362017,4.43646e+06,2457.82,-0.183498,-0.065313,0.188948,1.73836e-06,-0.00083965,-9.22578e-07,-1.16876e-05,-0.00337153,-0.00139569,0.0631186,0.870907,0.147232,0.76715,1616528495591109912
54.2516,0.00706783,0.423433,2.23813e-05,-0.00337629,-0.00139536,-2.25196e-05,0.024391,1.49369,-0.00405161,-0.1708,0,0.5343,362017,4.43646e+06,2457.83,-0.18327,-0.0653349,0.189194,5.42903e-07,-0.00083929,-9.71413e-07,-1.16577e-05,-0.00337632,-0.00139569,0.0631186,0.870896,0.147232,0.76715,1616528495601080474
54.2496,0.00707592,0.423519,2.23718e-05,-0.00338567,-0.00139537,-2.2649e-05,0.0243531,1.49368,-0.00405131,-0.1708,0,0.5343,362018,4.43646e+06,2457.84,-0.182817,-0.0653778,0.189674,-2.04755e-08,-0.000838398,-1.21621e-06,-1.16146e-05,-0.0033857,-0.0013957,0.0631246,0.870872,0.147232,0.76715,1616528495611109492
54.2496,0.00707592,0.423519,2.23718e-05,-0.00338567,-0.00139537,-2.2649e-05,0.0243531,1.49368,-0.00405078,-0.1708,0,0.5343,362018,4.43646e+06,2457.84,-0.182817,-0.0653778,0.189674,-2.04755e-08,-0.000838398,-1.21621e-06,-1.16146e-05,-0.0033857,-0.0013957,0.0631246,0.870872,0.147232,0.76715,1616528495621080568
54.2451,0.00711513,0.423706,2.24376e-05,-0.00340703,-0.00139545,-2.29415e-05,0.0242662,1.49364,-0.00405071,-0.1708,0,0.5343,362019,4.43646e+06,2457.87,-0.182075,-0.0654399,0.190468,-2.68905e-06,-0.000833686,-3.34169e-06,-1.14292e-05,-0.00340706,-0.00139578,0.0631305,0.870833,0.147232,0.76715,1616528495631106896
54.243,0.00714232,0.423796,2.24251e-05,-0.00341692,-0.00139547,-2.30756e-05,0.0242255,1.49363,-0.00404959,-0.1708,0,0.5343,362020,4.43646e+06,2457.88,-0.181325,-0.0655191,0.191271,-4.06299e-06,-0.000831717,-1.60537e-06,-1.13855e-05,-0.00341695,-0.0013958,0.0631418,0.870793,0.147232,0.76715,1616528495641077122
54.2406,0.00715851,0.423901,2.23805e-05,-0.00342854,-0.00139548,-2.32368e-05,0.0241776,1.49361,-0.00404904,-0.1708,0,0.5343,362021,4.43646e+06,2457.9,-0.180803,-0.0655687,0.191818,-4.94098e-06,-0.000830005,-1.26316e-06,-1.13635e-05,-0.00342858,-0.00139581,0.0631474,0.870766,0.147232,0.76715,1616528495651105527
54.2406,0.00715851,0.423901,2.23805e-05,-0.00342854,-0.00139548,-2.32368e-05,0.0241776,1.49361,-0.00404839,-0.1708,0,0.5343,362021,4.43646e+06,2457.9,-0.180803,-0.0655687,0.191818,-4.94098e-06,-0.000830005,-1.26316e-06,-1.13635e-05,-0.00342858,-0.00139581,0.0631474,0.870766,0.147232,0.76715,1616528495661080276
54.2383,0.00718197,0.423999,2.2345e-05,-0.00343941,-0.00139549,-2.33867e-05,0.0241325,1.49359,-0.00404832,-0.1708,0,0.5343,362022,4.43646e+06,2457.91,-0.180255,-0.0656217,0.192393,-5.74639e-06,-0.000828413,-8.43123e-07,-1.13363e-05,-0.00343944,-0.00139582,0.0631539,0.870738,0.147232,0.76715,1616528495671115671
54.2357,0.00720931,0.424109,2.23167e-05,-0.00345166,-0.0013955,-2.35572e-05,0.0240815,1.49357,-0.00404771,-0.1708,0,0.5343,362022,4.43646e+06,2457.93,-0.179688,-0.0656755,0.192981,-4.60982e-06,-0.000826384,-3.84102e-07,-1.12936e-05,-0.00345169,-0.00139583,0.0631608,0.870709,0.147232,0.76715,1616528495681096953
54.2334,0.00722437,0.424211,2.22938e-05,-0.00346296,-0.0013955,-2.37109e-05,0.0240341,1.49355,-0.00404702,-0.1708,0,0.5343,362023,4.43646e+06,2457.94,-0.17911,-0.0657324,0.193578,-5.24867e-06,-0.00082433,5.21008e-07,-1.12502e-05,-0.00346299,-0.00139582,0.0631677,0.870679,0.147232,0.76715,1616528495691107872
54.2334,0.00722437,0.424211,2.22938e-05,-0.00346296,-0.0013955,-2.37109e-05,0.0240341,1.49355,-0.0040464,-0.1708,0,0.5343,362023,4.43646e+06,2457.94,-0.17911,-0.0657324,0.193578,-5.24867e-06,-0.00082433,5.21008e-07,-1.12502e-05,-0.00346299,-0.00139582,0.0631677,0.870679,0.147232,0.76715,1616528495701105652
54.2305,0.00724515,0.424331,2.23079e-05,-0.00347649,-0.00139552,-2.38953e-05,0.0239769,1.49353,-0.00404633,-0.1708,0,0.5343,362024,4.43646e+06,2457.96,-0.178496,-0.065785,0.19421,-1.74253e-06,-0.000821639,-1.218e-06,-1.11568e-05,-0.00347652,-0.00139584,0.0631747,0.870648,0.147232,0.76715,1616528495711106322
54.2286,0.00726546,0.424414,2.23005e-05,-0.00348567,-0.00139553,-2.40192e-05,0.0239379,1.49351,-0.00404559,-0.1708,0,0.5343,362025,4.43646e+06,2457.97,-0.177933,-0.0658398,0.19479,-1.27406e-06,-0.000819863,-9.19166e-07,-1.11099e-05,-0.00348571,-0.00139585,0.0631821,0.870619,0.147232,0.76715,1616528495721074637
54.2286,0.00726546,0.424414,2.23005e-05,-0.00348567,-0.00139553,-2.40192e-05,0.0239379,1.49351,-0.00404507,-0.1708,0,0.5343,362025,4.43646e+06,2457.97,-0.177933,-0.0658398,0.19479,-1.27406e-06,-0.000819863,-9.19166e-07,-1.11099e-05,-0.00348571,-0.00139585,0.0631821,0.870619,0.147232,0.76715,1616528495731111859
54.2263,0.00728356,0.424515,2.22909e-05,-0.00349685,-0.00139554,-2.41719e-05,0.0238902,1.49349,-0.004045,-0.1708,0,0.5343,362025,4.43646e+06,2457.99,-0.177425,-0.0658872,0.195312,-2.14101e-06,-0.000818166,-6.0614e-07,-1.10532e-05,-0.00349689,-0.00139585,0.0631873,0.870594,0.147232,0.76715,1616528495741113739
54.2243,0.00728785,0.424598,2.23046e-05,-0.0035061,-0.00139555,-2.42939e-05,0.0238505,1.49348,-0.00404438,-0.1708,0,0.5343,362026,4.43646e+06,2458,-0.176914,-0.0659347,0.195826,4.12362e-08,-0.000816322,-7.80219e-07,-1.09841e-05,-0.00350613,-0.00139586,0.0631943,0.870568,0.147232,0.76715,1616528495751108260
54.2224,0.00731804,0.424683,2.23268e-05,-0.0035156,-0.00139557,-2.44225e-05,0.0238096,1.49346,-0.00404387,-0.1708,0,0.5343,362027,4.43646e+06,2458.02,-0.176444,-0.0659767,0.196296,-7.20467e-07,-0.000814855,-1.3128e-06,-1.09055e-05,-0.00351563,-0.00139588,0.0631994,0.870544,0.147232,0.76715,1616528495761084988
54.2204,0.00732787,0.424768,2.23171e-05,-0.00352506,-0.00139559,-2.45491e-05,0.0237686,1.49344,-0.00404333,-0.1708,0,0.5343,362027,4.43646e+06,2458.03,-0.175966,-0.0660201,0.196786,-7.72167e-07,-0.000813451,-1.87698e-06,-1.08583e-05,-0.0035251,-0.0013959,0.0632048,0.87052,0.147232,0.76715,1616528495771139756
54.2181,0.0073443,0.424868,2.23159e-05,-0.00353632,-0.00139561,-2.4701e-05,0.0237196,1.49342,-0.0040428,-0.1708,0,0.5343,362028,4.43646e+06,2458.04,-0.17544,-0.0660688,0.197307,-1.43049e-06,-0.000811025,-1.33039e-06,-1.07916e-05,-0.00353636,-0.00139592,0.0632101,0.870494,0.147232,0.76715,1616528495781110656
54.2181,0.0073443,0.424868,2.23159e-05,-0.00353632,-0.00139561,-2.4701e-05,0.0237196,1.49342,-0.00404218,-0.1708,0,0.5343,362028,4.43646e+06,2458.04,-0.17544,-0.0660688,0.197307,-1.43049e-06,-0.000811025,-1.33039e-06,-1.07916e-05,-0.00353636,-0.00139592,0.0632101,0.870494,0.147232,0.76715,1616528495791144604
54.2155,0.00736827,0.424976,2.235e-05,-0.00354856,-0.00139565,-2.48584e-05,0.023666,1.4934,-0.00404211,-0.1708,0,0.5343,362029,4.43646e+06,2458.06,-0.174842,-0.0661211,0.197907,-1.30708e-06,-0.000807954,-2.31202e-06,-1.06834e-05,-0.00354859,-0.00139595,0.063217,0.870464,0.147232,0.76715,1616528495801110636
54.2155,0.00736827,0.424976,2.235e-05,-0.00354856,-0.00139565,-2.48584e-05,0.023666,1.4934,-0.00404146,-0.1708,0,0.5343,362029,4.43646e+06,2458.06,-0.174842,-0.0661211,0.197907,-1.30708e-06,-0.000807954,-2.31202e-06,-1.06834e-05,-0.00354859,-0.00139595,0.063217,0.870464,0.147232,0.76715,1616528495811118520
54.2117,0.00740588,0.425132,2.23634e-05,-0.00356669,-0.00139571,-2.50987e-05,0.0235857,1.49337,-0.00404139,-0.1708,0,0.5343,362030,4.43646e+06,2458.08,-0.174062,-0.0661875,0.198679,-2.83723e-06,-0.000803604,-3.33232e-06,-1.05596e-05,-0.00356673,-0.00139601,0.0632241,0.870425,0.147232,0.76715,1616528495821142478
54.2098,0.0074281,0.425216,2.23408e-05,-0.00357609,-0.00139573,-2.52216e-05,0.0235438,1.49335,-0.00404045,-0.1708,0,0.5343,362031,4.43646e+06,2458.1,-0.173356,-0.0662623,0.199391,-4.23012e-06,-0.000800533,-5.66448e-07,-1.05238e-05,-0.00357613,-0.00139603,0.0632336,0.870389,0.147233,0.76715,1616528495831139222
54.2098,0.0074281,0.425216,2.23408e-05,-0.00357609,-0.00139573,-2.52216e-05,0.0235438,1.49335,-0.00403993,-0.1708,0,0.5343,362031,4.43646e+06,2458.1,-0.173356,-0.0662623,0.199391,-4.23012e-06,-0.000800533,-5.66448e-07,-1.05238e-05,-0.00357613,-0.00139603,0.0632336,0.870389,0.147233,0.76715,1616528495841108067
54.2073,0.00745879,0.425324,2.23112e-05,-0.00358825,-0.00139574,-2.53818e-05,0.0234892,1.49333,-0.00403986,-0.1708,0,0.5343,362031,4.43646e+06,2458.11,-0.172795,-0.0663093,0.199941,-2.67503e-06,-0.000797949,-1.6954e-06,-1.04776e-05,-0.00358829,-0.00139604,0.0632396,0.870362,0.147233,0.76715,1616528495851106955
54.2073,0.00745879,0.425324,2.23112e-05,-0.00358825,-0.00139574,-2.53818e-05,0.0234892,1.49333,-0.0040392,-0.1708,0,0.5343,362031,4.43646e+06,2458.11,-0.172795,-0.0663093,0.199941,-2.67503e-06,-0.000797949,-1.6954e-06,-1.04776e-05,-0.00358829,-0.00139604,0.0632396,0.870362,0.147233,0.76715,1616528495861110174
54.2038,0.00747913,0.425468,2.22966e-05,-0.00360486,-0.00139575,-2.55979e-05,0.023414,1.4933,-0.00403913,-0.1708,0,0.5343,362033,4.43646e+06,2458.14,-0.172042,-0.0663779,0.200677,-2.22016e-06,-0.000793404,-7.79358e-07,-1.03872e-05,-0.0036049,-0.00139604,0.063247,0.870324,0.147233,0.76715,1616528495871074504
54.2038,0.00747913,0.425468,2.22966e-05,-0.00360486,-0.00139575,-2.55979e-05,0.023414,1.4933,-0.00403827,-0.1708,0,0.5343,362033,4.43646e+06,2458.14,-0.172042,-0.0663779,0.200677,-2.22016e-06,-0.000793404,-7.79358e-07,-1.03872e-05,-0.0036049,-0.00139604,0.063247,0.870324,0.147233,0.76715,1616528495881075979
54.1997,0.00750895,0.425635,2.23016e-05,-0.00362432,-0.00139579,-2.58531e-05,0.0233247,1.49327,-0.0040382,-0.1708,0,0.5343,362034,4.43646e+06,2458.16,-0.17109,-0.0664596,0.201606,-4.16049e-06,-0.000787627,-2.24701e-06,-1.02586e-05,-0.00362435,-0.00139608,0.0632562,0.870277,0.147233,0.76715,1616528495891120639
54.1988,0.00751838,0.425674,2.22994e-05,-0.00362863,-0.0013958,-2.5909e-05,0.0233048,1.49326,-0.0040372,-0.1708,0,0.5343,362034,4.43646e+06,2458.17,-0.17058,-0.0665108,0.202105,-4.00961e-07,-0.000784436,-1.7915e-06,-1.02332e-05,-0.00362867,-0.00139609,0.0632663,0.870252,0.147233,0.76715,1616528495901103705
54.1979,0.00752779,0.425712,2.2275e-05,-0.00363296,-0.00139581,-2.59649e-05,0.0232848,1.49325,-0.00403692,-0.1708,0,0.5343,362034,4.43646e+06,2458.18,-0.170349,-0.0665329,0.202335,-4.42585e-06,-0.000785226,-1.16158e-06,-1.02298e-05,-0.00363299,-0.00139609,0.0632663,0.870241,0.147233,0.76715,1616528495911102948
54.1961,0.007535,0.425792,2.22615e-05,-0.00364186,-0.00139582,-2.60785e-05,0.0232434,1.49324,-0.00403664,-0.1708,0,0.5343,362035,4.43646e+06,2458.19,-0.169881,-0.066574,0.202773,3.37172e-07,-0.000783287,-1.47389e-06,-1.01859e-05,-0.00364189,-0.00139611,0.063272,0.870219,0.147233,0.76715,1616528495921109712
54.194,0.00755707,0.42588,2.22623e-05,-0.00365179,-0.00139585,-2.62079e-05,0.0231971,1.49322,-0.00403615,-0.1708,0,0.5343,362036,4.43646e+06,2458.2,-0.169374,-0.0666184,0.20325,-2.37733e-06,-0.00078163,-1.50711e-06,-1.01208e-05,-0.00365183,-0.00139613,0.0632768,0.870195,0.147233,0.76715,1616528495931106833
54.1916,0.00756346,0.425981,2.22774e-05,-0.00366322,-0.00139589,-2.63579e-05,0.0231434,1.4932,-0.00403561,-0.1708,0,0.5343,362037,4.43646e+06,2458.22,-0.168798,-0.0666653,0.203801,6.54259e-08,-0.000779079,-3.17079e-06,-1.00317e-05,-0.00366326,-0.00139616,0.0632823,0.870168,0.147233,0.76715,1616528495941060806
54.1916,0.00756346,0.425981,2.22774e-05,-0.00366322,-0.00139589,-2.63579e-05,0.0231434,1.4932,-0.00403499,-0.1708,0,0.5343,362037,4.43646e+06,2458.22,-0.168798,-0.0666653,0.203801,6.54259e-08,-0.000779079,-3.17079e-06,-1.00317e-05,-0.00366326,-0.00139616,0.0632823,0.870168,0.147233,0.76715,1616528495951118472
54.1893,0.00758678,0.42608,2.2319e-05,-0.00367436,-0.00139595,-2.65032e-05,0.0230908,1.49318,-0.00403491,-0.1708,0,0.5343,362037,4.43646e+06,2458.23,-0.168186,-0.0667169,0.204374,9.41106e-07,-0.000776036,-4.51402e-06,-9.91806e-06,-0.0036744,-0.00139623,0.0632893,0.870139,0.147233,0.76715,1616528495961111424
54.1871,0.00761392,0.426172,2.23078e-05,-0.00368482,-0.001396,-2.66382e-05,0.023041,1.49316,-0.00403431,-0.1708,0,0.5343,362038,4.43646e+06,2458.25,-0.1676,-0.0667712,0.204924,-1.57652e-06,-0.000773957,-3.53403e-06,-9.8608e-06,-0.00368486,-0.00139627,0.0632953,0.870111,0.147233,0.76715,1616528495971107942
54.1861,0.00761474,0.426218,2.23043e-05,-0.00368998,-0.00139601,-2.67044e-05,0.0230164,1.49315,-0.00403374,-0.1708,0,0.5343,362038,4.43646e+06,2458.25,-0.167315,-0.0668005,0.205189,-5.27348e-07,-0.000773,-1.66608e-06,-9.83016e-06,-0.00369002,-0.00139628,0.063301,0.870098,0.147233,0.76715,1616528495981114622
54.185,0.00762305,0.426263,2.22878e-05,-0.00369514,-0.00139603,-2.67696e-05,0.0229917,1.49314,-0.00403342,-0.1708,0,0.5343,362039,4.43646e+06,2458.26,-0.167032,-0.0668221,0.205455,-2.47507e-06,-0.000771548,-3.1397e-06,-9.8127e-06,-0.00369517,-0.0013963,0.063301,0.870085,0.147233,0.76715,1616528495991111687
54.185,0.00762305,0.426263,2.22878e-05,-0.00369514,-0.00139603,-2.67696e-05,0.0229917,1.49314,-0.00403311,-0.1708,0,0.5343,362039,4.43646e+06,2458.26,-0.167032,-0.0668221,0.205455,-2.47507e-06,-0.000771548,-3.1397e-06,-9.8127e-06,-0.00369517,-0.0013963,0.063301,0.870085,0.147233,0.76715,1616528496001109897
54.1802,0.00766263,0.426458,2.22661e-05,-0.00371832,-0.00139615,-2.70629e-05,0.0228796,1.4931,-0.00403303,-0.1708,0,0.5343,362040,4.43646e+06,2458.29,-0.166102,-0.0668971,0.206316,-7.52614e-06,-0.000764651,-3.56168e-06,-9.68052e-06,-0.00371836,-0.00139642,0.0633081,0.87004,0.147233,0.76715,1616528496011078328
54.1802,0.00766263,0.426458,2.22661e-05,-0.00371832,-0.00139615,-2.70629e-05,0.0228796,1.4931,-0.00403189,-0.1708,0,0.5343,362040,4.43646e+06,2458.29,-0.166102,-0.0668971,0.206316,-7.52614e-06,-0.000764651,-3.56168e-06,-9.68052e-06,-0.00371836,-0.00139642,0.0633081,0.87004,0.147233,0.76715,1616528496021139865
54.1773,0.0076812,0.42658,2.22765e-05,-0.00373219,-0.00139624,-2.7239e-05,0.0228115,1.49308,-0.00403181,-0.1708,0,0.5343,362041,4.43646e+06,2458.31,-0.165075,-0.0669873,0.207281,-1.4995e-06,-0.000759039,-5.31688e-06,-9.57699e-06,-0.00373223,-0.0013965,0.0633204,0.869992,0.147234,0.76715,1616528496031106935
54.1755,0.00769212,0.426656,2.22729e-05,-0.00374067,-0.00139629,-2.73489e-05,0.0227696,1.49306,-0.00403109,-0.1708,0,0.5343,362042,4.43646e+06,2458.32,-0.16445,-0.0670457,0.207858,-3.68342e-06,-0.000757375,-4.69041e-06,-9.52338e-06,-0.00374071,-0.00139655,0.0633276,0.869963,0.147234,0.76715,1616528496041140301
54.1735,0.00771904,0.426741,2.22839e-05,-0.00375022,-0.00139636,-2.7469e-05,0.0227223,1.49304,-0.00403062,-0.1708,0,0.5343,362043,4.43646e+06,2458.34,-0.163942,-0.0670895,0.208312,-1.91779e-06,-0.000755641,-4.53937e-06,-9.44766e-06,-0.00375026,-0.00139661,0.0633324,0.86994,0.147234,0.76715,1616528496051034570
54.1718,0.00773575,0.426816,2.2257e-05,-0.00375868,-0.00139639,-2.7577e-05,0.0226802,1.49303,-0.0040301,-0.1708,0,0.5343,362043,4.43646e+06,2458.35,-0.163432,-0.067137,0.208772,-3.88007e-06,-0.000753802,-3.22694e-06,-9.4165e-06,-0.00375872,-0.00139665,0.0633376,0.869918,0.147234,0.76715,1616528496061124605
54.1718,0.00773575,0.426816,2.2257e-05,-0.00375868,-0.00139639,-2.7577e-05,0.0226802,1.49303,-0.00402963,-0.1708,0,0.5343,362043,4.43646e+06,2458.35,-0.163432,-0.067137,0.208772,-3.88007e-06,-0.000753802,-3.22694e-06,-9.4165e-06,-0.00375872,-0.00139665,0.0633376,0.869918,0.147234,0.76715,1616528496071111408
54.1696,0.00774327,0.426909,2.22565e-05,-0.00376917,-0.00139645,-2.77065e-05,0.0226277,1.49301,-0.00402955,-0.1708,0,0.5343,362044,4.43646e+06,2458.36,-0.162892,-0.0671786,0.209255,-4.12729e-07,-0.000751848,-4.96502e-06,-9.34494e-06,-0.00376921,-0.0013967,0.0633432,0.869893,0.147234,0.76715,1616528496081077461
54.1674,0.0077563,0.427003,2.22742e-05,-0.00377979,-0.00139653,-2.78397e-05,0.0225742,1.49299,-0.004029,-0.1708,0,0.5343,362045,4.43646e+06,2458.38,-0.162289,-0.0672281,0.209786,1.60821e-07,-0.000749184,-5.95132e-06,-9.25423e-06,-0.00377983,-0.00139678,0.0633487,0.869866,0.147234,0.76715,1616528496091111867
54.1653,0.00776794,0.427094,2.22733e-05,-0.00379003,-0.00139661,-2.79645e-05,0.0225223,1.49297,-0.00402844,-0.1708,0,0.5343,362046,4.43646e+06,2458.39,-0.161692,-0.0672785,0.210316,-3.24412e-06,-0.000746873,-6.30591e-06,-9.18456e-06,-0.00379007,-0.00139686,0.0633543,0.86984,0.147234,0.76715,1616528496101111262
54.1653,0.00776794,0.427094,2.22733e-05,-0.00379003,-0.00139661,-2.79645e-05,0.0225223,1.49297,-0.0040279,-0.1708,0,0.5343,362046,4.43646e+06,2458.39,-0.161692,-0.0672785,0.210316,-3.24412e-06,-0.000746873,-6.30591e-06,-9.18456e-06,-0.00379007,-0.00139686,0.0633543,0.86984,0.147234,0.76715,1616528496111109708
54.1635,0.00777768,0.427169,2.22725e-05,-0.00379845,-0.00139669,-2.80669e-05,0.0224794,1.49295,-0.00402782,-0.1708,0,0.5343,362046,4.43646e+06,2458.4,-0.161154,-0.0673218,0.210795,-3.72401e-06,-0.000744967,-7.79177e-06,-9.12728e-06,-0.00379849,-0.00139694,0.0633596,0.869816,0.147235,0.76715,1616528496121112159
54.162,0.00779249,0.427237,2.22371e-05,-0.00380608,-0.00139677,-2.81591e-05,0.0224404,1.49294,-0.00402737,-0.1708,0,0.5343,362047,4.43646e+06,2458.42,-0.160691,-0.0673631,0.211197,-6.14485e-06,-0.000743542,-7.19083e-06,-9.1099e-06,-0.00380612,-0.00139702,0.0633605,0.869796,0.147235,0.76715,1616528496131079370
54.16,0.00779643,0.427318,2.22608e-05,-0.00381532,-0.00139688,-2.82746e-05,0.0223929,1.49292,-0.00402695,-0.1708,0,0.5343,362047,4.43646e+06,2458.43,-0.160199,-0.0673981,0.211626,8.0079e-07,-0.000741451,-9.85454e-06,-9.02235e-06,-0.00381536,-0.00139713,0.0633692,0.869774,0.147235,0.76715,1616528496141094640
54.16,0.00779643,0.427318,2.22608e-05,-0.00381532,-0.00139688,-2.82746e-05,0.0223929,1.49292,-0.00402645,-0.1708,0,0.5343,362047,4.43646e+06,2458.43,-0.160199,-0.0673981,0.211626,8.0079e-07,-0.000741451,-9.85454e-06,-9.02235e-06,-0.00381536,-0.00139713,0.0633692,0.869774,0.147235,0.76715,1616528496151080170
54.1557,0.00783647,0.427497,2.22772e-05,-0.0038365,-0.00139717,-2.85298e-05,0.022283,1.49288,-0.00402636,-0.1708,0,0.5343,362049,4.43646e+06,2458.46,-0.159303,-0.0674695,0.21241,-4.92779e-06,-0.000735437,-9.27557e-06,-8.85861e-06,-0.00383654,-0.00139741,0.063375,0.869734,0.147235,0.76715,1616528496161104570
54.1539,0.00785138,0.427573,2.22917e-05,-0.00384513,-0.00139728,-2.86331e-05,0.0222376,1.49286,-0.00402536,-0.1708,0,0.5343,362050,4.43646e+06,2458.47,-0.158432,-0.0675505,0.213178,-4.53602e-07,-0.000731406,-8.84845e-06,-8.78312e-06,-0.00384517,-0.00139751,0.0633851,0.869695,0.147236,0.76715,1616528496171101944
54.1523,0.00786435,0.427642,2.22691e-05,-0.00385277,-0.00139737,-2.87244e-05,0.0221973,1.49285,-0.0040249,-0.1708,0,0.5343,362050,4.43646e+06,2458.48,-0.157949,-0.0675902,0.213595,-5.2555e-06,-0.000730052,-9.3426e-06,-8.75146e-06,-0.00385281,-0.00139761,0.0633897,0.869674,0.147236,0.76715,1616528496181079818
54.1523,0.00786435,0.427642,2.22691e-05,-0.00385277,-0.00139737,-2.87244e-05,0.0221973,1.49285,-0.00402449,-0.1708,0,0.5343,362050,4.43646e+06,2458.48,-0.157949,-0.0675902,0.213595,-7.27596e-07,-0.000729375,-8.88719e-06,-8.75146e-06,-0.00385281,-0.00139761,0.0633939,0.869665,0.147236,0.76715,1616528496191088028
54.1504,0.0078794,0.427721,2.22432e-05,-0.00386179,-0.00139749,-2.88334e-05,0.0221495,1.49283,-0.0040244,-0.1708,0,0.5343,362051,4.43646e+06,2458.49,-0.157452,-0.0676305,0.214014,-3.45796e-06,-0.000728285,-9.62987e-06,-8.71311e-06,-0.00386183,-0.00139772,0.0633939,0.869653,0.147236,0.76715,1616528496201076326
54.1504,0.0078794,0.427721,2.22432e-05,-0.00386179,-0.00139749,-2.88334e-05,0.0221495,1.49283,-0.00402392,-0.1708,0,0.5343,362051,4.43646e+06,2458.49,-0.157452,-0.0676305,0.214014,-3.45796e-06,-0.000728285,-9.62987e-06,-8.71311e-06,-0.00386183,-0.00139772,0.0633939,0.869653,0.147236,0.76715,1616528496211110450
54.1447,0.00793082,0.427947,2.22564e-05,-0.00388935,-0.00139791,-2.9163e-05,0.0220015,1.49278,-0.00402384,-0.1708,0,0.5343,362053,4.43646e+06,2458.53,-0.156341,-0.0677094,0.214967,-5.56644e-06,-0.000718341,-1.15e-05,-8.50234e-06,-0.00388939,-0.00139814,0.0634003,0.869604,0.147237,0.76715,1616528496221117524
54.1429,0.0079447,0.428024,2.21931e-05,-0.00389791,-0.00139802,-2.92664e-05,0.0219548,1.49276,-0.00402256,-0.1708,0,0.5343,362054,4.43646e+06,2458.54,-0.155257,-0.0678157,0.215908,-6.09769e-06,-0.000713598,-9.05993e-06,-8.50257e-06,-0.00389795,-0.00139824,0.0634133,0.869556,0.147237,0.76715,1616528496231111700
54.1429,0.0079447,0.428024,2.21931e-05,-0.00389791,-0.00139802,-2.92664e-05,0.0219548,1.49276,-0.0040221,-0.1708,0,0.5343,362054,4.43646e+06,2458.54,-0.155257,-0.0678157,0.215908,-6.09769e-06,-0.000713598,-9.05993e-06,-8.50257e-06,-0.00389795,-0.00139824,0.0634133,0.869556,0.147237,0.76715,1616528496241082301
54.1413,0.00796057,0.428097,2.21362e-05,-0.00390603,-0.00139812,-2.93642e-05,0.0219103,1.49275,-0.00402201,-0.1708,0,0.5343,362054,4.43646e+06,2458.55,-0.154745,-0.0678599,0.216328,-6.63929e-06,-0.000712488,-8.27884e-06,-8.49926e-06,-0.00390607,-0.00139834,0.063418,0.869535,0.147238,0.76715,1616528496251109961
54.1413,0.00796057,0.428097,2.21362e-05,-0.00390603,-0.00139812,-2.93642e-05,0.0219103,1.49275,-0.00402157,-0.1708,0,0.5343,362054,4.43646e+06,2458.55,-0.154745,-0.0678599,0.216328,-6.63929e-06,-0.000712488,-8.27884e-06,-8.49926e-06,-0.00390607,-0.00139834,0.063418,0.869535,0.147238,0.76715,1616528496261094273
54.1383,0.00799247,0.42822,2.23951e-05,-0.00392012,-0.00139829,-2.953e-05,0.0218328,1.49272,-0.00402149,-0.1708,0,0.5343,362055,4.43646e+06,2458.57,-0.154057,-0.0679111,0.216847,1.28971e-05,-0.000711375,-8.73776e-06,-8.13571e-06,-0.00392016,-0.00139851,0.0634232,0.869506,0.147238,0.76715,1616528496271101050
54.1368,0.00800506,0.428286,2.24789e-05,-0.00392753,-0.00139836,-2.96128e-05,0.0217917,1.4927,-0.0040208,-0.1708,0,0.5343,362056,4.43646e+06,2458.58,-0.153397,-0.0679758,0.217393,1.0891e-05,-0.000708694,-5.78344e-06,-7.99591e-06,-0.00392757,-0.00139857,0.0634307,0.869479,0.147238,0.76715,1616528496281144448
54.1353,0.00801135,0.428349,2.25867e-05,-0.00393465,-0.00139844,-2.9692e-05,0.0217521,1.49269,-0.00402041,-0.1708,0,0.5343,362056,4.43646e+06,2458.59,-0.152946,-0.068007,0.217762,1.17603e-05,-0.000707122,-8.41104e-06,-7.83452e-06,-0.00393469,-0.00139865,0.0634345,0.86946,0.147238,0.76715,1616528496291110373
54.1337,0.00803249,0.428421,2.26971e-05,-0.00394278,-0.00139853,-2.97805e-05,0.0217067,1.49267,-0.00402004,-0.1708,0,0.5343,362057,4.43646e+06,2458.61,-0.15247,-0.0680455,0.218147,7.3871e-06,-0.000705413,-8.29923e-06,-7.66277e-06,-0.00394282,-0.00139875,0.063438,0.869441,0.147239,0.76715,1616528496301114983
54.1316,0.00803835,0.42851,2.27934e-05,-0.00395293,-0.00139865,-2.98876e-05,0.0216498,1.49265,-0.00401963,-0.1708,0,0.5343,362058,4.43646e+06,2458.62,-0.151898,-0.0680903,0.218608,5.65423e-06,-0.000703384,-8.60092e-06,-7.48917e-06,-0.00395298,-0.00139886,0.063442,0.869417,0.147239,0.76715,1616528496311108075
54.1301,0.00804877,0.428575,2.28557e-05,-0.00396023,-0.00139875,-2.99648e-05,0.0216086,1.49264,-0.00401916,-0.1708,0,0.5343,362058,4.43646e+06,2458.63,-0.151351,-0.0681325,0.21905,6.56372e-06,-0.000701803,-1.04019e-05,-7.37151e-06,-0.00396027,-0.00139896,0.0634466,0.869395,0.147239,0.76715,1616528496321117167
54.1286,0.00806135,0.428638,2.28891e-05,-0.00396742,-0.00139885,-3.00384e-05,0.0215679,1.49262,-0.00401879,-0.1708,0,0.5343,362059,4.43646e+06,2458.64,-0.150895,-0.0681714,0.219418,6.97584e-07,-0.000700189,-9.50658e-06,-7.28311e-06,-0.00396747,-0.00139905,0.0634502,0.869376,0.147239,0.76715,1616528496331083481
54.1271,0.00806678,0.428704,2.29008e-05,-0.0039748,-0.00139894,-3.01157e-05,0.0215259,1.49261,-0.00401843,-0.1708,0,0.5343,362059,4.43646e+06,2458.65,-0.150434,-0.0682078,0.219782,4.22392e-08,-0.000698072,-9.74959e-06,-7.21486e-06,-0.00397484,-0.00139915,0.0634538,0.869358,0.14724,0.76715,1616528496341078183
54.1255,0.0080732,0.428769,2.29324e-05,-0.00398228,-0.00139906,-3.0193e-05,0.0214832,1.49259,-0.00401806,-0.1708,0,0.5343,362060,4.43646e+06,2458.66,-0.149961,-0.0682433,0.22016,8.38212e-07,-0.000696443,-1.09764e-05,-7.12603e-06,-0.00398232,-0.00139926,0.0634574,0.869339,0.14724,0.76715,1616528496351099317
54.1255,0.0080732,0.428769,2.29324e-05,-0.00398228,-0.00139906,-3.0193e-05,0.0214832,1.49259,-0.00401769,-0.1708,0,0.5343,362060,4.43646e+06,2458.66,-0.149961,-0.0682433,0.22016,8.38212e-07,-0.000696443,-1.09764e-05,-7.12603e-06,-0.00398232,-0.00139926,0.0634574,0.869339,0.14724,0.76715,1616528496361077271
54.1234,0.00809951,0.428859,2.29372e-05,-0.00399251,-0.00139922,-3.02991e-05,0.0214245,1.49257,-0.0040176,-0.1708,0,0.5343,362061,4.43646e+06,2458.68,-0.149395,-0.06829,0.220606,-2.81592e-06,-0.000693942,-9.81116e-06,-7.0423e-06,-0.00399255,-0.00139942,0.063462,0.869316,0.14724,0.76715,1616528496371111661
54.1217,0.00812185,0.428932,2.29552e-05,-0.00400093,-0.00139935,-3.03839e-05,0.0213759,1.49256,-0.00401713,-0.1708,0,0.5343,362061,4.43646e+06,2458.69,-0.148799,-0.0683351,0.221079,-2.74824e-08,-0.00069174,-1.14207e-05,-6.95901e-06,-0.00400097,-0.00139955,0.0634668,0.869292,0.14724,0.76715,1616528496381109094
54.1217,0.00812185,0.428932,2.29552e-05,-0.00400093,-0.00139935,-3.03839e-05,0.0213759,1.49256,-0.00401674,-0.1708,0,0.5343,362061,4.43646e+06,2458.69,-0.148799,-0.0683351,0.221079,-2.74824e-08,-0.00069174,-1.14207e-05,-6.95901e-06,-0.00400097,-0.00139955,0.0634668,0.869292,0.14724,0.76715,1616528496391079671
54.1196,0.00813739,0.429022,2.2942e-05,-0.00401125,-0.00139949,-3.049e-05,0.0213159,1.49254,-0.00401664,-0.1708,0,0.5343,362062,4.43646e+06,2458.7,-0.148195,-0.0683859,0.221551,-1.87559e-06,-0.000689099,-9.81039e-06,-6.89124e-06,-0.00401129,-0.00139968,0.0634707,0.869267,0.147241,0.76715,1616528496401099050
54.1196,0.00813739,0.429022,2.2942e-05,-0.00401125,-0.00139949,-3.049e-05,0.0213159,1.49254,-0.00401617,-0.1708,0,0.5343,362062,4.43646e+06,2458.7,-0.148195,-0.0683859,0.221551,-1.87559e-06,-0.000689099,-9.81039e-06,-6.89124e-06,-0.00401129,-0.00139968,0.0634707,0.869267,0.147241,0.76715,1616528496411077601
54.1166,0.00817161,0.429146,2.28994e-05,-0.00402591,-0.0013997,-3.06372e-05,0.0212299,1.49251,-0.00401608,-0.1708,0,0.5343,362063,4.43646e+06,2458.72,-0.147383,-0.0684487,0.222183,-7.0165e-06,-0.000684384,-9.5491e-06,-6.818e-06,-0.00402595,-0.00139989,0.0634773,0.869235,0.147241,0.76715,1616528496421075568
54.115,0.00816794,0.429213,2.28726e-05,-0.00403345,-0.00140001,-3.07117e-05,0.0211854,1.49249,-0.00401546,-0.1708,0,0.5343,362064,4.43646e+06,2458.73,-0.146652,-0.0684727,0.222756,-9.3011e-07,-0.000681888,-4.79894e-05,-6.78885e-06,-0.0040335,-0.0014002,0.0634837,0.869206,0.147241,0.76715,1616528496431105114
54.115,0.00816794,0.429213,2.28726e-05,-0.00403345,-0.00140001,-3.07117e-05,0.0211854,1.49249,-0.0040151,-0.1708,0,0.5343,362064,4.43646e+06,2458.73,-0.146652,-0.0684727,0.222756,-9.3011e-07,-0.000681888,-4.79894e-05,-6.78885e-06,-0.0040335,-0.0014002,0.0634837,0.869206,0.147241,0.76715,1616528496441108748
54.1126,0.00817828,0.429317,2.28536e-05,-0.00404563,-0.00140086,-3.08309e-05,0.0211129,1.49247,-0.004015,-0.1708,0,0.5343,362065,4.43646e+06,2458.75,-0.146001,-0.0685196,0.223254,-4.45121e-06,-0.000678165,-4.73177e-05,-6.72426e-06,-0.00404567,-0.00140104,0.0634882,0.86918,0.147243,0.76715,1616528496451053072
54.1109,0.00820302,0.42939,2.28031e-05,-0.00405389,-0.00140144,-3.09137e-05,0.0210634,1.49245,-0.00401448,-0.1708,0,0.5343,362066,4.43646e+06,2458.76,-0.145328,-0.0685762,0.223767,-6.8241e-06,-0.000675356,-4.64978e-05,-6.71755e-06,-0.00405393,-0.00140162,0.0634935,0.869153,0.147245,0.76715,1616528496461088727
54.1109,0.00820302,0.42939,2.28031e-05,-0.00405389,-0.00140144,-3.09137e-05,0.0210634,1.49245,-0.00401409,-0.1708,0,0.5343,362066,4.43646e+06,2458.76,-0.145328,-0.0685762,0.223767,-6.8241e-06,-0.000675356,-4.64978e-05,-6.71755e-06,-0.00405393,-0.00140162,0.0634935,0.869153,0.147245,0.76715,1616528496471077468
54.1077,0.00822762,0.429521,2.27064e-05,-0.00406946,-0.00140252,-3.10692e-05,0.0209693,1.49242,-0.004014,-0.1708,0,0.5343,362067,4.43646e+06,2458.78,-0.144531,-0.0686321,0.224378,-6.82868e-06,-0.000670854,-4.72207e-05,-6.70511e-06,-0.00406951,-0.00140271,0.0634984,0.869122,0.147246,0.76715,1616528496481075872
54.1062,0.00823845,0.429585,2.26415e-05,-0.00407671,-0.00140302,-3.11419e-05,0.020925,1.4924,-0.00401335,-0.1708,0,0.5343,362068,4.43646e+06,2458.79,-0.143773,-0.0686998,0.224956,-5.62126e-06,-0.000667878,-4.56008e-05,-6.71825e-06,-0.00407676,-0.0014032,0.0635052,0.869092,0.147248,0.76715,1616528496491111958
54.1047,0.00825338,0.429651,2.25556e-05,-0.00408417,-0.00140352,-3.12173e-05,0.0208793,1.49239,-0.00401299,-0.1708,0,0.5343,362068,4.43646e+06,2458.81,-0.143276,-0.0687398,0.225324,-9.92239e-06,-0.000665709,-4.48444e-05,-6.75056e-06,-0.00408422,-0.0014037,0.0635088,0.869073,0.147249,0.76715,1616528496501077796
54.1032,0.00826195,0.429712,2.24842e-05,-0.00409116,-0.00140399,-3.1289e-05,0.0208363,1.49237,-0.00401263,-0.1708,0,0.5343,362069,4.43646e+06,2458.82,-0.142789,-0.0687774,0.225685,-6.64205e-06,-0.000664377,-4.50511e-05,-6.77137e-06,-0.0040912,-0.00140417,0.0635126,0.869055,0.14725,0.76715,1616528496511110200
54.1032,0.00826195,0.429712,2.24842e-05,-0.00409116,-0.00140399,-3.1289e-05,0.0208363,1.49237,-0.00401227,-0.1708,0,0.5343,362069,4.43646e+06,2458.82,-0.142789,-0.0687774,0.225685,-6.64205e-06,-0.000664377,-4.50511e-05,-6.77137e-06,-0.0040912,-0.00140417,0.0635126,0.869055,0.14725,0.76715,1616528496521177692
54.1015,0.00828081,0.429788,2.23998e-05,-0.00409988,-0.00140457,-3.13793e-05,0.0207824,1.49235,-0.00401218,-0.1708,0,0.5343,362069,4.43646e+06,2458.83,-0.142254,-0.0688201,0.226077,-8.29141e-06,-0.000661641,-4.39069e-05,-6.79208e-06,-0.00409993,-0.00140475,0.0635172,0.869034,0.147252,0.76715,1616528496531078904
54.0996,0.00830161,0.429867,2.23182e-05,-0.004109,-0.00140518,-3.14734e-05,0.0207256,1.49233,-0.00401176,-0.1708,0,0.5343,362070,4.43646e+06,2458.84,-0.141645,-0.0688666,0.226528,-7.92667e-06,-0.000658927,-4.38109e-05,-6.80655e-06,-0.00410904,-0.00140535,0.0635215,0.869011,0.147253,0.76715,1616528496541117154
54.0996,0.00830161,0.429867,2.23182e-05,-0.004109,-0.00140518,-3.14734e-05,0.0207256,1.49233,-0.00401133,-0.1708,0,0.5343,362070,4.43646e+06,2458.84,-0.141645,-0.0688666,0.226528,-7.92667e-06,-0.000658927,-4.38109e-05,-6.80655e-06,-0.00410904,-0.00140535,0.0635215,0.869011,0.147253,0.76715,1616528496551104024
54.0974,0.00833017,0.429958,2.22409e-05,-0.00411959,-0.00140587,-3.15832e-05,0.0206593,1.49231,-0.00401123,-0.1708,0,0.5343,362071,4.43646e+06,2458.86,-0.140967,-0.0689209,0.227024,-6.57105e-06,-0.000655996,-4.24007e-05,-6.80471e-06,-0.00411963,-0.00140604,0.0635269,0.868986,0.147254,0.76715,1616528496561111002
54.0957,0.00834607,0.430032,2.21482e-05,-0.00412809,-0.0014064,-3.16726e-05,0.0206056,1.49229,-0.00401074,-0.1708,0,0.5343,362072,4.43646e+06,2458.87,-0.140309,-0.0689761,0.22751,-6.99021e-06,-0.000653165,-4.0988e-05,-6.83296e-06,-0.00412813,-0.00140657,0.063532,0.868961,0.147256,0.76715,1616528496571079319
54.0941,0.00836759,0.430101,2.20366e-05,-0.00413601,-0.00140687,-3.17555e-05,0.0205553,1.49227,-0.00401033,-0.1708,0,0.5343,362072,4.43646e+06,2458.88,-0.139739,-0.0690262,0.227922,-1.09999e-05,-0.000650776,-3.81922e-05,-6.88356e-06,-0.00413605,-0.00140704,0.0635363,0.868939,0.147257,0.76715,1616528496581135042
54.0941,0.00836759,0.430101,2.20366e-05,-0.00413601,-0.00140687,-3.17555e-05,0.0205553,1.49227,-0.00400993,-0.1708,0,0.5343,362072,4.43646e+06,2458.88,-0.139739,-0.0690262,0.227922,-1.09999e-05,-0.000650776,-3.81922e-05,-6.88356e-06,-0.00413605,-0.00140704,0.0635363,0.868939,0.147257,0.76715,1616528496591059453
54.092,0.00839425,0.43019,2.19582e-05,-0.00414635,-0.00140749,-3.18663e-05,0.0204893,1.49225,-0.00400984,-0.1708,0,0.5343,362073,4.43646e+06,2458.89,-0.1391,-0.069073,0.228381,-7.84711e-06,-0.000647522,-3.84254e-05,-6.88154e-06,-0.00414639,-0.00140765,0.0635413,0.868916,0.147258,0.76715,1616528496601112622
54.0901,0.00840407,0.430268,2.18857e-05,-0.00415541,-0.00140801,-3.1965e-05,0.0204309,1.49223,-0.00400934,-0.1708,0,0.5343,362074,4.43646e+06,2458.91,-0.13842,-0.0691286,0.228873,-4.73676e-06,-0.000644576,-3.71459e-05,-6.8825e-06,-0.00415545,-0.00140817,0.0635464,0.86889,0.147259,0.76715,1616528496611080213
54.0885,0.0084231,0.430336,2.17914e-05,-0.00416324,-0.00140846,-3.20488e-05,0.0203802,1.49222,-0.00400889,-0.1708,0,0.5343,362075,4.43646e+06,2458.92,-0.137824,-0.0691777,0.229302,-9.12259e-06,-0.000642457,-3.59197e-05,-6.9145e-06,-0.00416329,-0.00140861,0.063551,0.868868,0.14726,0.76715,1616528496621077916
54.0885,0.0084231,0.430336,2.17914e-05,-0.00416324,-0.00140846,-3.20488e-05,0.0203802,1.49222,-0.00400849,-0.1708,0,0.5343,362075,4.43646e+06,2458.92,-0.137824,-0.0691777,0.229302,-9.12259e-06,-0.000642457,-3.59197e-05,-6.9145e-06,-0.00416329,-0.00140861,0.063551,0.868868,0.14726,0.76715,1616528496631079343
54.0866,0.00844383,0.430416,2.16998e-05,-0.00417257,-0.00140898,-3.21494e-05,0.0203194,1.49219,-0.0040084,-0.1708,0,0.5343,362075,4.43646e+06,2458.93,-0.137213,-0.0692227,0.229728,-7.69208e-06,-0.000639286,-3.58768e-05,-6.93117e-06,-0.00417262,-0.00140914,0.0635561,0.868846,0.147261,0.76715,1616528496641077199
54.0866,0.00844383,0.430416,2.16998e-05,-0.00417257,-0.00140898,-3.21494e-05,0.0203194,1.49219,-0.00400794,-0.1708,0,0.5343,362075,4.43646e+06,2458.93,-0.137213,-0.0692227,0.229728,-7.69208e-06,-0.000639286,-3.58768e-05,-6.93117e-06,-0.00417262,-0.00140914,0.0635561,0.868846,0.147261,0.76715,1616528496651110032
54.0839,0.00847904,0.430532,2.16047e-05,-0.00418626,-0.00140974,-3.22984e-05,0.0202294,1.49216,-0.00400784,-0.1708,0,0.5343,362077,4.43646e+06,2458.95,-0.136387,-0.0692843,0.230314,-7.03791e-06,-0.000635006,-3.48856e-05,-6.91471e-06,-0.00418631,-0.0014099,0.0635618,0.868816,0.147263,0.76715,1616528496661081626
54.0825,0.00849486,0.430592,2.15457e-05,-0.00419313,-0.00141009,-3.23738e-05,0.0201839,1.49215,-0.00400721,-0.1708,0,0.5343,362077,4.43646e+06,2458.96,-0.135653,-0.0693533,0.230836,-6.0271e-06,-0.000631725,-3.1113e-05,-6.9165e-06,-0.00419318,-0.00141024,0.0635683,0.868788,0.147264,0.76715,1616528496671112635
54.0811,0.00849398,0.43065,2.15009e-05,-0.00419977,-0.00141042,-3.24455e-05,0.0201397,1.49213,-0.00400684,-0.1708,0,0.5343,362078,4.43646e+06,2458.97,-0.135164,-0.0693886,0.231174,-7.88361e-06,-0.000630011,-3.17982e-05,-6.90577e-06,-0.00419981,-0.00141057,0.0635721,0.868771,0.147265,0.76715,1616528496681107602
54.0797,0.00851718,0.430712,2.14567e-05,-0.0042069,-0.0014108,-3.25237e-05,0.020092,1.49212,-0.00400649,-0.1708,0,0.5343,362078,4.43646e+06,2458.98,-0.134663,-0.0694249,0.23152,-5.2396e-06,-0.000627882,-3.22825e-05,-6.89009e-06,-0.00420695,-0.00141095,0.0635757,0.868753,0.147266,0.76715,1616528496691077394
54.0789,0.00852591,0.430743,2.14371e-05,-0.00421052,-0.00141098,-3.25637e-05,0.0200677,1.49211,-0.00400611,-0.1708,0,0.5343,362079,4.43646e+06,2458.99,-0.134403,-0.0694452,0.231698,-3.39561e-06,-0.000626882,-3.18421e-05,-6.87909e-06,-0.00421056,-0.00141113,0.0635795,0.868744,0.147266,0.76715,1616528496701081249
54.0782,0.00859307,0.430816,2.13625e-05,-0.00421732,-0.00141132,-3.26364e-05,0.0200218,1.49209,-0.00400587,-0.1708,0,0.5343,362079,4.43646e+06,2458.99,-0.133875,-0.0694871,0.232055,-6.83997e-06,-0.000625086,-3.10701e-05,-6.89579e-06,-0.00421737,-0.00141147,0.0635821,0.868725,0.147267,0.76715,1616528496711150757
54.0769,0.00854053,0.43083,2.13133e-05,-0.00422052,-0.00141148,-3.26708e-05,0.0200002,1.49209,-0.00400551,-0.1708,0,0.5343,362080,4.43646e+06,2459,-0.13364,-0.0695067,0.232219,-9.62156e-06,-0.000624411,-3.0117e-05,-6.91762e-06,-0.00422057,-0.00141162,0.0635821,0.868717,0.147267,0.76715,1616528496721080607
54.0752,0.00856607,0.430905,2.12809e-05,-0.00422918,-0.0014119,-3.27695e-05,0.0199414,1.49207,-0.00400528,-0.1708,0,0.5343,362080,4.43646e+06,2459.01,-0.133084,-0.069549,0.232598,-5.54767e-06,-0.00062145,-2.91336e-05,-6.87528e-06,-0.00422923,-0.00141204,0.063588,0.868697,0.147268,0.76715,1616528496731078090
54.0727,0.00858837,0.39731,0.000761026,-0.0314837,-0.00141319,-2.50909e-05,0.0196049,1.49205,-0.00400483,-0.690199,0,0,362081,4.43646e+06,2459.02,-0.199528,-0.0365677,-1.08914,0.0492181,-1.96804,-0.000777426,0.000733332,-0.0314837,-0.00141267,0.0630115,5.99984,0.14726,0.5,1616528496741099967
54.0727,0.00858837,0.39731,0.000761026,-0.0314837,-0.00141319,-2.50909e-05,0.0196049,1.49205,-0.0040324,-0.688905,0,0,362081,4.43646e+06,2459.02,-0.199528,-0.0365677,-1.08914,0.0492181,-1.96804,-0.000777426,0.000733332,-0.0314837,-0.00141267,0.0630115,5.99984,0.14726,0.5,1616528496751111030
54.0703,0.0086296,0.348799,0.00129795,-0.0564026,-0.00144602,-9.97905e-06,0.0189417,1.49203,-0.00403232,-0.688284,0,0,362082,4.43646e+06,2459.04,-0.211478,-0.0398749,-0.911366,0.0377273,-1.85846,-0.00295466,0.00127056,-0.0564026,-0.00144572,0.0618445,5.93646,0.147301,0.5,1616528496761109789
54.0674,0.00872491,0.275027,0.00177461,-0.083401,-0.0015055,1.45812e-05,0.0177887,1.49201,-0.0040867,-0.686336,0,0,362083,4.43646e+06,2459.05,-0.221628,-0.0445664,-0.702086,0.0298247,-1.77247,-0.00433402,0.0017478,-0.083401,-0.00150696,0.0605817,5.85777,0.147404,0.5,1616528496771102821
54.0648,0.00886063,0.195859,0.0020907,-0.105934,-0.00158465,4.11458e-05,0.0164479,1.49199,-0.00417516,-0.683403,0,0,362083,4.43646e+06,2459.06,-0.227321,-0.0492271,-0.439097,0.0222996,-1.66435,-0.00639008,0.00206456,-0.105934,-0.00158923,0.0591342,5.77502,0.147557,0.5,1616528496781108166
54.0648,0.00886063,0.195859,0.0020907,-0.105934,-0.00158465,4.11458e-05,0.0164479,1.49199,-0.00427091,-0.680089,0,0,362083,4.43646e+06,2459.06,-0.227321,-0.0492271,-0.439097,0.0222996,-1.66435,-0.00639008,0.00206456,-0.105934,-0.00158923,0.0591342,5.77502,0.147557,0.5,1616528496791105136
54.0618,0.00910635,0.094558,0.00234505,-0.129129,-0.00169809,7.43578e-05,0.0146334,1.49196,-0.00427104,-0.679457,0,0,362084,4.43646e+06,2459.08,-0.229167,-0.0540805,-0.141031,0.0161014,-1.55258,-0.0081701,0.00232006,-0.129129,-0.00170788,0.0577645,5.68261,0.14777,0.5,1616528496801118397
54.0618,0.00910635,0.094558,0.00234505,-0.129129,-0.00169809,7.43578e-05,0.0146334,1.49196,-0.00439082,-0.675187,0,0,362084,4.43646e+06,2459.08,-0.229167,-0.0540805,-0.141031,0.0161014,-1.55258,-0.0081701,0.00232006,-0.129129,-0.00170788,0.0577645,5.68261,0.14777,0.5,1616528496811112422
54.0549,0.00999867,-0.16329,0.00265967,-0.17238,-0.00199011,0.000152027,0.00973666,1.4919,-0.00439104,-0.674548,0,0,362086,4.43646e+06,2459.1,-0.223835,-0.0603011,0.417525,0.00858304,-1.37854,-0.0104115,0.00264004,-0.17238,-0.00201641,0.0561265,5.54965,0.148202,0.5,1616528496821077290
54.0522,0.0104319,-0.262038,0.00268089,-0.185737,-0.00212058,0.000181348,0.0077228,1.49188,-0.00467111,-0.664098,0,0,362086,4.43646e+06,2459.12,-0.210088,-0.0643552,0.981038,0.00178268,-1.19156,-0.0120039,0.00266425,-0.185736,-0.00215433,0.0531151,5.3636,0.148694,0.5,1616528496831104894
54.0522,0.0104319,-0.262038,0.00268089,-0.185737,-0.00212058,0.000181348,0.0077228,1.49188,-0.00477721,-0.659401,0,0,362086,4.43646e+06,2459.12,-0.210088,-0.0643552,0.981038,0.00178268,-1.19156,-0.0120039,0.00266425,-0.185736,-0.00215433,0.0531151,5.3636,0.148694,0.5,1616528496841106199
54.0492,0.0109714,-0.369728,0.00267669,-0.19859,-0.00226658,0.000212032,0.00547003,1.49185,-0.00477775,-0.658734,0,0,362087,4.43646e+06,2459.13,-0.199472,-0.0638583,1.29957,-0.000481939,-1.09496,-0.0130234,0.00266406,-0.198589,-0.00230872,0.0520332,5.26749,0.148999,0.5,1616528496851107232
54.0449,0.0118545,-0.520725,0.00263368,-0.214184,-0.00246588,0.000252659,0.00222451,1.49182,-0.00488885,-0.653552,0,0,362088,4.43646e+06,2459.14,-0.183265,-0.061624,1.69179,-0.00291081,-0.98641,-0.0130278,0.00262807,-0.214183,-0.00252,0.0509521,5.16724,0.149384,0.5,1616528496861122585
54.0411,0.0127381,-0.652245,0.00256548,-0.225813,-0.00264089,0.000286486,-0.000700643,1.49178,-0.00503587,-0.646371,0,0,362088,4.43646e+06,2459.15,-0.163219,-0.0573139,2.11743,-0.00516259,-0.866389,-0.0134054,0.00256738,-0.225812,-0.00270558,0.0495585,5.04297,0.149801,0.5,1616528496871104505
54.0411,0.0127381,-0.652245,0.00256548,-0.225813,-0.00264089,0.000286486,-0.000700643,1.49178,-0.0051585,-0.639821,0,0,362088,4.43646e+06,2459.15,-0.163219,-0.0573139,2.11743,-0.00516259,-0.866389,-0.0134054,0.00256738,-0.225812,-0.00270558,0.0495585,5.04297,0.149801,0.5,1616528496881094989
54.0411,0.0127381,-0.652245,0.00256548,-0.225813,-0.00264089,0.000286486,-0.000700643,1.49178,-0.00515936,-0.639121,0,0,362088,4.43646e+06,2459.15,-0.163219,-0.0573139,2.11743,-0.00516259,-0.866389,-0.0134054,0.00256738,-0.225812,-0.00270558,0.0495585,5.04297,0.149801,0.5,1616528496891106907
54.0311,0.0153353,-0.973111,0.00235765,-0.248507,-0.00305136,0.000359759,-0.00807412,1.49169,-0.00516022,-0.638419,0,0,362090,4.43646e+06,2459.18,-0.119057,-0.0378365,2.78792,-0.00671229,-0.7046,-0.0136021,0.00238301,-0.248506,-0.00314086,0.0485111,4.89021,0.150449,0.5,1616528496901076304
54.0275,0.0163385,-1.07996,0.00225145,-0.254026,-0.00319119,0.000383685,-0.010696,1.49166,-0.00542508,-0.622944,0,0,362091,4.43646e+06,2459.18,-0.0828401,-0.0255712,3.42164,-0.0100416,-0.516929,-0.0134217,0.00228663,-0.254025,-0.00328884,0.0460769,4.65613,0.151063,0.5,1616528496911101560
54.0229,0.0177071,-1.21283,0.00211016,-0.259789,-0.00336101,0.000411924,-0.0140363,1.49161,-0.00551237,-0.616957,0,0,362091,4.43646e+06,2459.19,-0.0554045,-0.0101952,3.7758,-0.0107535,-0.429071,-0.0130474,0.00215884,-0.259787,-0.00346837,0.0453783,4.55913,0.151407,0.5,1616528496921134295
54.0229,0.0177071,-1.21283,0.00211016,-0.259789,-0.00336101,0.000411924,-0.0140363,1.49161,-0.00561527,-0.60952,0,0,362091,4.43646e+06,2459.19,-0.0554045,-0.0101952,3.7758,-0.0107535,-0.429071,-0.0130474,0.00215884,-0.259787,-0.00346837,0.0453783,4.55913,0.151407,0.5,1616528496931093505
54.0179,0.0193084,-1.35411,0.00194702,-0.264522,-0.00353768,0.000440342,-0.0177049,1.49156,-0.0056165,-0.608769,0,0,362092,4.43646e+06,2459.2,-0.0221443,0.00974734,4.18603,-0.0112673,-0.321872,-0.0125587,0.00201173,-0.26452,-0.00365473,0.044554,4.43392,0.151792,0.5,1616528496941075090
54.0125,0.021057,-1.49669,0.00177303,-0.268026,-0.00370916,0.000467412,-0.0215397,1.49151,-0.00572012,-0.600664,0,0,362093,4.43646e+06,2459.21,0.013624,0.0332303,4.59499,-0.011832,-0.231598,-0.0116624,0.00185563,-0.268024,-0.00383533,0.0437539,4.31067,0.152181,0.5,1616528496951069358
54.0125,0.021057,-1.49669,0.00177303,-0.268026,-0.00370916,0.000467412,-0.0215397,1.49151,-0.00581898,-0.592211,0,0,362093,4.43646e+06,2459.21,0.013624,0.0332303,4.59499,-0.011832,-0.231598,-0.0116624,0.00185563,-0.268024,-0.00383533,0.0437539,4.31067,0.152181,0.5,1616528496961098809
54.0125,0.021057,-1.49669,0.00177303,-0.268026,-0.00370916,0.000467412,-0.0215397,1.49151,-0.00582038,-0.591424,0,0,362093,4.43646e+06,2459.21,0.013624,0.0332303,4.59499,-0.011832,-0.231598,-0.0116624,0.00185563,-0.268024,-0.00383533,0.0437539,4.31067,0.152181,0.5,1616528496971047454
53.9997,0.0256632,-1.81531,0.00138052,-0.272352,-0.0040552,0.000519359,-0.0305312,1.49137,-0.00582178,-0.590644,0,0,362095,4.43646e+06,2459.22,0.0900209,0.0928889,5.265,-0.0108676,-0.103041,-0.0100048,0.00150869,-0.27235,-0.00419861,0.0431591,4.15146,0.152767,0.5,1616528496981076289
53.9954,0.0273815,-1.91943,0.0012765,-0.271875,-0.00415934,0.000536119,-0.0337191,1.49132,-0.00601035,-0.571838,0,0,362095,4.43646e+06,2459.23,0.138329,0.128202,5.86471,-0.00671335,0.046324,-0.00871459,0.00142172,-0.271872,-0.00430755,0.0416167,3.89327,0.153252,0.5,1616528496991081024
53.9954,0.0273815,-1.91943,0.0012765,-0.271875,-0.00415934,0.000536119,-0.0337191,1.49132,-0.00607229,-0.564629,0,0,362095,4.43646e+06,2459.23,0.138329,0.128202,5.86471,-0.00671335,0.046324,-0.00871459,0.00142172,-0.271872,-0.00430755,0.0416167,3.89327,0.153252,0.5,1616528497001117347
53.9862,0.0313049,-2.13032,0.00110195,-0.268948,-0.00436065,0.000568884,-0.0405005,1.49121,-0.00607391,-0.563793,0,0,362097,4.43646e+06,2459.23,0.201853,0.185801,6.32096,-0.00686417,0.132849,-0.00773978,0.00128486,-0.268945,-0.00451736,0.0411613,3.77816,0.153597,0.5,1616528497011081514
53.9862,0.0313049,-2.13032,0.00110195,-0.268948,-0.00436065,0.000568884,-0.0405005,1.49121,-0.00619356,-0.549373,0,0,362097,4.43646e+06,2459.23,0.201853,0.185801,6.32096,-0.00686417,0.132849,-0.00773978,0.00128486,-0.268945,-0.00451736,0.0411613,3.77816,0.153597,0.5,1616528497021094295
53.9799,0.0343718,-2.27311,0.000955512,-0.264332,-0.00448069,0.000591161,-0.0454936,1.49112,-0.00619527,-0.548512,0,0,362098,4.43646e+06,2459.24,0.260493,0.239372,6.83159,-0.00779594,0.255337,-0.00599419,0.00116661,-0.264329,-0.00464176,0.0401713,3.57768,0.153954,0.5,1616528497031107885
53.9762,0.0363863,-2.35836,0.000857281,-0.260343,-0.00454146,0.000604535,-0.0486765,1.49107,-0.00627725,-0.537645,0,0,362098,4.43646e+06,2459.24,0.298712,0.276295,7.1576,-0.00792183,0.332107,-0.0047317,0.00108619,-0.26034,-0.00470441,0.0395249,3.44047,0.15415,0.5,1616528497041079187
53.9762,0.0363863,-2.35836,0.000857281,-0.260343,-0.00454146,0.000604535,-0.0486765,1.49107,-0.0063272,-0.530389,0,0,362098,4.43646e+06,2459.24,0.298712,0.276295,7.1576,-0.00792183,0.332107,-0.0047317,0.00108619,-0.26034,-0.00470441,0.0395249,3.44047,0.15415,0.5,1616528497051106373
53.9707,0.0396831,-2.482,0.000706468,-0.252905,-0.00461482,0.000623554,-0.0536202,1.49097,-0.00632902,-0.529493,0,0,362099,4.43646e+06,2459.23,0.347466,0.327272,7.4561,-0.00739097,0.388316,-0.00336434,0.000962617,-0.252902,-0.00477939,0.0391873,3.34101,0.154304,0.5,1616528497061088714
53.9707,0.0396831,-2.482,0.000706468,-0.252905,-0.00461482,0.000623554,-0.0536202,1.49097,-0.00639935,-0.518695,0,0,362099,4.43646e+06,2459.23,0.347466,0.327272,7.4561,-0.00739097,0.388316,-0.00336434,0.000962617,-0.252902,-0.00477939,0.0391873,3.34101,0.154304,0.5,1616528497071114816
53.9678,0.0417021,-2.55006,0.000620856,-0.247551,-0.00464214,0.000634247,-0.0565716,1.49092,-0.00640123,-0.51778,0,0,362100,4.43646e+06,2459.23,0.382548,0.364251,7.72894,-0.00695581,0.455464,-0.00204635,0.000892642,-0.247548,-0.00480684,0.0386285,3.20155,0.15441,0.5,1616528497081124884
53.9649,0.0440742,-2.62189,0.000526317,-0.240769,-0.00465899,0.000645658,-0.059922,1.49085,-0.00644163,-0.510952,0,0,362101,4.43646e+06,2459.23,0.417222,0.40152,7.92327,-0.00662375,0.491427,-0.00091267,0.000815153,-0.240766,-0.0048231,0.0383517,3.12471,0.154461,0.5,1616528497091114354
53.9625,0.0463967,-2.68493,0.000438906,-0.233563,-0.00465911,0.000655926,-0.0631339,1.49078,-0.00648464,-0.503314,0,0,362102,4.43646e+06,2459.22,0.450705,0.438497,8.10963,-0.00617268,0.527577,0.000290648,0.000743131,-0.23356,-0.00482192,0.0380501,3.04122,0.154479,0.5,1616528497101100651
53.9625,0.0463967,-2.68493,0.000438906,-0.233563,-0.00465911,0.000655926,-0.0631339,1.49078,-0.00652357,-0.495941,0,0,362102,4.43646e+06,2459.22,0.450705,0.438497,8.10963,-0.00617268,0.527577,0.000290648,0.000743131,-0.23356,-0.00482192,0.0380501,3.04122,0.154479,0.5,1616528497111118396
53.9599,0.049819,-2.76308,0.000317645,-0.222204,-0.00463206,0.000669141,-0.0676739,1.49069,-0.00652554,-0.494989,0,0,362103,4.43646e+06,2459.21,0.495336,0.488291,8.30396,-0.00578329,0.560735,0.00178137,0.000641671,-0.222201,-0.00479171,0.0377897,2.95566,0.154455,0.5,1616528497121082208
53.9599,0.049819,-2.76308,0.000317645,-0.222204,-0.00463206,0.000669141,-0.0676739,1.49069,-0.00657512,-0.484944,0,0,362103,4.43646e+06,2459.21,0.495336,0.488291,8.30396,-0.00578329,0.560735,0.00178137,0.000641671,-0.222201,-0.00479171,0.0377897,2.95566,0.154455,0.5,1616528497131111484
53.9588,0.0523458,-2.8108,0.000234918,-0.213082,-0.00458764,0.000677916,-0.0709306,1.49062,-0.00657713,-0.483972,0,0,362103,4.43646e+06,2459.2,0.528481,0.527351,8.47596,-0.00521315,0.599788,0.00325932,0.000571132,-0.213079,-0.00474402,0.0374171,2.84227,0.154371,0.5,1616528497141102354
53.9585,0.0546141,-2.8465,0.000166837,-0.204395,-0.00452959,0.000685154,-0.0738089,1.49055,-0.00661075,-0.476478,0,0,362104,4.43646e+06,2459.18,0.555882,0.55975,8.58566,-0.00466274,0.619255,0.00445246,0.000512124,-0.204392,-0.00468238,0.0371869,2.77158,0.154256,0.5,1616528497151076133
53.9586,0.0564956,-2.87061,0.000115684,-0.196911,-0.00446818,0.000690703,-0.0761408,1.4905,-0.00663886,-0.46973,0,0,362105,4.43646e+06,2459.17,0.57735,0.585612,8.66332,-0.00417981,0.633756,0.00546879,0.000466929,-0.196907,-0.00461756,0.0369892,2.70988,0.154122,0.5,1616528497161130279
53.9588,0.0573353,-2.87984,9.37311e-05,-0.193403,-0.00443631,0.00069309,-0.0771818,1.49047,-0.00666092,-0.464059,0,0,362105,4.43646e+06,2459.17,0.587045,0.597566,8.70144,-0.0037612,0.642864,0.00633496,0.000447182,-0.1934,-0.004584,0.0368029,2.65111,0.154051,0.5,1616528497171078251
53.9592,0.0581673,-2.88798,7.34845e-05,-0.189942,-0.00440221,0.000695376,-0.0782043,1.49045,-0.00667158,-0.460975,0,0,362105,4.43646e+06,2459.16,0.595579,0.607555,8.71595,-0.0037612,0.642864,0.00633496,0.00042881,-0.189939,-0.00454819,0.0368342,2.66042,0.15398,0.5,1616528497181083005
53.9603,0.0600709,-2.90236,3.11825e-05,-0.181672,-0.0043143,0.00070034,-0.08052,1.49039,-0.0066819,-0.457919,0,0,362106,4.43646e+06,2459.15,0.615304,0.630936,8.7559,-0.00317021,0.650192,0.00720791,0.00038959,-0.181669,-0.00445597,0.0366845,2.60777,0.15381,0.5,1616528497191080778
53.9603,0.0600709,-2.90236,3.11825e-05,-0.181672,-0.0043143,0.00070034,-0.08052,1.49039,-0.00670187,-0.452267,0,0,362106,4.43646e+06,2459.15,0.615304,0.630936,8.7559,-0.00317021,0.650192,0.00720791,0.00038959,-0.181669,-0.00445597,0.0366845,2.60777,0.15381,0.5,1616528497201086618
53.9652,0.0642439,-2.90864,-5.13568e-05,-0.16212,-0.00406601,0.000709824,-0.0855488,1.49026,-0.00670187,-0.452267,0,0,362108,4.43646e+06,2459.1,0.655297,0.676001,8.76837,-0.00235213,0.633006,0.00876085,0.000307205,-0.162117,-0.00419643,0.0365798,2.58228,0.153452,0.5,1616528497211080510
53.968,0.0658532,-2.90394,-7.31001e-05,-0.154019,-0.00394298,0.00071338,-0.0874979,1.49021,-0.00674024,-0.440149,0,0,362108,4.43646e+06,2459.08,0.667313,0.692263,8.76194,-0.00156943,0.64103,0.0100428,0.000282424,-0.154016,-0.00406842,0.0362624,2.48234,0.153025,0.5,1616528497221075776
53.968,0.0658532,-2.90394,-7.31001e-05,-0.154019,-0.00394298,0.00071338,-0.0874979,1.49021,-0.00675518,-0.435204,0,0,362108,4.43646e+06,2459.08,0.667313,0.692263,8.76194,-0.00156943,0.64103,0.0100428,0.000282424,-0.154016,-0.00406842,0.0362624,2.48234,0.153025,0.5,1616528497231080379
53.9735,0.0682203,-2.88427,-9.9525e-05,-0.141145,-0.00372741,0.000718398,-0.0903956,1.49013,-0.00675732,-0.434155,0,0,362109,4.43646e+06,2459.05,0.68706,0.713677,8.71949,-0.0011019,0.628417,0.0110279,0.000247528,-0.141142,-0.0038445,0.0361269,2.44778,0.152653,0.5,1616528497241056637
53.9735,0.0682203,-2.88427,-9.9525e-05,-0.141145,-0.00372741,0.000718398,-0.0903956,1.49013,-0.00677754,-0.427303,0,0,362109,4.43646e+06,2459.05,0.68706,0.713677,8.71949,-0.0011019,0.628417,0.0110279,0.000247528,-0.141142,-0.0038445,0.0361269,2.44778,0.152653,0.5,1616528497251075291
53.9779,0.0697148,-2.86432,-0.00011054,-0.132438,-0.00356502,0.000721573,-0.0922575,1.49008,-0.00677969,-0.426241,0,0,362110,4.43646e+06,2459.02,0.696734,0.724023,8.65878,-0.000726212,0.619835,0.0119274,0.000228138,-0.132435,-0.00367622,0.0359267,2.3937,0.15223,0.5,1616528497261064322
53.9779,0.0697148,-2.86432,-0.00011054,-0.132438,-0.00356502,0.000721573,-0.0922575,1.49008,-0.00679329,-0.421451,0,0,362110,4.43646e+06,2459.02,0.696734,0.724023,8.65878,-0.000726212,0.619835,0.0119274,0.000228138,-0.132435,-0.00367622,0.0359267,2.3937,0.15223,0.5,1616528497271109876
53.9871,0.0719754,-2.81386,-0.000121146,-0.117617,-0.00325903,0.000726413,-0.0951986,1.49,-0.00679546,-0.420379,0,0,362112,4.43646e+06,2458.98,0.713091,0.738818,8.55038,-0.000186767,0.593682,0.0129047,0.000198209,-0.117615,-0.00335968,0.0357876,2.37082,0.151715,0.5,1616528497281107349
53.9915,0.0728605,-2.78812,-0.000117915,-0.11135,-0.00311382,0.00072847,-0.0964125,1.48996,-0.00681506,-0.413418,0,0,362112,4.43646e+06,2458.95,0.714868,0.737919,8.43863,0.00041676,0.574989,0.0136228,0.000191075,-0.111348,-0.00320984,0.0355927,2.33202,0.151208,0.5,1616528497291110929
53.9941,0.0733217,-2.77217,-0.000114799,-0.107839,-0.00302946,0.000729605,-0.0970706,1.48994,-0.00682466,-0.409906,0,0,362112,4.43646e+06,2458.94,0.717905,0.74012,8.4051,0.00071835,0.55757,0.0140607,0.000187861,-0.107837,-0.00312284,0.0354888,2.31911,0.150858,0.5,1616528497301076778
53.9968,0.073754,-2.75542,-0.000110414,-0.104436,-0.00294364,0.000730718,-0.097708,1.48993,-0.00683093,-0.407508,0,0,362113,4.43646e+06,2458.92,0.719826,0.740097,8.35218,0.00071835,0.55757,0.0140607,0.000185602,-0.104434,-0.00303443,0.0354888,2.31911,0.150858,0.5,1616528497311122795
54.0039,0.0746924,-2.70977,-9.73595e-05,-0.0960926,-0.00272298,0.000733431,-0.0991973,1.48988,-0.00683713,-0.405139,0,0,362114,4.43646e+06,2458.89,0.725073,0.740674,8.2397,0.000946956,0.538411,0.0147877,0.000180656,-0.0960906,-0.00280726,0.0353489,2.29754,0.150427,0.5,1616528497321107767
54.0106,0.0753648,-2.66596,-7.88563e-05,-0.0890821,-0.00252133,0.000735838,-0.100413,1.48985,-0.0068491,-0.401067,0,0,362114,4.43646e+06,2458.86,0.727094,0.737194,8.10974,0.00148366,0.513446,0.015155,0.000181777,-0.0890802,-0.00259997,0.0352064,2.28548,0.149956,0.5,1616528497331107177
54.0106,0.0753648,-2.66596,-7.88563e-05,-0.0890821,-0.00252133,0.000735838,-0.100413,1.48985,-0.00685997,-0.397536,0,0,362114,4.43646e+06,2458.86,0.727094,0.737194,8.10974,0.00148366,0.513446,0.015155,0.000181777,-0.0890802,-0.00259997,0.0352064,2.28548,0.149956,0.5,1616528497341096156
54.0177,0.0758938,-2.61773,-5.66757e-05,-0.0821799,-0.00231043,0.000738328,-0.101563,1.48981,-0.00686217,-0.396437,0,0,362115,4.43646e+06,2458.82,0.728808,0.732914,7.98005,0.00171161,0.49321,0.0154415,0.000184972,-0.0821781,-0.00238339,0.035046,2.26536,0.149497,0.5,1616528497351077863
54.0249,0.0762515,-2.56866,-3.19302e-05,-0.0758911,-0.00210427,0.000740801,-0.102582,1.48978,-0.00687335,-0.393036,0,0,362116,4.43646e+06,2458.78,0.729206,0.726175,7.84032,0.00198133,0.467531,0.015725,0.000190479,-0.0758895,-0.00217191,0.0349004,2.25879,0.149035,0.5,1616528497361109220
54.0249,0.0762515,-2.56866,-3.19302e-05,-0.0758911,-0.00210427,0.000740801,-0.102582,1.48978,-0.00688448,-0.389885,0,0,362116,4.43646e+06,2458.78,0.729206,0.726175,7.84032,0.00198133,0.467531,0.015725,0.000190479,-0.0758895,-0.00217191,0.0349004,2.25879,0.149035,0.5,1616528497371077735
54.0336,0.0764665,-2.50755,7.20633e-07,-0.0689188,-0.00185768,0.000743826,-0.103677,1.48975,-0.0068867,-0.38878,0,0,362117,4.43646e+06,2458.74,0.729984,0.717631,7.68131,0.00219644,0.438274,0.015974,0.000199346,-0.0689174,-0.00191925,0.0347478,2.25678,0.148532,0.5,1616528497381076974
