u,v,w,p,q,r,phi,theta,psi,roll_ctrl,pitch_ctrl,yaw_ctrl,throttle_ctrl,E,N,U,u_dot,v_dot,w_dot,p_dot,q_dot,r_dot,phi_dot,theta_dot,psi_dot,delta_a,delta_e,delta_r,delta_T,timestamp
53.9774,0.0103537,0.432839,2.96556e-05,-0.00475145,-0.0014039,-0.000284073,-0.00434285,1.51391,-0.00398597,-0.1708,0,0.5343,361598,4.43641e+06,2443.55,0.105784,-0.0817721,0.251946,-2.09136e-06,0.000458512,3.76435e-05,3.57467e-05,-0.00475185,-0.00140256,0.0637699,0.866759,0.147251,0.76715,1616511338278292700
53.9774,0.0103537,0.432839,2.96556e-05,-0.00475145,-0.0014039,-0.000284073,-0.00434285,1.51391,-0.00398696,-0.1708,0,0.5343,361598,4.43641e+06,2443.55,0.105784,-0.0817721,0.251946,-2.09136e-06,0.000458512,3.76435e-05,3.57467e-05,-0.00475185,-0.00140256,0.0637699,0.866759,0.147251,0.76715,1616511338288315226
53.9798,0.010324,0.432741,2.96918e-05,-0.00474203,-0.00140312,-0.000283341,-0.00443985,1.51388,-0.00398611,-0.1708,0,0.5343,361599,4.43641e+06,2443.54,0.106494,-0.081782,0.251501,4.4771e-06,0.000461253,3.72616e-05,3.59155e-05,-0.00474243,-0.00140179,0.0637685,0.866776,0.14725,0.76715,1616511338298314126
53.9798,0.010324,0.432741,2.96918e-05,-0.00474203,-0.00140312,-0.000283341,-0.00443985,1.51388,-0.00398789,-0.1708,0,0.5343,361599,4.43641e+06,2443.54,0.106494,-0.081782,0.251501,4.4771e-06,0.000461253,3.72616e-05,3.59155e-05,-0.00474243,-0.00140179,0.0637685,0.866776,0.14725,0.76715,1616511338308316690
53.9817,0.0103108,0.432658,2.9719e-05,-0.00473421,-0.00140251,-0.000282735,-0.00451969,1.51386,-0.00398704,-0.1708,0,0.5343,361600,4.43641e+06,2443.53,0.107247,-0.0817962,0.251015,3.27728e-06,0.000464834,3.56382e-05,3.60519e-05,-0.00473461,-0.00140119,0.0637591,0.866795,0.147248,0.76715,1616511338318287756
53.9829,0.0103099,0.432603,2.96391e-05,-0.00472904,-0.00140211,-0.000282336,-0.00457208,1.51384,-0.00398838,-0.1708,0,0.5343,361600,4.43641e+06,2443.53,0.107808,-0.0818136,0.250653,-4.43088e-06,0.000467558,3.65088e-05,3.60436e-05,-0.00472943,-0.00140079,0.0637457,0.866808,0.147247,0.76715,1616511338328288135
53.9829,0.0103099,0.432603,2.96391e-05,-0.00472904,-0.00140211,-0.000282336,-0.00457208,1.51384,-0.00398897,-0.1708,0,0.5343,361600,4.43641e+06,2443.53,0.107808,-0.0818136,0.250653,-4.43088e-06,0.000467558,3.65088e-05,3.60436e-05,-0.00472943,-0.00140079,0.0637457,0.866808,0.147247,0.76715,1616511338338344386
53.9844,0.0102996,0.432537,2.9511e-05,-0.00472286,-0.00140161,-0.000281862,-0.00463429,1.51383,-0.00398812,-0.1708,0,0.5343,361601,4.43641e+06,2443.52,0.108297,-0.0818247,0.250339,-8.61065e-06,0.000469882,3.7656e-05,3.60003e-05,-0.00472325,-0.0014003,0.0637399,0.86682,0.147246,0.76715,1616511338348319205
53.9861,0.0102697,0.432465,2.95145e-05,-0.00471604,-0.00140109,-0.000281342,-0.00470248,1.51381,-0.00398898,-0.1708,0,0.5343,361602,4.43641e+06,2443.51,0.108853,-0.0818305,0.249977,3.39603e-06,0.000472435,3.54418e-05,3.60969e-05,-0.00471643,-0.00139978,0.0637399,0.866834,0.147245,0.76715,1616511338358285509
53.9877,0.0102696,0.432395,2.92471e-05,-0.00470946,-0.00140063,-0.000280843,-0.00476789,1.51379,-0.00399001,-0.1708,0,0.5343,361603,4.43641e+06,2443.51,0.109423,-0.08184,0.249558,-2.32124e-05,0.000474012,3.40651e-05,3.59189e-05,-0.00470985,-0.00139932,0.0637297,0.866848,0.147244,0.76715,1616511338368324064
53.9877,0.0102696,0.432395,2.92471e-05,-0.00470946,-0.00140063,-0.000280843,-0.00476789,1.51379,-0.00399096,-0.1708,0,0.5343,361603,4.43641e+06,2443.51,0.109423,-0.08184,0.249558,-2.32124e-05,0.000474012,3.40651e-05,3.59189e-05,-0.00470985,-0.00139932,0.0637297,0.866848,0.147244,0.76715,1616511338378315750
53.9893,0.0102471,0.432324,2.90534e-05,-0.0047028,-0.00140015,-0.000280343,-0.0048337,1.51377,-0.00399012,-0.1708,0,0.5343,361603,4.43641e+06,2443.5,0.109982,-0.0818482,0.24919,-9.02325e-06,0.000476766,3.26566e-05,3.5815e-05,-0.0047032,-0.00139885,0.063729,0.866862,0.147243,0.76715,1616511338388313908
53.991,0.0102204,0.432251,2.88443e-05,-0.00469603,-0.0013997,-0.000279839,-0.00490013,1.51375,-0.00399108,-0.1708,0,0.5343,361604,4.43641e+06,2443.5,0.110544,-0.0818552,0.248821,-9.82908e-06,0.00047977,3.06633e-05,3.56966e-05,-0.00469642,-0.0013984,0.0637197,0.866876,0.147242,0.76715,1616511338398306236
53.9923,0.0102121,0.432195,2.86644e-05,-0.00469083,-0.00139937,-0.000279454,-0.00495082,1.51373,-0.00399206,-0.1708,0,0.5343,361605,4.43641e+06,2443.49,0.11104,-0.0818675,0.248491,-1.45309e-05,0.000482771,3.05727e-05,3.5586e-05,-0.00469122,-0.00139808,0.0637101,0.866889,0.147241,0.76715,1616511338408322220
53.9936,0.0102095,0.432136,2.84741e-05,-0.00468522,-0.00139901,-0.000279044,-0.00500507,1.51372,-0.0039926,-0.1708,0,0.5343,361605,4.43641e+06,2443.49,0.111485,-0.0818788,0.248193,-1.46076e-05,0.000485083,3.17408e-05,3.54697e-05,-0.00468561,-0.00139772,0.0637049,0.8669,0.14724,0.76715,1616511338418283910
53.9936,0.0102095,0.432136,2.84741e-05,-0.00468522,-0.00139901,-0.000279044,-0.00500507,1.51372,-0.00399324,-0.1708,0,0.5343,361605,4.43641e+06,2443.49,0.111485,-0.0818788,0.248193,-1.46076e-05,0.000485083,3.17408e-05,3.54697e-05,-0.00468561,-0.00139772,0.0637049,0.8669,0.14724,0.76715,1616511338428294459
53.9949,0.0101959,0.432079,2.82891e-05,-0.00467988,-0.00139868,-0.000278656,-0.00505643,1.5137,-0.00399241,-0.1708,0,0.5343,361606,4.43641e+06,2443.48,0.111933,-0.0818844,0.247887,-1.4538e-05,0.000487547,2.99588e-05,3.53549e-05,-0.00468027,-0.00139739,0.0636987,0.866911,0.147239,0.76715,1616511338438285643
53.9967,0.0101737,0.431999,2.82424e-05,-0.00467233,-0.00139821,-0.000278112,-0.00512842,1.51368,-0.00399297,-0.1708,0,0.5343,361607,4.43641e+06,2443.47,0.112459,-0.0818942,0.247536,-5.16402e-07,0.000490338,3.05326e-05,3.54064e-05,-0.00467272,-0.00139693,0.0637017,0.866925,0.147239,0.76715,1616511338448323388
53.9983,0.0101596,0.431931,2.81429e-05,-0.00466591,-0.00139784,-0.000277651,-0.00518931,1.51366,-0.00399409,-0.1708,0,0.5343,361607,4.43641e+06,2443.47,0.11302,-0.0819013,0.247153,-6.07331e-06,0.000492757,2.78533e-05,3.53901e-05,-0.0046663,-0.00139656,0.0636905,0.86694,0.147238,0.76715,1616511338458316623
53.9983,0.0101596,0.431931,2.81429e-05,-0.00466591,-0.00139784,-0.000277651,-0.00518931,1.51366,-0.00399492,-0.1708,0,0.5343,361607,4.43641e+06,2443.47,0.11302,-0.0819013,0.247153,-6.07331e-06,0.000492757,2.78533e-05,3.53901e-05,-0.0046663,-0.00139656,0.0636905,0.86694,0.147238,0.76715,1616511338468326734
54.0001,0.0101456,0.431852,2.81859e-05,-0.00465834,-0.00139742,-0.000277109,-0.0052606,1.51364,-0.00399408,-0.1708,0,0.5343,361608,4.43641e+06,2443.46,0.113581,-0.0819096,0.246767,5.53666e-06,0.0004961,2.67583e-05,3.55305e-05,-0.00465872,-0.00139615,0.0636906,0.866954,0.147237,0.76715,1616511338478288983
54.0001,0.0101456,0.431852,2.81859e-05,-0.00465834,-0.00139742,-0.000277109,-0.0052606,1.51364,-0.00399521,-0.1708,0,0.5343,361608,4.43641e+06,2443.46,0.113581,-0.0819096,0.246767,5.53666e-06,0.0004961,2.67583e-05,3.55305e-05,-0.00465872,-0.00139615,0.0636906,0.866954,0.147237,0.76715,1616511338488320857
54.0001,0.0101456,0.431852,2.81859e-05,-0.00465834,-0.00139742,-0.000277109,-0.0052606,1.51364,-0.00399437,-0.1708,0,0.5343,361608,4.43641e+06,2443.46,0.113581,-0.0819096,0.246767,-8.59723e-07,0.000497394,2.84894e-05,3.55305e-05,-0.00465872,-0.00139615,0.0636906,0.866954,0.147237,0.76715,1616511338498294879
54.0041,0.01011,0.431689,2.83646e-05,-0.00464217,-0.00139652,-0.00027595,-0.00541156,1.51359,-0.00399354,-0.1708,0,0.5343,361610,4.43641e+06,2443.44,0.114532,-0.0819194,0.246112,1.18585e-05,0.000498024,2.69429e-05,3.59151e-05,-0.00464255,-0.00139526,0.0636877,0.866981,0.147235,0.76715,1616511338508310053
54.0056,0.0100852,0.431622,2.82426e-05,-0.00463584,-0.00139621,-0.000275498,-0.00547013,1.51358,-0.00399688,-0.1708,0,0.5343,361611,4.43641e+06,2443.44,0.115405,-0.0819436,0.245466,-6.35974e-06,0.000502154,2.37151e-05,3.58731e-05,-0.00463623,-0.00139495,0.0636623,0.867005,0.147234,0.76715,1616511338518320264
54.007,0.0100835,0.43156,2.81057e-05,-0.00463001,-0.00139593,-0.000275083,-0.00552375,1.51356,-0.00399768,-0.1708,0,0.5343,361611,4.43641e+06,2443.43,0.115877,-0.0819558,0.245132,-9.35975e-06,0.000504903,2.44229e-05,3.58095e-05,-0.00463039,-0.00139468,0.0636545,0.867018,0.147233,0.76715,1616511338528303608
54.0084,0.0100653,0.4315,2.79717e-05,-0.00462441,-0.00139566,-0.000274688,-0.00557482,1.51354,-0.00399835,-0.1708,0,0.5343,361612,4.43641e+06,2443.43,0.116318,-0.081963,0.244816,-7.45233e-06,0.000507009,2.32593e-05,3.57452e-05,-0.0046248,-0.00139441,0.063648,0.86703,0.147233,0.76715,1616511338538313397
54.0101,0.0100482,0.431427,2.78169e-05,-0.00461742,-0.00139534,-0.000274199,-0.00563836,1.51353,-0.00399895,-0.1708,0,0.5343,361613,4.43641e+06,2443.42,0.116803,-0.0819699,0.244472,-8.19659e-06,0.000509368,2.25796e-05,3.56773e-05,-0.0046178,-0.0013941,0.0636422,0.867044,0.147232,0.76715,1616511338548282812
54.0101,0.0100482,0.431427,2.78169e-05,-0.00461742,-0.00139534,-0.000274199,-0.00563836,1.51353,-0.00399989,-0.1708,0,0.5343,361613,4.43641e+06,2443.42,0.116803,-0.0819699,0.244472,-8.19659e-06,0.000509368,2.25796e-05,3.56773e-05,-0.0046178,-0.0013941,0.0636422,0.867044,0.147232,0.76715,1616511338558319510
54.0122,0.0100161,0.431334,2.7775e-05,-0.00460854,-0.00139496,-0.000273581,-0.00571831,1.5135,-0.00399907,-0.1708,0,0.5343,361614,4.43641e+06,2443.41,0.117409,-0.0819768,0.244036,1.0647e-06,0.000512232,2.08508e-05,3.57448e-05,-0.00460892,-0.00139372,0.0636412,0.867061,0.147231,0.76715,1616511338568315397
54.0136,0.00999317,0.431275,2.76555e-05,-0.00460297,-0.00139474,-0.000273195,-0.00576816,1.51349,-0.00400047,-0.1708,0,0.5343,361614,4.43641e+06,2443.41,0.117952,-0.0819911,0.243637,-8.84685e-06,0.000515308,2.02754e-05,3.56935e-05,-0.00460335,-0.00139351,0.0636271,0.867076,0.147231,0.76715,1616511338578322609
54.0136,0.00999317,0.431275,2.76555e-05,-0.00460297,-0.00139474,-0.000273195,-0.00576816,1.51349,-0.00400104,-0.1708,0,0.5343,361614,4.43641e+06,2443.41,0.117952,-0.0819911,0.243637,-8.94799e-06,0.00051689,1.76258e-05,3.56935e-05,-0.00460335,-0.00139351,0.0636215,0.867082,0.14723,0.76715,1616511338588351607
54.0152,0.00997926,0.431203,2.75621e-05,-0.00459612,-0.00139451,-0.000272723,-0.00582909,1.51347,-0.00400022,-0.1708,0,0.5343,361615,4.43641e+06,2443.4,0.118418,-0.0819942,0.243293,-5.1535e-06,0.000517842,1.79411e-05,3.56836e-05,-0.0045965,-0.00139328,0.0636216,0.867089,0.14723,0.76715,1616511338598321227
54.0174,0.00995327,0.431107,2.757e-05,-0.00458689,-0.00139422,-0.000272089,-0.00591048,1.51344,-0.0040011,-0.1708,0,0.5343,361616,4.43641e+06,2443.39,0.119018,-0.0819999,0.242852,4.11804e-06,0.000521088,1.59351e-05,3.58032e-05,-0.00458727,-0.00139299,0.0636211,0.867107,0.147229,0.76715,1616511338608312724
54.0188,0.00994406,0.431048,2.7445e-05,-0.00458122,-0.00139404,-0.000271702,-0.00596016,1.51343,-0.00400257,-0.1708,0,0.5343,361616,4.43641e+06,2443.39,0.119564,-0.0820163,0.24244,-9.24986e-06,0.000523194,1.60536e-05,3.57464e-05,-0.0045816,-0.00139282,0.0636064,0.867123,0.147229,0.76715,1616511338618314757
54.0188,0.00994406,0.431048,2.7445e-05,-0.00458122,-0.00139404,-0.000271702,-0.00596016,1.51343,-0.00400315,-0.1708,0,0.5343,361616,4.43641e+06,2443.39,0.119564,-0.0820163,0.24244,-9.24986e-06,0.000523194,1.60536e-05,3.57464e-05,-0.0045816,-0.00139282,0.0636064,0.867123,0.147229,0.76715,1616511338628284513
54.0205,0.00992615,0.430973,2.74534e-05,-0.00457409,-0.00139384,-0.000271216,-0.00602236,1.51341,-0.00400234,-0.1708,0,0.5343,361617,4.43641e+06,2443.38,0.120035,-0.082024,0.242091,1.8784e-06,0.00052596,1.55798e-05,3.58402e-05,-0.00457446,-0.00139262,0.0636088,0.867136,0.147229,0.76715,1616511338638286225
54.0223,0.00990108,0.430897,2.74161e-05,-0.00456676,-0.00139364,-0.000270719,-0.00608575,1.51339,-0.00400327,-0.1708,0,0.5343,361618,4.43641e+06,2443.37,0.120561,-0.0820304,0.241692,-3.79297e-07,0.000528704,1.35019e-05,3.589e-05,-0.00456714,-0.00139243,0.0635995,0.867152,0.147228,0.76715,1616511338648307158
54.0223,0.00990108,0.430897,2.74161e-05,-0.00456676,-0.00139364,-0.000270719,-0.00608575,1.51339,-0.00400425,-0.1708,0,0.5343,361618,4.43641e+06,2443.37,0.120561,-0.0820304,0.241692,-3.79297e-07,0.000528704,1.35019e-05,3.589e-05,-0.00456714,-0.00139243,0.0635995,0.867152,0.147228,0.76715,1616511338658317048
54.0244,0.00988146,0.430804,2.74894e-05,-0.00455774,-0.00139342,-0.000270107,-0.00616331,1.51337,-0.00400343,-0.1708,0,0.5343,361619,4.43641e+06,2443.36,0.121153,-0.082039,0.241241,6.68885e-06,0.000531192,1.24729e-05,3.607e-05,-0.00455812,-0.00139222,0.0635978,0.86717,0.147228,0.76715,1616511338668318843
54.0261,0.00985671,0.430731,2.74219e-05,-0.00455079,-0.00139327,-0.000269638,-0.00622263,1.51335,-0.00400482,-0.1708,0,0.5343,361619,4.43641e+06,2443.36,0.121722,-0.0820485,0.240805,-2.17806e-06,0.000533906,1.00358e-05,3.60842e-05,-0.00455117,-0.00139207,0.0635839,0.867187,0.147227,0.76715,1616511338678324754
54.0261,0.00985671,0.430731,2.74219e-05,-0.00455079,-0.00139327,-0.000269638,-0.00622263,1.51335,-0.0040057,-0.1708,0,0.5343,361619,4.43641e+06,2443.36,0.121722,-0.0820485,0.240805,-2.17806e-06,0.000533906,1.00358e-05,3.60842e-05,-0.00455117,-0.00139207,0.0635839,0.867187,0.147227,0.76715,1616511338688348539
54.0286,0.00983116,0.430624,2.74401e-05,-0.00454033,-0.0013923,-0.000268933,-0.00631133,1.51332,-0.00400489,-0.1708,0,0.5343,361621,4.43641e+06,2443.35,0.122334,-0.0820957,0.240324,4.75611e-06,0.000536475,4.81689e-05,3.62198e-05,-0.00454071,-0.00139111,0.0635832,0.867206,0.147226,0.76715,1616511338698349197
54.0302,0.00981297,0.430556,2.73444e-05,-0.00453387,-0.00139175,-0.0002685,-0.00636576,1.5133,-0.00400662,-0.1708,0,0.5343,361621,4.43641e+06,2443.34,0.122927,-0.0821079,0.239853,-5.44498e-06,0.000539703,4.56375e-05,3.61963e-05,-0.00453424,-0.00139056,0.0635659,0.867224,0.147224,0.76715,1616511338708318448
54.0302,0.00981297,0.430556,2.73444e-05,-0.00453387,-0.00139175,-0.0002685,-0.00636576,1.5133,-0.00400738,-0.1708,0,0.5343,361621,4.43641e+06,2443.34,0.122927,-0.0821079,0.239853,-1.32723e-05,0.000540363,4.6112e-05,3.61963e-05,-0.00453424,-0.00139056,0.0635583,0.867231,0.147224,0.76715,1616511338718294142
54.0318,0.00979359,0.430487,2.72539e-05,-0.00452716,-0.00139119,-0.000268052,-0.00642191,1.51329,-0.00400658,-0.1708,0,0.5343,361622,4.43641e+06,2443.33,0.123388,-0.0821127,0.239501,-1.322e-06,0.000541502,4.31981e-05,3.61803e-05,-0.00452754,-0.00139001,0.0635585,0.867239,0.147223,0.76715,1616511338728347408
54.0341,0.00976601,0.430387,2.72777e-05,-0.00451745,-0.00139041,-0.000267404,-0.00650269,1.51326,-0.00400738,-0.1708,0,0.5343,361623,4.43641e+06,2443.32,0.123961,-0.0821237,0.23904,4.47377e-06,0.000543946,4.35501e-05,3.63113e-05,-0.00451783,-0.00138923,0.0635585,0.867257,0.147222,0.76715,1616511338738287775
54.0355,0.00976183,0.430327,2.72081e-05,-0.00451172,-0.00138996,-0.000267023,-0.0065501,1.51325,-0.00400892,-0.1708,0,0.5343,361623,4.43641e+06,2443.32,0.12449,-0.0821362,0.238609,-4.73659e-06,0.000546742,4.17164e-05,3.63048e-05,-0.00451209,-0.00138879,0.0635431,0.867273,0.14722,0.76715,1616511338748372849
54.0369,0.00975454,0.430266,2.71326e-05,-0.00450588,-0.00138951,-0.000266636,-0.00659807,1.51323,-0.00400948,-0.1708,0,0.5343,361624,4.43641e+06,2443.31,0.124887,-0.082145,0.238297,-4.38446e-06,0.000548469,4.1549e-05,3.62929e-05,-0.00450626,-0.00138834,0.0635375,0.867286,0.147219,0.76715,1616511338758333727
54.0369,0.00975454,0.430266,2.71326e-05,-0.00450588,-0.00138951,-0.000266636,-0.00659807,1.51323,-0.00401008,-0.1708,0,0.5343,361624,4.43641e+06,2443.31,0.124887,-0.082145,0.238297,-4.38446e-06,0.000548469,4.1549e-05,3.62929e-05,-0.00450626,-0.00138834,0.0635375,0.867286,0.147219,0.76715,1616511338768362970
54.0384,0.00973552,0.4302,2.7053e-05,-0.00449958,-0.00138903,-0.000266221,-0.00664964,1.51322,-0.00400927,-0.1708,0,0.5343,361625,4.43641e+06,2443.31,0.125301,-0.0821548,0.237965,-3.63518e-06,0.00055091,4.18147e-05,3.62817e-05,-0.00449995,-0.00138786,0.0635317,0.867299,0.147218,0.76715,1616511338778316950
54.0403,0.00971507,0.430118,2.70728e-05,-0.00449158,-0.00138842,-0.000265696,-0.00671474,1.5132,-0.00400997,-0.1708,0,0.5343,361625,4.43641e+06,2443.3,0.125787,-0.0821639,0.237574,2.23214e-06,0.000553346,4.14777e-05,3.63878e-05,-0.00449194,-0.00138726,0.0635327,0.867314,0.147217,0.76715,1616511338788325671
54.0422,0.00969107,0.430038,2.70372e-05,-0.00448382,-0.00138787,-0.000265187,-0.00677742,1.51318,-0.00401107,-0.1708,0,0.5343,361626,4.43641e+06,2443.29,0.126317,-0.0821719,0.237142,-2.45672e-06,0.000555515,3.94784e-05,3.64355e-05,-0.00448419,-0.00138671,0.0635218,0.867332,0.147216,0.76715,1616511338798350742
54.0422,0.00969107,0.430038,2.70372e-05,-0.00448382,-0.00138787,-0.000265187,-0.00677742,1.51318,-0.0040121,-0.1708,0,0.5343,361626,4.43641e+06,2443.29,0.126317,-0.0821719,0.237142,-2.45672e-06,0.000555515,3.94784e-05,3.64355e-05,-0.00448419,-0.00138671,0.0635218,0.867332,0.147216,0.76715,1616511338808312684
54.0439,0.00966758,0.429962,2.70893e-05,-0.00447646,-0.00138738,-0.000264705,-0.0068366,1.51316,-0.00401131,-0.1708,0,0.5343,361627,4.43641e+06,2443.28,0.126822,-0.0821785,0.236725,5.45763e-06,0.000557699,3.6966e-05,3.65663e-05,-0.00447682,-0.00138623,0.0635193,0.867348,0.147215,0.76715,1616511338818357737
54.0462,0.00964222,0.429863,2.71097e-05,-0.00446683,-0.00138677,-0.000264076,-0.00691348,1.51314,-0.00401224,-0.1708,0,0.5343,361628,4.43641e+06,2443.27,0.127387,-0.0821865,0.236256,2.27297e-06,0.000560143,3.5639e-05,3.66891e-05,-0.0044672,-0.00138562,0.0635099,0.867367,0.147213,0.76715,1616511338828329464
54.0462,0.00964222,0.429863,2.71097e-05,-0.00446683,-0.00138677,-0.000264076,-0.00691348,1.51314,-0.00401372,-0.1708,0,0.5343,361628,4.43641e+06,2443.27,0.127387,-0.0821865,0.236256,2.27297e-06,0.000560143,3.5639e-05,3.66891e-05,-0.0044672,-0.00138562,0.0635099,0.867367,0.147213,0.76715,1616511338838284905
54.0476,0.0096183,0.429802,2.70311e-05,-0.00446088,-0.00138641,-0.000263689,-0.00696072,1.51312,-0.00401293,-0.1708,0,0.5343,361628,4.43641e+06,2443.27,0.127897,-0.0821955,0.235829,-4.67183e-06,0.000562791,3.27614e-05,3.66735e-05,-0.00446125,-0.00138527,0.0634951,0.867384,0.147212,0.76715,1616511338848331258
54.0476,0.0096183,0.429802,2.70311e-05,-0.00446088,-0.00138641,-0.000263689,-0.00696072,1.51312,-0.00401353,-0.1708,0,0.5343,361628,4.43641e+06,2443.27,0.127897,-0.0821955,0.235829,-4.67183e-06,0.000562791,3.27614e-05,3.66735e-05,-0.00446125,-0.00138527,0.0634951,0.867384,0.147212,0.76715,1616511338858341657
54.0506,0.00959574,0.429677,2.7328e-05,-0.00444848,-0.00138574,-0.000262878,-0.00705856,1.51309,-0.00401274,-0.1708,0,0.5343,361630,4.43641e+06,2443.26,0.128504,-0.0821971,0.235324,1.73725e-05,0.000564778,2.9957e-05,3.71012e-05,-0.00444884,-0.0013846,0.0635049,0.867404,0.147211,0.76715,1616511338868347794
54.0524,0.00956928,0.4296,2.72467e-05,-0.00444101,-0.00138533,-0.000262391,-0.00711709,1.51307,-0.00401487,-0.1708,0,0.5343,361630,4.43641e+06,2443.25,0.129144,-0.0822175,0.234772,-2.91508e-06,0.000567349,3.01151e-05,3.70981e-05,-0.00444138,-0.0013842,0.0634833,0.867426,0.14721,0.76715,1616511338878294281
54.0524,0.00956928,0.4296,2.72467e-05,-0.00444101,-0.00138533,-0.000262391,-0.00711709,1.51307,-0.00401584,-0.1708,0,0.5343,361630,4.43641e+06,2443.25,0.129144,-0.0822175,0.234772,-2.91508e-06,0.000567349,3.01151e-05,3.70981e-05,-0.00444138,-0.0013842,0.0634833,0.867426,0.14721,0.76715,1616511338888346516
54.0551,0.00953435,0.429484,2.73146e-05,-0.00442964,-0.00138477,-0.000261648,-0.00720565,1.51305,-0.00401505,-0.1708,0,0.5343,361631,4.43641e+06,2443.24,0.129755,-0.0822212,0.234258,7.74734e-06,0.00056983,2.71936e-05,3.72845e-05,-0.00443001,-0.00138365,0.0634815,0.867447,0.147209,0.76715,1616511338898321315
54.0567,0.00951732,0.429413,2.71956e-05,-0.00442277,-0.00138446,-0.000261201,-0.00725881,1.51303,-0.00401694,-0.1708,0,0.5343,361632,4.43641e+06,2443.23,0.130335,-0.0822363,0.23375,-7.18458e-06,0.000572489,2.57133e-05,3.72369e-05,-0.00442314,-0.00138334,0.0634625,0.867467,0.147208,0.76715,1616511338908351767
54.0567,0.00951732,0.429413,2.71956e-05,-0.00442277,-0.00138446,-0.000261201,-0.00725881,1.51303,-0.00401776,-0.1708,0,0.5343,361632,4.43641e+06,2443.23,0.130335,-0.0822363,0.23375,-7.18458e-06,0.000572489,2.57133e-05,3.72369e-05,-0.00442314,-0.00138334,0.0634625,0.867467,0.147208,0.76715,1616511338918293646
54.0585,0.00948211,0.429337,2.70738e-05,-0.00441536,-0.00138415,-0.000260721,-0.00731585,1.51301,-0.00401699,-0.1708,0,0.5343,361633,4.43641e+06,2443.22,0.130789,-0.0822397,0.233357,-4.41938e-06,0.00057501,2.26546e-05,3.71918e-05,-0.00441572,-0.00138303,0.0634545,0.867483,0.147207,0.76715,1616511338928314070
54.0585,0.00948211,0.429337,2.70738e-05,-0.00441536,-0.00138415,-0.000260721,-0.00731585,1.51301,-0.00401793,-0.1708,0,0.5343,361633,4.43641e+06,2443.22,0.130789,-0.0822397,0.233357,-4.41938e-06,0.00057501,2.26546e-05,3.71918e-05,-0.00441572,-0.00138303,0.0634545,0.867483,0.147207,0.76715,1616511338938320277
54.0613,0.00946319,0.42922,2.70472e-05,-0.00440379,-0.00138372,-0.000259975,-0.00740429,1.51298,-0.00401714,-0.1708,0,0.5343,361634,4.43641e+06,2443.21,0.131391,-0.0822462,0.232834,2.97427e-06,0.000577304,2.12883e-05,3.72843e-05,-0.00440415,-0.00138261,0.063453,0.867504,0.147206,0.76715,1616511338948360851
54.0627,0.00943996,0.429157,2.72466e-05,-0.00439781,-0.0013835,-0.000259589,-0.00744965,1.51297,-0.00401905,-0.1708,0,0.5343,361634,4.43641e+06,2443.21,0.131936,-0.0822626,0.232355,2.19788e-05,0.000580397,2.00553e-05,3.75449e-05,-0.00439817,-0.0013824,0.0634607,0.867523,0.147206,0.76715,1616511338958318255
54.0643,0.00941944,0.429088,2.71433e-05,-0.00439112,-0.00138329,-0.000259158,-0.00750018,1.51295,-0.00401966,-0.1708,0,0.5343,361635,4.43641e+06,2443.2,0.132329,-0.0822658,0.232005,-5.87374e-06,0.000582244,1.77667e-05,3.75099e-05,-0.00439148,-0.00138219,0.0634353,0.867537,0.147205,0.76715,1616511338968354973
54.0658,0.00940686,0.429022,2.70095e-05,-0.00438475,-0.00138309,-0.000258749,-0.0075481,1.51294,-0.00402043,-0.1708,0,0.5343,361636,4.43641e+06,2443.19,0.132732,-0.0822783,0.231645,-9.98055e-06,0.000584128,1.89375e-05,3.74408e-05,-0.00438511,-0.00138199,0.0634277,0.867551,0.147205,0.76715,1616511338978319723
54.0658,0.00940686,0.429022,2.70095e-05,-0.00438475,-0.00138309,-0.000258749,-0.0075481,1.51294,-0.00402113,-0.1708,0,0.5343,361636,4.43641e+06,2443.19,0.132732,-0.0822783,0.231645,-9.98055e-06,0.000584128,1.89375e-05,3.74408e-05,-0.00438511,-0.00138199,0.0634277,0.867551,0.147205,0.76715,1616511338988280965
54.0685,0.0107761,0.424506,2.70551e-05,-0.00436288,-0.00138243,-0.000257348,-0.00771148,1.51289,-0.00402036,-0.1708,0,0.5343,361637,4.43641e+06,2443.18,0.133613,-0.0822792,0.230863,8.71662e-06,0.00058431,1.68507e-05,3.77072e-05,-0.00436323,-0.00138135,0.0634287,0.867584,0.147204,0.76715,1616511338998319964
54.071,0.00934929,0.428811,2.70551e-05,-0.00436288,-0.00138243,-0.000257348,-0.00771148,1.51289,-0.00402463,-0.1708,0,0.5343,361638,4.43641e+06,2443.17,0.133613,-0.0822792,0.230863,8.71662e-06,0.00058431,1.68507e-05,3.77072e-05,-0.00436323,-0.00138135,0.0634287,0.867584,0.147204,0.76715,1616511339008292224
54.0727,0.00933156,0.428738,2.67455e-05,-0.00435593,-0.00138226,-0.000256904,-0.00776314,1.51287,-0.00402386,-0.1708,0,0.5343,361638,4.43641e+06,2443.16,0.134479,-0.082307,0.230037,-1.70176e-05,0.000587869,1.33683e-05,3.74678e-05,-0.00435628,-0.00138119,0.0633937,0.867617,0.147203,0.76715,1616511339018309906
54.0743,0.00931097,0.42867,2.65122e-05,-0.00434942,-0.00138212,-0.000256493,-0.00781117,1.51285,-0.00402468,-0.1708,0,0.5343,361639,4.43641e+06,2443.16,0.134886,-0.0823159,0.229669,-1.85765e-05,0.000590028,1.28241e-05,3.72996e-05,-0.00434977,-0.00138105,0.0633857,0.867631,0.147202,0.76715,1616511339028293381
54.0761,0.00929337,0.428589,2.62743e-05,-0.00434156,-0.00138196,-0.000256,-0.00786883,1.51284,-0.0040254,-0.1708,0,0.5343,361639,4.43641e+06,2443.15,0.135319,-0.082321,0.229275,-1.34937e-05,0.000592402,1.11491e-05,3.71402e-05,-0.00434192,-0.00138089,0.063379,0.867647,0.147202,0.76715,1616511339038313518
54.0761,0.00929337,0.428589,2.62743e-05,-0.00434156,-0.00138196,-0.000256,-0.00786883,1.51284,-0.0040264,-0.1708,0,0.5343,361639,4.43641e+06,2443.15,0.135319,-0.082321,0.229275,-1.34937e-05,0.000592402,1.11491e-05,3.71402e-05,-0.00434192,-0.00138089,0.063379,0.867647,0.147202,0.76715,1616511339048298058
54.0791,0.00925364,0.428465,2.60774e-05,-0.00432938,-0.00138174,-0.000255244,-0.00795752,1.51281,-0.00402563,-0.1708,0,0.5343,361641,4.43641e+06,2443.14,0.135919,-0.0823283,0.228724,-3.63569e-06,0.000595838,9.76639e-06,3.7064e-05,-0.00432974,-0.00138068,0.0633769,0.867669,0.147202,0.76715,1616511339058331004
54.0809,0.00923059,0.428385,2.58294e-05,-0.00432174,-0.00138164,-0.000254772,-0.00801279,1.51279,-0.00402759,-0.1708,0,0.5343,361641,4.43641e+06,2443.13,0.136501,-0.0823422,0.228174,-1.53933e-05,0.000598492,7.81403e-06,3.68916e-05,-0.0043221,-0.00138058,0.0633576,0.86769,0.147201,0.76715,1616511339068329822
54.0809,0.00923059,0.428385,2.58294e-05,-0.00432174,-0.00138164,-0.000254772,-0.00801279,1.51279,-0.00402852,-0.1708,0,0.5343,361641,4.43641e+06,2443.13,0.136501,-0.0823422,0.228174,-1.53933e-05,0.000598492,7.81403e-06,3.68916e-05,-0.0043221,-0.00138058,0.0633576,0.86769,0.147201,0.76715,1616511339078293005
54.0826,0.00921499,0.428309,2.5632e-05,-0.00431441,-0.00138155,-0.000254324,-0.00806552,1.51277,-0.00402776,-0.1708,0,0.5343,361642,4.43641e+06,2443.12,0.136941,-0.0823496,0.227764,-7.77289e-06,0.000601503,6.30958e-06,3.67663e-05,-0.00431476,-0.0013805,0.0633562,0.867707,0.147201,0.76715,1616511339088314649
54.0826,0.00921499,0.428309,2.5632e-05,-0.00431441,-0.00138155,-0.000254324,-0.00806552,1.51277,-0.00402861,-0.1708,0,0.5343,361642,4.43641e+06,2443.12,0.136941,-0.0823496,0.227764,-7.77289e-06,0.000601503,6.30958e-06,3.67663e-05,-0.00431476,-0.0013805,0.0633562,0.867707,0.147201,0.76715,1616511339098322757
54.0856,0.00919035,0.428183,2.56363e-05,-0.004302,-0.00138142,-0.000253567,-0.00815406,1.51275,-0.00402785,-0.1708,0,0.5343,361643,4.43641e+06,2443.11,0.137519,-0.0823577,0.227222,5.10247e-06,0.000603859,5.54144e-06,3.68919e-05,-0.00430235,-0.00138038,0.0633555,0.867728,0.147201,0.76715,1616511339108323971
54.0872,0.00916519,0.428111,2.54639e-05,-0.00429509,-0.00138135,-0.000253149,-0.00820303,1.51273,-0.00402981,-0.1708,0,0.5343,361644,4.43641e+06,2443.1,0.138073,-0.0823782,0.226688,-1.22422e-05,0.000606858,6.40295e-06,3.67864e-05,-0.00429544,-0.0013803,0.0633358,0.86775,0.147201,0.76715,1616511339118318751
54.0891,0.0091531,0.428032,2.53204e-05,-0.00428745,-0.0013813,-0.000252688,-0.00825688,1.51271,-0.00403056,-0.1708,0,0.5343,361644,4.43641e+06,2443.09,0.13849,-0.0823825,0.226288,-1.04384e-05,0.000609627,4.05717e-06,3.67169e-05,-0.0042878,-0.00138026,0.0633285,0.867765,0.147201,0.76715,1616511339128311429
54.0911,0.00912866,0.427945,2.51045e-05,-0.00427898,-0.00138123,-0.000252182,-0.00831618,1.51269,-0.00403146,-0.1708,0,0.5343,361645,4.43641e+06,2443.08,0.138949,-0.0823941,0.225846,-1.09938e-05,0.000612091,4.45293e-06,3.65823e-05,-0.00427933,-0.0013802,0.0633198,0.867783,0.1472,0.76715,1616511339138309306
54.0911,0.00912866,0.427945,2.51045e-05,-0.00427898,-0.00138123,-0.000252182,-0.00831618,1.51269,-0.00403252,-0.1708,0,0.5343,361645,4.43641e+06,2443.08,0.138949,-0.0823941,0.225846,-1.09938e-05,0.000612091,4.45293e-06,3.65823e-05,-0.00427933,-0.0013802,0.0633198,0.867783,0.1472,0.76715,1616511339148316790
54.0931,0.00909898,0.427857,2.5011e-05,-0.00427042,-0.00138118,-0.000251675,-0.00837569,1.51267,-0.00403177,-0.1708,0,0.5343,361646,4.43641e+06,2443.08,0.13943,-0.0824023,0.225381,-2.26555e-06,0.000614944,2.76963e-06,3.65706e-05,-0.00427077,-0.00138016,0.0633169,0.867802,0.1472,0.76715,1616511339158314327
54.0931,0.00909898,0.427857,2.5011e-05,-0.00427042,-0.00138118,-0.000251675,-0.00837569,1.51267,-0.00403284,-0.1708,0,0.5343,361646,4.43641e+06,2443.08,0.13943,-0.0824023,0.225381,-2.26555e-06,0.000614944,2.76963e-06,3.65706e-05,-0.00427077,-0.00138016,0.0633169,0.867802,0.1472,0.76715,1616511339168343574
54.0931,0.00909898,0.427857,2.5011e-05,-0.00427042,-0.00138118,-0.000251675,-0.00837569,1.51267,-0.00403208,-0.1708,0,0.5343,361646,4.43641e+06,2443.08,0.13943,-0.0824023,0.225381,-2.26555e-06,0.000614944,2.76963e-06,3.65706e-05,-0.00427077,-0.00138016,0.0633169,0.867802,0.1472,0.76715,1616511339178328093
54.0931,0.00909898,0.427857,2.5011e-05,-0.00427042,-0.00138118,-0.000251675,-0.00837569,1.51267,-0.00403133,-0.1708,0,0.5343,361646,4.43641e+06,2443.08,0.13943,-0.0824023,0.225381,-2.26555e-06,0.000614944,2.76963e-06,3.65706e-05,-0.00427077,-0.00138016,0.0633169,0.867802,0.1472,0.76715,1616511339188335903
54.1005,0.00902139,0.427568,2.55986e-05,-0.00423953,-0.00138106,-0.000249816,-0.00858914,1.5126,-0.00403057,-0.1708,0,0.5343,361649,4.43641e+06,2443.04,0.140554,-0.0824096,0.224275,1.87022e-05,0.000613242,2.32056e-06,3.74519e-05,-0.00423988,-0.00138005,0.0633212,0.867849,0.1472,0.76715,1616511339198328590
54.1037,0.00900037,0.427429,2.49497e-05,-0.00422609,-0.0013811,-0.000249006,-0.00868166,1.51257,-0.00403651,-0.1708,0,0.5343,361650,4.43641e+06,2443.03,0.141774,-0.0824472,0.223002,-2.42967e-05,0.000616773,-1.62102e-06,3.69311e-05,-0.00422643,-0.00138009,0.063269,0.8679,0.1472,0.76715,1616511339208294181
54.1056,0.00897903,0.427346,2.44936e-05,-0.00421828,-0.00138111,-0.000248546,-0.00873483,1.51256,-0.00403868,-0.1708,0,0.5343,361650,4.43641e+06,2443.02,0.142355,-0.082466,0.222396,-3.1658e-05,0.000621099,-2.02806e-06,3.65486e-05,-0.00421862,-0.00138012,0.063248,0.867923,0.1472,0.76715,1616511339218296419
54.1056,0.00897903,0.427346,2.44936e-05,-0.00421828,-0.00138111,-0.000248546,-0.00873483,1.51256,-0.0040396,-0.1708,0,0.5343,361650,4.43641e+06,2443.02,0.142355,-0.082466,0.222396,-3.1658e-05,0.000621099,-2.02806e-06,3.65486e-05,-0.00421862,-0.00138012,0.063248,0.867923,0.1472,0.76715,1616511339228324518
54.1075,0.00895799,0.427261,2.41743e-05,-0.00421024,-0.00138114,-0.000248078,-0.00878908,1.51254,-0.00403885,-0.1708,0,0.5343,361651,4.43641e+06,2443.01,0.142786,-0.0824769,0.22197,-2.29515e-05,0.000624355,-1.91671e-06,3.63044e-05,-0.00421059,-0.00138015,0.0632469,0.86794,0.1472,0.76715,1616511339238291632
54.1092,0.00894696,0.427184,2.38786e-05,-0.0042029,-0.00138117,-0.000247656,-0.00883831,1.51252,-0.00403979,-0.1708,0,0.5343,361652,4.43641e+06,2443,0.143202,-0.0824864,0.221547,-2.18159e-05,0.000627586,-2.68252e-06,3.60769e-05,-0.00420325,-0.00138019,0.0632379,0.867956,0.1472,0.76715,1616511339248288889
54.1108,0.0089183,0.427115,2.36369e-05,-0.00419634,-0.00138121,-0.000247282,-0.00888207,1.51251,-0.00404057,-0.1708,0,0.5343,361652,4.43641e+06,2443,0.143574,-0.082491,0.221167,-1.78825e-05,0.000630815,-5.10747e-06,3.58961e-05,-0.00419668,-0.00138023,0.0632305,0.867971,0.1472,0.76715,1616511339258288308
54.1124,0.00889856,0.427044,2.34414e-05,-0.00418963,-0.00138127,-0.000246904,-0.00892648,1.51249,-0.00404117,-0.1708,0,0.5343,361653,4.43641e+06,2442.99,0.143928,-0.0825003,0.220811,-1.59963e-05,0.000633599,-4.99596e-06,3.57624e-05,-0.00418997,-0.00138029,0.0632247,0.867985,0.1472,0.76715,1616511339268314391
54.1124,0.00889856,0.427044,2.34414e-05,-0.00418963,-0.00138127,-0.000246904,-0.00892648,1.51249,-0.00404179,-0.1708,0,0.5343,361653,4.43641e+06,2442.99,0.143928,-0.0825003,0.220811,-1.59963e-05,0.000633599,-4.99596e-06,3.57624e-05,-0.00418997,-0.00138029,0.0632247,0.867985,0.1472,0.76715,1616511339278321953
54.1149,0.00887237,0.426933,2.33293e-05,-0.00417887,-0.00138138,-0.0002463,-0.00899731,1.51247,-0.00404105,-0.1708,0,0.5343,361654,4.43641e+06,2442.98,0.144393,-0.0825033,0.220335,-3.15403e-06,0.000636298,-7.42222e-06,3.57491e-05,-0.00417921,-0.00138041,0.0632262,0.868004,0.147201,0.76715,1616511339288314744
54.1149,0.00887237,0.426933,2.33293e-05,-0.00417887,-0.00138138,-0.0002463,-0.00899731,1.51247,-0.00404248,-0.1708,0,0.5343,361654,4.43641e+06,2442.98,0.144393,-0.0825033,0.220335,-3.15403e-06,0.000636298,-7.42222e-06,3.57491e-05,-0.00417921,-0.00138041,0.0632262,0.868004,0.147201,0.76715,1616511339298350199
54.1181,0.00884555,0.426797,2.3267e-05,-0.00416549,-0.00138154,-0.000245552,-0.00908459,1.51244,-0.00404174,-0.1708,0,0.5343,361655,4.43641e+06,2442.97,0.145028,-0.0825172,0.219673,1.98513e-06,0.000639831,-7.74675e-06,3.58088e-05,-0.00416583,-0.00138057,0.0632194,0.868031,0.147201,0.76715,1616511339308320944
54.1198,0.00882772,0.426722,2.30931e-05,-0.00415827,-0.00138162,-0.000245152,-0.00913133,1.51243,-0.0040437,-0.1708,0,0.5343,361656,4.43641e+06,2442.96,0.145558,-0.0825369,0.219107,-1.29787e-05,0.000643129,-7.43979e-06,3.57001e-05,-0.00415861,-0.00138066,0.0631998,0.868053,0.147201,0.76715,1616511339318313311
54.1215,0.00881782,0.426647,2.29523e-05,-0.00415108,-0.00138172,-0.000244755,-0.00917758,1.51241,-0.00404441,-0.1708,0,0.5343,361656,4.43641e+06,2442.95,0.145929,-0.0825429,0.218718,-9.77623e-06,0.000646245,-9.11034e-06,3.56242e-05,-0.00415142,-0.00138076,0.063193,0.868069,0.147201,0.76715,1616511339328322992
54.1232,0.00879428,0.426571,2.25916e-05,-0.00414376,-0.00138181,-0.000244355,-0.0092245,1.5124,-0.0040451,-0.1708,0,0.5343,361657,4.43641e+06,2442.94,0.146301,-0.0825558,0.218268,-3.29925e-05,0.000647051,-7.8963e-06,3.53291e-05,-0.0041441,-0.00138085,0.0631863,0.868085,0.147202,0.76715,1616511339338323492
54.1251,0.00877814,0.426487,2.22267e-05,-0.00413568,-0.00138191,-0.000243918,-0.00927604,1.51238,-0.00404581,-0.1708,0,0.5343,361657,4.43641e+06,2442.93,0.146694,-0.0825641,0.217862,-2.55814e-05,0.000650119,-8.54602e-06,3.50363e-05,-0.00413601,-0.00138096,0.0631798,0.868101,0.147202,0.76715,1616511339348340664
54.1251,0.00877814,0.426487,2.22267e-05,-0.00413568,-0.00138191,-0.000243918,-0.00927604,1.51238,-0.00404665,-0.1708,0,0.5343,361657,4.43641e+06,2442.93,0.146694,-0.0825641,0.217862,-2.55814e-05,0.000650119,-8.54602e-06,3.50363e-05,-0.00413601,-0.00138096,0.0631798,0.868101,0.147202,0.76715,1616511339358347836
54.1272,0.00877376,0.426394,2.19721e-05,-0.00412672,-0.00138203,-0.00024344,-0.00933271,1.51236,-0.00404592,-0.1708,0,0.5343,361658,4.43641e+06,2442.93,0.147125,-0.0825739,0.217402,-1.52769e-05,0.000653121,-8.97455e-06,3.48612e-05,-0.00412706,-0.00138109,0.0631792,0.86812,0.147202,0.76715,1616511339368318716
54.1294,0.0087514,0.426302,2.17032e-05,-0.00411776,-0.00138213,-0.000242966,-0.00938907,1.51234,-0.00404691,-0.1708,0,0.5343,361659,4.43641e+06,2442.92,0.147575,-0.0825893,0.216918,-1.48189e-05,0.000656149,-7.4429e-06,3.46711e-05,-0.0041181,-0.00138119,0.0631696,0.868139,0.147202,0.76715,1616511339378349030
54.1294,0.0087514,0.426302,2.17032e-05,-0.00411776,-0.00138213,-0.000242966,-0.00938907,1.51234,-0.00404788,-0.1708,0,0.5343,361659,4.43641e+06,2442.92,0.147575,-0.0825893,0.216918,-1.48189e-05,0.000656149,-7.4429e-06,3.46711e-05,-0.0041181,-0.00138119,0.0631696,0.868139,0.147202,0.76715,1616511339388327418
54.1316,0.00873549,0.426202,2.14145e-05,-0.00410806,-0.00138224,-0.000242458,-0.00944964,1.51232,-0.00404716,-0.1708,0,0.5343,361660,4.43641e+06,2442.91,0.14804,-0.0826005,0.216409,-1.41517e-05,0.000658743,-7.86089e-06,3.44671e-05,-0.0041084,-0.0013813,0.0631602,0.86816,0.147202,0.76715,1616511339398353466
54.1337,0.00870503,0.426111,2.12792e-05,-0.00409919,-0.00138234,-0.000241997,-0.00950463,1.5123,-0.00404826,-0.1708,0,0.5343,361660,4.43641e+06,2442.9,0.148498,-0.082614,0.215914,-7.99199e-06,0.000662102,-7.78062e-06,3.44088e-05,-0.00409953,-0.00138141,0.0631568,0.86818,0.147203,0.76715,1616511339408288743
54.1358,0.00869199,0.426017,2.11334e-05,-0.00409,-0.00138247,-0.000241523,-0.0095613,1.51228,-0.00404919,-0.1708,0,0.5343,361661,4.43641e+06,2442.89,0.148939,-0.082622,0.215425,-7.64885e-06,0.000664878,-9.50716e-06,3.43426e-05,-0.00409033,-0.00138154,0.0631475,0.8682,0.147203,0.76715,1616511339418308298
54.1358,0.00869199,0.426017,2.11334e-05,-0.00409,-0.00138247,-0.000241523,-0.0095613,1.51228,-0.00405018,-0.1708,0,0.5343,361661,4.43641e+06,2442.89,0.148939,-0.082622,0.215425,-7.64885e-06,0.000664878,-9.50716e-06,3.43426e-05,-0.00409033,-0.00138154,0.0631475,0.8682,0.147203,0.76715,1616511339428343318
54.1379,0.00867942,0.425926,2.10333e-05,-0.00408102,-0.00138258,-0.000241061,-0.00961626,1.51226,-0.00404945,-0.1708,0,0.5343,361662,4.43641e+06,2442.88,0.149381,-0.0826369,0.214943,3.90241e-07,0.000667459,-8.3825e-06,3.43195e-05,-0.00408136,-0.00138166,0.0631452,0.86822,0.147203,0.76715,1616511339438354161
54.1402,0.00866582,0.425829,2.09338e-05,-0.00407149,-0.00138268,-0.000240573,-0.00967427,1.51224,-0.00405039,-0.1708,0,0.5343,361663,4.43641e+06,2442.87,0.149828,-0.0826536,0.214439,-4.64413e-06,0.000670108,-6.37446e-06,3.43012e-05,-0.00407182,-0.00138177,0.0631359,0.86824,0.147203,0.76715,1616511339448357150
54.1422,0.00865716,0.425738,2.08139e-05,-0.0040626,-0.00138277,-0.00024012,-0.00972802,1.51223,-0.00405142,-0.1708,0,0.5343,361663,4.43641e+06,2442.86,0.150269,-0.082667,0.21394,-7.69447e-06,0.000672802,-6.11038e-06,3.42565e-05,-0.00406294,-0.00138186,0.0631256,0.868261,0.147204,0.76715,1616511339458340531
54.1422,0.00865716,0.425738,2.08139e-05,-0.0040626,-0.00138277,-0.00024012,-0.00972802,1.51223,-0.00405233,-0.1708,0,0.5343,361663,4.43641e+06,2442.86,0.150269,-0.082667,0.21394,-7.69447e-06,0.000672802,-6.11038e-06,3.42565e-05,-0.00406294,-0.00138186,0.0631256,0.868261,0.147204,0.76715,1616511339468290327
54.1446,0.00864197,0.425634,2.07746e-05,-0.00405221,-0.00138286,-0.000239592,-0.00979048,1.51221,-0.00405162,-0.1708,0,0.5343,361664,4.43641e+06,2442.85,0.150728,-0.0826802,0.213425,1.3791e-06,0.000675493,-5.49353e-06,3.43044e-05,-0.00405254,-0.00138195,0.0631238,0.868282,0.147204,0.76715,1616511339478319367
54.1446,0.00864197,0.425634,2.07746e-05,-0.00405221,-0.00138286,-0.000239592,-0.00979048,1.51221,-0.0040528,-0.1708,0,0.5343,361664,4.43641e+06,2442.85,0.150728,-0.0826802,0.213425,1.3791e-06,0.000675493,-5.49353e-06,3.43044e-05,-0.00405254,-0.00138195,0.0631238,0.868282,0.147204,0.76715,1616511339488347002
54.1483,0.00862774,0.425478,2.0809e-05,-0.00403646,-0.00138296,-0.000238792,-0.00988455,1.51217,-0.00405208,-0.1708,0,0.5343,361666,4.43641e+06,2442.83,0.151349,-0.0826981,0.212721,4.83825e-06,0.00067706,-3.68602e-06,3.44699e-05,-0.00403679,-0.00138206,0.0631192,0.868312,0.147204,0.76715,1616511339498323040
54.1483,0.00862774,0.425478,2.0809e-05,-0.00403646,-0.00138296,-0.000238792,-0.00988455,1.51217,-0.00405424,-0.1708,0,0.5343,361666,4.43641e+06,2442.83,0.151349,-0.0826981,0.212721,4.83825e-06,0.00067706,-3.68602e-06,3.44699e-05,-0.00403679,-0.00138206,0.0631192,0.868312,0.147204,0.76715,1616511339508322060
54.1504,0.00860871,0.425388,2.06374e-05,-0.00402751,-0.001383,-0.00023834,-0.00993765,1.51215,-0.00405353,-0.1708,0,0.5343,361666,4.43641e+06,2442.82,0.151923,-0.0827217,0.212045,-9.44456e-06,0.000679731,-2.89856e-06,3.43721e-05,-0.00402784,-0.00138211,0.0630976,0.86834,0.147204,0.76715,1616511339518284983
54.1524,0.00858837,0.425302,2.05634e-05,-0.0040191,-0.00138303,-0.000237915,-0.00998728,1.51214,-0.00405444,-0.1708,0,0.5343,361667,4.43641e+06,2442.81,0.152326,-0.0827327,0.211579,-3.3061e-06,0.000682097,-3.2279e-06,3.43671e-05,-0.00401943,-0.00138215,0.0630957,0.86836,0.147204,0.76715,1616511339528316401
54.1524,0.00858837,0.425302,2.05634e-05,-0.0040191,-0.00138303,-0.000237915,-0.00998728,1.51214,-0.00405525,-0.1708,0,0.5343,361667,4.43641e+06,2442.81,0.152326,-0.0827327,0.211579,-3.3061e-06,0.000682097,-3.2279e-06,3.43671e-05,-0.00401943,-0.00138215,0.0630957,0.86836,0.147204,0.76715,1616511339538285508
54.1556,0.00857973,0.425163,2.05927e-05,-0.00400505,-0.00138309,-0.000237208,-0.0100697,1.51211,-0.00405454,-0.1708,0,0.5343,361668,4.43641e+06,2442.8,0.152848,-0.0827469,0.210973,4.01491e-06,0.000683971,-2.01508e-06,3.45109e-05,-0.00400538,-0.00138221,0.0630948,0.868385,0.147204,0.76715,1616511339548307797
54.1574,0.00856075,0.425085,2.04904e-05,-0.00399732,-0.0013831,-0.00023682,-0.0101148,1.51209,-0.00405637,-0.1708,0,0.5343,361669,4.43641e+06,2442.79,0.153342,-0.0827677,0.210374,-6.28037e-06,0.00068657,-1.2365e-06,3.44711e-05,-0.00399764,-0.00138222,0.0630764,0.86841,0.147204,0.76715,1616511339558318672
54.1592,0.00855162,0.425008,2.03958e-05,-0.00398971,-0.00138313,-0.00023644,-0.0101589,1.51208,-0.00405706,-0.1708,0,0.5343,361669,4.43641e+06,2442.78,0.153692,-0.0827753,0.209967,-6.89902e-06,0.000688756,-2.42535e-06,3.44378e-05,-0.00399004,-0.00138225,0.0630697,0.868427,0.147205,0.76715,1616511339568376537
54.1609,0.00853795,0.424932,2.0301e-05,-0.00398217,-0.00138314,-0.000236065,-0.0102025,1.51206,-0.00405772,-0.1708,0,0.5343,361670,4.43641e+06,2442.77,0.154034,-0.0827859,0.209554,-5.22049e-06,0.000690488,-2.10225e-06,3.44034e-05,-0.0039825,-0.00138227,0.0630632,0.868444,0.147205,0.76715,1616511339578344064
54.1609,0.00853795,0.424932,2.0301e-05,-0.00398217,-0.00138314,-0.000236065,-0.0102025,1.51206,-0.00405836,-0.1708,0,0.5343,361670,4.43641e+06,2442.77,0.154034,-0.0827859,0.209554,-5.22049e-06,0.000690488,-2.10225e-06,3.44034e-05,-0.0039825,-0.00138227,0.0630632,0.868444,0.147205,0.76715,1616511339588285623
54.1633,0.00852485,0.42483,2.02106e-05,-0.00397198,-0.00138316,-0.00023556,-0.010261,1.51204,-0.00405765,-0.1708,0,0.5343,361671,4.43641e+06,2442.76,0.154436,-0.0827982,0.209087,2.24438e-06,0.000692537,-1.13565e-06,3.4394e-05,-0.00397231,-0.0013823,0.0630641,0.868464,0.147205,0.76715,1616511339598326736
54.1633,0.00852485,0.42483,2.02106e-05,-0.00397198,-0.00138316,-0.00023556,-0.010261,1.51204,-0.00405877,-0.1708,0,0.5343,361671,4.43641e+06,2442.76,0.154436,-0.0827982,0.209087,2.24438e-06,0.000692537,-1.13565e-06,3.4394e-05,-0.00397231,-0.0013823,0.0630641,0.868464,0.147205,0.76715,1616511339608335917
54.1679,0.00849557,0.424638,2.03457e-05,-0.00395212,-0.00138314,-0.000234572,-0.0103744,1.512,-0.00405806,-0.1708,0,0.5343,361672,4.43641e+06,2442.74,0.155113,-0.0828147,0.208269,1.00812e-05,0.000693334,1.92629e-07,3.46859e-05,-0.00395244,-0.00138229,0.06306,0.868499,0.147205,0.76715,1616511339618371386
54.17,0.00849203,0.424551,2.01461e-05,-0.00394342,-0.00138313,-0.000234139,-0.0104237,1.51199,-0.00406091,-0.1708,0,0.5343,361673,4.43641e+06,2442.73,0.155739,-0.0828437,0.207479,-1.27203e-05,0.000695613,1.12446e-06,3.45543e-05,-0.00394375,-0.00138228,0.0630314,0.868532,0.147205,0.76715,1616511339628321705
54.1717,0.00847878,0.424475,1.99731e-05,-0.00393593,-0.0013831,-0.000233769,-0.010466,1.51197,-0.00406177,-0.1708,0,0.5343,361673,4.43641e+06,2442.72,0.156095,-0.0828571,0.207041,-1.3401e-05,0.000698052,1.93816e-06,3.44396e-05,-0.00393626,-0.00138226,0.063023,0.86855,0.147205,0.76715,1616511339638286897
54.1735,0.00846149,0.424398,1.98043e-05,-0.00392838,-0.00138307,-0.0002334,-0.0105085,1.51196,-0.0040624,-0.1708,0,0.5343,361674,4.43641e+06,2442.72,0.156424,-0.0828688,0.206634,-1.32679e-05,0.000700006,2.71443e-06,3.43292e-05,-0.00392871,-0.00138223,0.0630169,0.868567,0.147204,0.76715,1616511339648322266
54.1751,0.0084465,0.424327,1.96489e-05,-0.0039213,-0.00138305,-0.000233055,-0.0105481,1.51194,-0.00406303,-0.1708,0,0.5343,361675,4.43641e+06,2442.71,0.156743,-0.0828775,0.206242,-1.44611e-05,0.000701641,2.06586e-06,3.42283e-05,-0.00392163,-0.00138221,0.0630108,0.868583,0.147204,0.76715,1616511339658349438
54.1751,0.0084465,0.424327,1.96489e-05,-0.0039213,-0.00138305,-0.000233055,-0.0105481,1.51194,-0.00406357,-0.1708,0,0.5343,361675,4.43641e+06,2442.71,0.156743,-0.0828775,0.206242,-1.44611e-05,0.000701641,2.06586e-06,3.42283e-05,-0.00392163,-0.00138221,0.0630108,0.868583,0.147204,0.76715,1616511339668305322
54.1751,0.0084465,0.424327,1.96489e-05,-0.0039213,-0.00138305,-0.000233055,-0.0105481,1.51194,-0.00406287,-0.1708,0,0.5343,361675,4.43641e+06,2442.71,0.156743,-0.0828775,0.206242,-1.44611e-05,0.000701641,2.06586e-06,3.42283e-05,-0.00392163,-0.00138221,0.0630108,0.868583,0.147204,0.76715,1616511339678306614
54.1811,0.00842397,0.424083,1.99032e-05,-0.00389543,-0.00138289,-0.000231785,-0.0106919,1.51189,-0.00406217,-0.1708,0,0.5343,361677,4.43641e+06,2442.68,0.157466,-0.0828948,0.205337,1.19437e-05,0.000701041,5.39373e-06,3.46798e-05,-0.00389575,-0.00138207,0.0630195,0.868622,0.147204,0.76715,1616511339688355300
54.1811,0.00842397,0.424083,1.99032e-05,-0.00389543,-0.00138289,-0.000231785,-0.0106919,1.51189,-0.00406605,-0.1708,0,0.5343,361677,4.43641e+06,2442.68,0.157466,-0.0828948,0.205337,1.19437e-05,0.000701041,5.39373e-06,3.46798e-05,-0.00389575,-0.00138207,0.0630195,0.868622,0.147204,0.76715,1616511339698353586
54.1843,0.00841662,0.42395,1.96325e-05,-0.00388206,-0.00138275,-0.000231127,-0.0107659,1.51186,-0.00406535,-0.1708,0,0.5343,361678,4.43641e+06,2442.67,0.158301,-0.0829364,0.204244,-9.77629e-06,0.000703267,8.32678e-06,3.451e-05,-0.00388238,-0.00138193,0.0629875,0.868668,0.147204,0.76715,1616511339708305606
54.1843,0.00841662,0.42395,1.96325e-05,-0.00388206,-0.00138275,-0.000231127,-0.0107659,1.51186,-0.00406703,-0.1708,0,0.5343,361678,4.43641e+06,2442.67,0.158301,-0.0829364,0.204244,-2.54742e-05,0.000703994,8.45783e-06,3.451e-05,-0.00388238,-0.00138193,0.0629708,0.868684,0.147204,0.76715,1616511339718295554
54.1869,0.0084011,0.423838,1.9297e-05,-0.00387098,-0.00138261,-0.000230588,-0.0108269,1.51184,-0.00406634,-0.1708,0,0.5343,361678,4.43641e+06,2442.65,0.15882,-0.0829575,0.203568,-1.71876e-05,0.000705619,9.7711e-06,3.42572e-05,-0.0038713,-0.0013818,0.0629711,0.868696,0.147204,0.76715,1616511339728288288
54.1899,0.00839879,0.42371,1.90832e-05,-0.00385815,-0.00138242,-0.000229969,-0.0108969,1.51182,-0.00406759,-0.1708,0,0.5343,361679,4.43641e+06,2442.64,0.159326,-0.0829769,0.202917,-7.99609e-06,0.000707913,1.17045e-05,3.41382e-05,-0.00385847,-0.00138161,0.0629659,0.868723,0.147203,0.76715,1616511339738287653
54.1899,0.00839879,0.42371,1.90832e-05,-0.00385815,-0.00138242,-0.000229969,-0.0108969,1.51182,-0.00406912,-0.1708,0,0.5343,361679,4.43641e+06,2442.64,0.159326,-0.0829769,0.202917,-7.99609e-06,0.000707913,1.17045e-05,3.41382e-05,-0.00385847,-0.00138161,0.0629659,0.868723,0.147203,0.76715,1616511339748308767
54.1925,0.00837839,0.423598,1.89252e-05,-0.003847,-0.00138223,-0.000229435,-0.0109573,1.5118,-0.00406843,-0.1708,0,0.5343,361680,4.43641e+06,2442.63,0.159826,-0.0829934,0.20226,-5.33077e-06,0.000711369,1.12907e-05,3.40616e-05,-0.00384731,-0.00138143,0.0629576,0.86875,0.147203,0.76715,1616511339758287868
54.1942,0.00836345,0.423521,1.88e-05,-0.00383939,-0.0013821,-0.000229072,-0.0109983,1.51178,-0.00406967,-0.1708,0,0.5343,361681,4.43641e+06,2442.62,0.160214,-0.0830077,0.201744,-7.40906e-06,0.000713303,1.11952e-05,3.39918e-05,-0.0038397,-0.0013813,0.0629454,0.868771,0.147202,0.76715,1616511339768341728
54.196,0.00835303,0.423446,1.86834e-05,-0.003832,-0.00138197,-0.000228722,-0.011038,1.51177,-0.00407028,-0.1708,0,0.5343,361681,4.43641e+06,2442.61,0.160523,-0.0830223,0.201342,-9.81312e-06,0.000715345,1.29871e-05,3.39285e-05,-0.00383232,-0.00138118,0.0629394,0.868788,0.147202,0.76715,1616511339778290146
54.1977,0.00833949,0.423371,1.8584e-05,-0.00382463,-0.00138185,-0.000228374,-0.0110773,1.51175,-0.00407086,-0.1708,0,0.5343,361682,4.43641e+06,2442.6,0.160826,-0.08303,0.200944,-7.53915e-06,0.000717524,1.21126e-05,3.38822e-05,-0.00382494,-0.00138106,0.0629338,0.868804,0.147202,0.76715,1616511339788355891
54.2,0.00831689,0.423271,1.84509e-05,-0.00381468,-0.00138167,-0.000227906,-0.0111301,1.51173,-0.00407142,-0.1708,0,0.5343,361683,4.43641e+06,2442.59,0.16118,-0.0830426,0.200478,-6.2976e-06,0.000719648,1.32536e-05,3.38201e-05,-0.00381499,-0.00138089,0.0629283,0.868823,0.147202,0.76715,1616511339798354379
54.2,0.00831689,0.423271,1.84509e-05,-0.00381468,-0.00138167,-0.000227906,-0.0111301,1.51173,-0.00407242,-0.1708,0,0.5343,361683,4.43641e+06,2442.59,0.16118,-0.0830426,0.200478,-6.2976e-06,0.000719648,1.32536e-05,3.38201e-05,-0.00381499,-0.00138089,0.0629283,0.868823,0.147202,0.76715,1616511339808317653
54.2028,0.00830751,0.423149,1.8447e-05,-0.00380249,-0.00138146,-0.000227335,-0.0111945,1.51171,-0.00407174,-0.1708,0,0.5343,361684,4.43641e+06,2442.58,0.16163,-0.0830561,0.199877,-1.24706e-07,0.000721604,1.33552e-05,3.39027e-05,-0.0038028,-0.00138068,0.0629252,0.868848,0.147201,0.76715,1616511339818350968
54.205,0.00828928,0.423057,1.8355e-05,-0.00379335,-0.00138129,-0.000226908,-0.0112424,1.51169,-0.00407312,-0.1708,0,0.5343,361684,4.43641e+06,2442.57,0.162058,-0.0830712,0.1993,-3.66347e-06,0.000723633,1.28874e-05,3.38751e-05,-0.00379367,-0.00138052,0.0629115,0.868873,0.147201,0.76715,1616511339828368171
54.2067,0.00827742,0.422981,1.8268e-05,-0.00378583,-0.00138116,-0.000226558,-0.0112817,1.51168,-0.00407397,-0.1708,0,0.5343,361685,4.43641e+06,2442.56,0.162389,-0.0830843,0.19885,-5.13724e-06,0.000726587,1.33489e-05,3.38407e-05,-0.00378614,-0.00138039,0.062903,0.868891,0.1472,0.76715,1616511339838348784
54.2084,0.00827805,0.422907,1.82001e-05,-0.00377842,-0.00138102,-0.000226213,-0.0113202,1.51167,-0.00407455,-0.1708,0,0.5343,361685,4.43641e+06,2442.55,0.162686,-0.0830959,0.198443,-7.09228e-06,0.000727814,1.39695e-05,3.38246e-05,-0.00377873,-0.00138025,0.0628973,0.868908,0.1472,0.76715,1616511339848374907
54.2084,0.00827805,0.422907,1.82001e-05,-0.00377842,-0.00138102,-0.000226213,-0.0113202,1.51167,-0.00407512,-0.1708,0,0.5343,361685,4.43641e+06,2442.55,0.162686,-0.0830959,0.198443,-7.09228e-06,0.000727814,1.39695e-05,3.38246e-05,-0.00377873,-0.00138025,0.0628973,0.868908,0.1472,0.76715,1616511339858342270
54.2105,0.00825341,0.422816,1.81798e-05,-0.00376934,-0.00138084,-0.000225793,-0.0113672,1.51165,-0.00407444,-0.1708,0,0.5343,361686,4.43641e+06,2442.54,0.163012,-0.0831027,0.198001,8.02661e-06,0.0007297,1.27566e-05,3.3867e-05,-0.00376966,-0.00138008,0.0628986,0.868927,0.1472,0.76715,1616511339868321783
54.213,0.00823817,0.422709,1.81822e-05,-0.00375867,-0.00138063,-0.000225299,-0.0114221,1.51163,-0.00407527,-0.1708,0,0.5343,361687,4.43641e+06,2442.53,0.1634,-0.0831205,0.197468,3.9753e-06,0.000731439,1.50676e-05,3.39429e-05,-0.00375898,-0.00137987,0.0628901,0.868949,0.147199,0.76715,1616511339878290727
54.213,0.00823817,0.422709,1.81822e-05,-0.00375867,-0.00138063,-0.000225299,-0.0114221,1.51163,-0.00407638,-0.1708,0,0.5343,361687,4.43641e+06,2442.53,0.1634,-0.0831205,0.197468,3.9753e-06,0.000731439,1.50676e-05,3.39429e-05,-0.00375898,-0.00137987,0.0628901,0.868949,0.147199,0.76715,1616511339888347139
54.2165,0.00823265,0.422561,1.82837e-05,-0.00374344,-0.00138031,-0.000224592,-0.0115,1.5116,-0.0040757,-0.1708,0,0.5343,361688,4.43641e+06,2442.52,0.163908,-0.0831365,0.196766,7.48755e-06,0.000733106,1.58302e-05,3.41483e-05,-0.00374375,-0.00137956,0.0628858,0.868979,0.147199,0.76715,1616511339898357663
54.2184,0.00821777,0.422482,1.81998e-05,-0.00373559,-0.00138013,-0.000224227,-0.0115399,1.51158,-0.00407757,-0.1708,0,0.5343,361689,4.43641e+06,2442.51,0.164351,-0.0831573,0.19613,-4.27863e-06,0.000735432,1.62802e-05,3.41175e-05,-0.0037359,-0.00137939,0.062867,0.869005,0.147198,0.76715,1616511339908360218
54.2201,0.00820611,0.422407,1.81089e-05,-0.00372816,-0.00137995,-0.000223884,-0.0115775,1.51157,-0.00407821,-0.1708,0,0.5343,361689,4.43641e+06,2442.5,0.164644,-0.0831707,0.195722,-6.31693e-06,0.000737191,1.76163e-05,3.40764e-05,-0.00372847,-0.00137921,0.0628607,0.869022,0.147198,0.76715,1616511339918314099
54.2201,0.00820611,0.422407,1.81089e-05,-0.00372816,-0.00137995,-0.000223884,-0.0115775,1.51157,-0.00407878,-0.1708,0,0.5343,361689,4.43641e+06,2442.5,0.164644,-0.0831707,0.195722,-6.31693e-06,0.000737191,1.76163e-05,3.40764e-05,-0.00372847,-0.00137921,0.0628607,0.869022,0.147198,0.76715,1616511339928320224
54.2224,0.00819076,0.422309,1.80356e-05,-0.00371829,-0.00137972,-0.00022343,-0.0116273,1.51155,-0.0040781,-0.1708,0,0.5343,361690,4.43641e+06,2442.49,0.164976,-0.0831809,0.19526,-1.63974e-06,0.000739173,1.77555e-05,3.4069e-05,-0.00371859,-0.00137898,0.0628552,0.869042,0.147197,0.76715,1616511339938344772
54.2248,0.00817961,0.422204,1.80262e-05,-0.00370772,-0.00137945,-0.000222943,-0.0116803,1.51153,-0.00407907,-0.1708,0,0.5343,361691,4.43641e+06,2442.48,0.165365,-0.0831962,0.194705,1.24311e-06,0.000740395,1.86996e-05,3.41297e-05,-0.00370803,-0.00137872,0.0628523,0.869065,0.147197,0.76715,1616511339948330702
54.2272,0.00816192,0.422102,1.79529e-05,-0.00369741,-0.00137919,-0.000222471,-0.0117317,1.51151,-0.00408015,-0.1708,0,0.5343,361691,4.43641e+06,2442.47,0.165758,-0.0832126,0.194133,-2.48371e-06,0.000742386,1.97587e-05,3.41241e-05,-0.00369772,-0.00137846,0.0628415,0.869089,0.147196,0.76715,1616511339958353513
54.2272,0.00816192,0.422102,1.79529e-05,-0.00369741,-0.00137919,-0.000222471,-0.0117317,1.51151,-0.00408118,-0.1708,0,0.5343,361691,4.43641e+06,2442.47,0.165758,-0.0832126,0.194133,-2.48371e-06,0.000742386,1.97587e-05,3.41241e-05,-0.00369772,-0.00137846,0.0628415,0.869089,0.147196,0.76715,1616511339968336568
54.2297,0.00815295,0.421995,1.79947e-05,-0.0036866,-0.0013789,-0.000221974,-0.0117853,1.51149,-0.00408052,-0.1708,0,0.5343,361692,4.43641e+06,2442.45,0.166155,-0.0832275,0.193564,4.61821e-06,0.000743878,2.03621e-05,3.42366e-05,-0.00368691,-0.00137818,0.0628378,0.869113,0.147195,0.76715,1616511339978319110
54.232,0.00814556,0.421896,1.79491e-05,-0.00367663,-0.00137862,-0.000221517,-0.0118345,1.51147,-0.00408164,-0.1708,0,0.5343,361693,4.43641e+06,2442.44,0.166541,-0.0832426,0.192998,-2.33524e-06,0.000745862,2.0646e-05,3.42556e-05,-0.00367694,-0.00137791,0.0628265,0.869137,0.147195,0.76715,1616511339988313193
54.232,0.00814556,0.421896,1.79491e-05,-0.00367663,-0.00137862,-0.000221517,-0.0118345,1.51147,-0.00408262,-0.1708,0,0.5343,361693,4.43641e+06,2442.44,0.166541,-0.0832426,0.192998,-2.33524e-06,0.000745862,2.0646e-05,3.42556e-05,-0.00367694,-0.00137791,0.0628265,0.869137,0.147195,0.76715,1616511339998347307
54.2352,0.00812298,0.421761,1.80359e-05,-0.00366285,-0.00137823,-0.000220883,-0.0119022,1.51145,-0.00408196,-0.1708,0,0.5343,361694,4.43641e+06,2442.43,0.166982,-0.0832564,0.192352,1.00833e-05,0.000747234,2.07796e-05,3.4431e-05,-0.00366315,-0.00137752,0.0628234,0.869164,0.147194,0.76715,1616511340008288359
54.237,0.0081118,0.421683,1.79746e-05,-0.00365508,-0.00137801,-0.000220527,-0.0119401,1.51144,-0.00408358,-0.1708,0,0.5343,361694,4.43641e+06,2442.42,0.167375,-0.0832741,0.191764,-2.86355e-06,0.000749505,2.09291e-05,3.44192e-05,-0.00365539,-0.0013773,0.0628071,0.869189,0.147193,0.76715,1616511340018361290
54.2391,0.00809553,0.421592,1.79047e-05,-0.00364596,-0.00137774,-0.00022011,-0.0119844,1.51142,-0.00408419,-0.1708,0,0.5343,361695,4.43641e+06,2442.41,0.167683,-0.0832858,0.191307,-3.27186e-06,0.000751177,2.16124e-05,3.44073e-05,-0.00364626,-0.00137704,0.062801,0.869208,0.147193,0.76715,1616511340028332100
54.2391,0.00809553,0.421592,1.79047e-05,-0.00364596,-0.00137774,-0.00022011,-0.0119844,1.51142,-0.00408504,-0.1708,0,0.5343,361695,4.43641e+06,2442.41,0.167683,-0.0832858,0.191307,-3.27186e-06,0.000751177,2.16124e-05,3.44073e-05,-0.00364626,-0.00137704,0.062801,0.869208,0.147193,0.76715,1616511340038314282
54.2416,0.00808714,0.421485,1.79299e-05,-0.00363509,-0.00137742,-0.000219612,-0.012037,1.5114,-0.00408438,-0.1708,0,0.5343,361696,4.43641e+06,2442.4,0.168047,-0.0833005,0.19077,4.14276e-06,0.000752759,2.27268e-05,3.4501e-05,-0.00363539,-0.00137672,0.0627991,0.869231,0.147192,0.76715,1616511340048344826
54.2435,0.00808072,0.421406,1.79021e-05,-0.00362717,-0.00137718,-0.00021925,-0.0120751,1.51138,-0.00408551,-0.1708,0,0.5343,361697,4.43641e+06,2442.39,0.168385,-0.0833155,0.19026,1.64286e-07,0.000754635,2.31005e-05,3.45228e-05,-0.00362747,-0.00137648,0.0627878,0.869252,0.147192,0.76715,1616511340058312347
54.2453,0.0080679,0.421325,1.78433e-05,-0.0036191,-0.00137691,-0.000218883,-0.0121138,1.51137,-0.00408616,-0.1708,0,0.5343,361697,4.43641e+06,2442.38,0.168671,-0.0833289,0.18982,-1.26781e-06,0.000755747,2.44687e-05,3.45141e-05,-0.0036194,-0.00137622,0.0627814,0.869271,0.147191,0.76715,1616511340068308506
54.2479,0.008053,0.421217,1.77787e-05,-0.00360809,-0.00137656,-0.000218382,-0.0121663,1.51135,-0.00408682,-0.1708,0,0.5343,361698,4.43641e+06,2442.37,0.169012,-0.0833402,0.18931,-1.76883e-06,0.000757566,2.47029e-05,3.45175e-05,-0.00360839,-0.00137587,0.0627748,0.869292,0.14719,0.76715,1616511340078291614
54.2479,0.008053,0.421217,1.77787e-05,-0.00360809,-0.00137656,-0.000218382,-0.0121663,1.51135,-0.00408797,-0.1708,0,0.5343,361698,4.43641e+06,2442.37,0.169012,-0.0833402,0.18931,-1.76883e-06,0.000757566,2.47029e-05,3.45175e-05,-0.00360839,-0.00137587,0.0627748,0.869292,0.14719,0.76715,1616511340088330716
54.2504,0.00804595,0.421112,1.7768e-05,-0.00359743,-0.00137619,-0.000217896,-0.0122169,1.51133,-0.00408731,-0.1708,0,0.5343,361699,4.43641e+06,2442.36,0.169396,-0.0833609,0.18872,-1.1728e-07,0.00075928,2.73387e-05,3.4572e-05,-0.00359773,-0.00137551,0.0627699,0.869317,0.14719,0.76715,1616511340098332268
54.2529,0.00802939,0.421006,1.77132e-05,-0.00358665,-0.0013758,-0.000217408,-0.0122678,1.51131,-0.00408841,-0.1708,0,0.5343,361699,4.43641e+06,2442.35,0.169773,-0.0833768,0.188135,-2.41294e-06,0.000760884,2.82108e-05,3.45824e-05,-0.00358695,-0.00137512,0.0627589,0.869342,0.147189,0.76715,1616511340108358321
54.2529,0.00802939,0.421006,1.77132e-05,-0.00358665,-0.0013758,-0.000217408,-0.0122678,1.51131,-0.00408951,-0.1708,0,0.5343,361699,4.43641e+06,2442.35,0.169773,-0.0833768,0.188135,-2.41294e-06,0.000760884,2.82108e-05,3.45824e-05,-0.00358695,-0.00137512,0.0627589,0.869342,0.147189,0.76715,1616511340118319412
54.2555,0.00801082,0.420893,1.77105e-05,-0.00357524,-0.0013754,-0.000216891,-0.0123213,1.51129,-0.00408886,-0.1708,0,0.5343,361700,4.43641e+06,2442.33,0.170162,-0.0833875,0.187536,1.6198e-06,0.000762139,2.67512e-05,3.46485e-05,-0.00357554,-0.00137473,0.0627544,0.869367,0.147188,0.76715,1616511340128316613
54.2576,0.00800347,0.420802,1.76568e-05,-0.00356597,-0.00137506,-0.00021647,-0.0123647,1.51127,-0.00409008,-0.1708,0,0.5343,361701,4.43641e+06,2442.32,0.170519,-0.0834071,0.186971,-1.89806e-06,0.000764208,2.89215e-05,3.46503e-05,-0.00356626,-0.00137439,0.0627423,0.869391,0.147187,0.76715,1616511340138351971
54.2598,0.00799401,0.420709,1.76017e-05,-0.00355665,-0.00137472,-0.000216049,-0.012408,1.51126,-0.00409094,-0.1708,0,0.5343,361702,4.43641e+06,2442.31,0.17084,-0.0834172,0.186471,-1.85624e-06,0.000765737,2.81166e-05,3.46506e-05,-0.00355694,-0.00137405,0.0627337,0.869412,0.147186,0.76715,1616511340148364665
54.2598,0.00799401,0.420709,1.76017e-05,-0.00355665,-0.00137472,-0.000216049,-0.012408,1.51126,-0.0040918,-0.1708,0,0.5343,361702,4.43641e+06,2442.31,0.17084,-0.0834172,0.186471,-1.85624e-06,0.000765737,2.81166e-05,3.46506e-05,-0.00355694,-0.00137405,0.0627337,0.869412,0.147186,0.76715,1616511340158319742
54.2644,0.00795814,0.42052,1.77091e-05,-0.00353679,-0.00137395,-0.000215151,-0.0124998,1.51122,-0.00409116,-0.1708,0,0.5343,361703,4.43641e+06,2442.29,0.171345,-0.0834328,0.185672,1.0409e-05,0.000765625,2.90752e-05,3.48746e-05,-0.00353709,-0.00137329,0.0627316,0.869447,0.147185,0.76715,1616511340168347175
54.2665,0.00794708,0.420428,1.75603e-05,-0.00352766,-0.00137361,-0.000214736,-0.0125419,1.5112,-0.00409375,-0.1708,0,0.5343,361704,4.43641e+06,2442.28,0.171833,-0.0834555,0.18487,-8.6735e-06,0.000767536,2.83586e-05,3.47794e-05,-0.00352795,-0.00137296,0.0627056,0.869481,0.147184,0.76715,1616511340178345022
54.2684,0.00792999,0.420347,1.74251e-05,-0.00351946,-0.0013733,-0.000214367,-0.0125794,1.51119,-0.0040946,-0.1708,0,0.5343,361704,4.43641e+06,2442.27,0.172125,-0.083468,0.184395,-9.45735e-06,0.000769515,2.86233e-05,3.46919e-05,-0.00351975,-0.00137266,0.0626972,0.8695,0.147183,0.76715,1616511340188377926
54.2684,0.00792999,0.420347,1.74251e-05,-0.00351946,-0.0013733,-0.000214367,-0.0125794,1.51119,-0.00409528,-0.1708,0,0.5343,361704,4.43641e+06,2442.27,0.172125,-0.083468,0.184395,-9.45735e-06,0.000769515,2.86233e-05,3.46919e-05,-0.00351975,-0.00137266,0.0626972,0.8695,0.147183,0.76715,1616511340198349864
54.2705,0.00791879,0.420255,1.73345e-05,-0.00351027,-0.00137297,-0.000213954,-0.0126213,1.51117,-0.00409464,-0.1708,0,0.5343,361705,4.43641e+06,2442.26,0.172418,-0.0834774,0.183922,2.74142e-07,0.000771062,2.801e-05,3.46546e-05,-0.00351056,-0.00137232,0.062697,0.86952,0.147182,0.76715,1616511340208345574
