u,v,w,p,q,r,phi,theta,psi,roll_ctrl,pitch_ctrl,yaw_ctrl,throttle_ctrl,E,N,U,u_dot,v_dot,w_dot,p_dot,q_dot,r_dot,phi_dot,theta_dot,psi_dot,delta_a,delta_e,delta_r,delta_T,timestamp59.8468,-0.0138599,0.217067,0.000523028,0.0190989,0.000103188,0.00470338,0.0124511,1.52288,-0.00562973,-0.1706,0,0.5348,361495,4.43642e+06,2438.89,-0.299556,0.0132631,-1.26179,-0.00108854,-0.00452403,-0.00134282,0.000525431,0.0190982,0.000193031,0.0465514,0.924906,0.143873,0.7674,1616874013267097207
59.8468,-0.0138599,0.217067,0.000523028,0.0190989,0.000103188,0.00470338,0.0124511,1.52288,-0.00564405,-0.1706,0,0.5348,361495,4.43642e+06,2438.89,-0.299556,0.0132631,-1.26179,-0.00108854,-0.00452403,-0.00134282,0.000525431,0.0190982,0.000193031,0.0465514,0.924906,0.143873,0.7674,1616874013277043387
59.8402,-0.0143322,0.214671,0.000498718,0.019027,7.45725e-05,0.00471414,0.0128556,1.52289,-0.00564405,-0.1706,0,0.5348,361496,4.43642e+06,2438.91,-0.304108,0.014123,-1.25141,-0.00108172,-0.00303316,-0.0013478,0.00050083,0.0190265,0.000164281,0.0464435,0.923839,0.143938,0.7674,1616874013287038183
59.8402,-0.0143322,0.214671,0.000498718,0.019027,7.45725e-05,0.00471414,0.0128556,1.52289,-0.00565697,-0.1706,0,0.5348,361496,4.43642e+06,2438.91,-0.304108,0.014123,-1.25141,-0.00108172,-0.00303316,-0.0013478,0.00050083,0.0190265,0.000164281,0.0464435,0.923839,0.143938,0.7674,1616874013297044919
59.8332,-0.0147834,0.212348,0.000474073,0.0189816,4.51675e-05,0.00472467,0.0132708,1.52289,-0.00565697,-0.1706,0,0.5348,361498,4.43642e+06,2438.92,-0.308508,0.0149721,-1.24164,-0.0010612,-0.0017696,-0.001346,0.000475863,0.0189812,0.00013486,0.046349,0.922967,0.144002,0.7674,1616874013307038136
59.8293,-0.015015,0.211126,0.000460237,0.0189685,2.85025e-05,0.00473041,0.0135049,1.52289,-0.00566961,-0.1706,0,0.5348,361498,4.43642e+06,2438.93,-0.312071,0.0155252,-1.23434,-0.00109428,-0.000916993,-0.00135041,0.000461834,0.0189682,0.000118242,0.0462488,0.922397,0.144053,0.7674,1616874013317009379
59.8293,-0.015015,0.211126,0.000460237,0.0189685,2.85025e-05,0.00473041,0.0135049,1.52289,-0.00567649,-0.1706,0,0.5348,361498,4.43642e+06,2438.93,-0.312071,0.0155252,-1.23434,-0.00109428,-0.000916993,-0.00135041,0.000461834,0.0189682,0.000118242,0.0462488,0.922397,0.144053,0.7674,1616874013327034774
59.8239,-0.0153187,0.209559,0.000441563,0.018961,6.20596e-06,0.00473786,0.0138207,1.52289,-0.00567649,-0.1706,0,0.5348,361499,4.43642e+06,2438.95,-0.31492,0.0161031,-1.22835,-0.00107346,-0.00026561,-0.00133632,0.00044289,0.0189608,9.60495e-05,0.0462033,0.921993,0.144097,0.7674,1616874013337041677
59.8198,-0.0155235,0.208472,0.000427949,0.0189633,-1.02325e-05,0.00474321,0.0140551,1.52289,-0.00568544,-0.1706,0,0.5348,361500,4.43642e+06,2438.96,-0.317847,0.0165846,-1.22266,-0.00107077,0.000300281,-0.00132645,0.00042907,0.0189632,7.97222e-05,0.0461363,0.921652,0.14414,0.7674,1616874013347037775
59.8198,-0.0155235,0.208472,0.000427949,0.0189633,-1.02325e-05,0.00474321,0.0140551,1.52289,-0.00569185,-0.1706,0,0.5348,361500,4.43642e+06,2438.96,-0.317847,0.0165846,-1.22266,-0.00112373,0.000519661,-0.00131721,0.00042907,0.0189632,7.97222e-05,0.0460814,0.921527,0.144158,0.7674,1616874013357012905
59.8156,-0.0157237,0.207415,0.000414034,0.0189713,-2.69598e-05,0.00474854,0.0142969,1.52289,-0.00569185,-0.1706,0,0.5348,361501,4.43642e+06,2438.97,-0.320314,0.017028,-1.21794,-0.00105971,0.000734199,-0.0013075,0.000414937,0.0189712,6.31328e-05,0.0460916,0.921407,0.144176,0.7674,1616874013367039764
59.812,-0.0158779,0.206565,0.000402833,0.0189824,-4.11121e-05,0.00475298,0.0145039,1.52289,-0.00569825,-0.1706,0,0.5348,361502,4.43642e+06,2438.98,-0.32265,0.0174222,-1.21368,-0.00106,0.00109232,-0.00129215,0.000403545,0.0189824,4.9116e-05,0.0460448,0.921215,0.144211,0.7674,1616874013377043499
59.8075,-0.0160701,0.205568,0.000388267,0.0190006,-5.85193e-05,0.00475834,0.0147635,1.5229,-0.00570357,-0.1706,0,0.5348,361502,4.43642e+06,2439,-0.32501,0.0178714,-1.20943,-0.00102985,0.00142248,-0.00126863,0.000388738,0.0190007,3.18958e-05,0.0460104,0.921051,0.144246,0.7674,1616874013387033400
59.8075,-0.0160701,0.205568,0.000388267,0.0190006,-5.85193e-05,0.00475834,0.0147635,1.5229,-0.00571001,-0.1706,0,0.5348,361502,4.43642e+06,2439,-0.32501,0.0178714,-1.20943,-0.00102985,0.00142248,-0.00126863,0.000388738,0.0190007,3.18958e-05,0.0460104,0.921051,0.144246,0.7674,1616874013397041279
59.7986,-0.0163752,0.203861,0.000361121,0.0190459,-9.07802e-05,0.00476796,0.015262,1.5229,-0.00571001,-0.1706,0,0.5348,361504,4.43642e+06,2439.02,-0.328723,0.0186702,-1.20289,-0.00096442,0.00187606,-0.00121946,0.000361122,0.0190461,3.07579e-08,0.0459767,0.92085,0.144301,0.7674,1616874013407004532
59.7986,-0.0163752,0.203861,0.000361121,0.0190459,-9.07802e-05,0.00476796,0.015262,1.5229,-0.00572156,-0.1706,0,0.5348,361504,4.43642e+06,2439.02,-0.328723,0.0186702,-1.20289,-0.00096442,0.00187606,-0.00121946,0.000361122,0.0190461,3.07579e-08,0.0459767,0.92085,0.144301,0.7674,1616874013417060355
59.7933,-0.0165362,0.202994,0.000345583,0.0190795,-0.000109282,0.00477338,0.0155581,1.5229,-0.00572156,-0.1706,0,0.5348,361505,4.43642e+06,2439.04,-0.332849,0.0192447,-1.19666,-0.000969341,0.00221654,-0.00118362,0.0003453,0.0190798,-1.82101e-05,0.0458903,0.920728,0.144357,0.7674,1616874013427051204
59.7887,-0.0166483,0.20233,0.000332508,0.0191108,-0.000124714,0.00477785,0.0158124,1.5229,-0.00572806,-0.1706,0,0.5348,361506,4.43642e+06,2439.05,-0.335622,0.0196859,-1.19267,-0.000956043,0.00238787,-0.00115085,0.00033198,0.0191112,-3.34088e-05,0.0458454,0.920692,0.144395,0.7674,1616874013437014250
59.7842,-0.0167575,0.201747,0.000319834,0.0191433,-0.000139467,0.00478207,0.0160632,1.52289,-0.00573342,-0.1706,0,0.5348,361507,4.43642e+06,2439.06,-0.338128,0.020102,-1.18921,-0.000941289,0.00250357,-0.00111705,0.000319064,0.0191437,-4.79273e-05,0.04581,0.920688,0.144428,0.7674,1616874013447046424
59.7842,-0.0167575,0.201747,0.000319834,0.0191433,-0.000139467,0.00478207,0.0160632,1.52289,-0.00573849,-0.1706,0,0.5348,361507,4.43642e+06,2439.06,-0.338128,0.020102,-1.18921,-0.000941289,0.00250357,-0.00111705,0.000319064,0.0191437,-4.79273e-05,0.04581,0.920688,0.144428,0.7674,1616874013457051319
59.7793,-0.0168517,0.2012,0.00030658,0.0191791,-0.000154739,0.00478639,0.0163314,1.52289,-0.00573849,-0.1706,0,0.5348,361507,4.43642e+06,2439.08,-0.340676,0.0205435,-1.18589,-0.000919078,0.00258336,-0.00108341,0.000305552,0.0191797,-6.29473e-05,0.0457777,0.920709,0.144462,0.7674,1616874013467071165
59.7793,-0.0168517,0.2012,0.00030658,0.0191791,-0.000154739,0.00478639,0.0163314,1.52289,-0.00574367,-0.1706,0,0.5348,361507,4.43642e+06,2439.08,-0.340676,0.0205435,-1.18589,-0.000919078,0.00258336,-0.00108341,0.000305552,0.0191797,-6.29473e-05,0.0457777,0.920709,0.144462,0.7674,1616874013477070258
59.7716,-0.0169881,0.200493,0.000286365,0.0192363,-0.00017739,0.0047927,0.0167498,1.52289,-0.00574367,-0.1706,0,0.5348,361509,4.43642e+06,2439.1,-0.343948,0.021178,-1.18181,-0.000879609,0.00263873,-0.00102741,0.000284938,0.0192369,-8.52067e-05,0.0457501,0.92077,0.144504,0.7674,1616874013487041268
59.7675,-0.017047,0.200191,0.000275985,0.0192668,-0.000188902,0.0047959,0.0169724,1.52289,-0.00575124,-0.1706,0,0.5348,361509,4.43642e+06,2439.11,-0.34718,0.0215798,-1.17832,-0.000880539,0.00263676,-0.000986978,0.000274347,0.0192675,-9.65129e-05,0.0456953,0.920857,0.144542,0.7674,1616874013497036063
59.7634,-0.0170904,0.199933,0.000265729,0.0192972,-0.000200103,0.004799,0.0171967,1.52289,-0.00575509,-0.1706,0,0.5348,361510,4.43642e+06,2439.13,-0.349337,0.0219358,-1.17605,-0.000862838,0.00261082,-0.000954458,0.00026388,0.019298,-0.00010751,0.0456715,0.920932,0.144567,0.7674,1616874013507041606
59.7592,-0.0171243,0.199722,0.000255733,0.0193269,-0.000210801,0.00480195,0.0174194,1.52289,-0.0057588,-0.1706,0,0.5348,361511,4.43642e+06,2439.14,-0.351487,0.0222809,-1.17391,-0.000849017,0.00256694,-0.000918816,0.000253678,0.0193277,-0.000118009,0.0456487,0.921017,0.144591,0.7674,1616874013517037396
59.7592,-0.0171243,0.199722,0.000255733,0.0193269,-0.000210801,0.00480195,0.0174194,1.52289,-0.00576234,-0.1706,0,0.5348,361511,4.43642e+06,2439.14,-0.351487,0.0222809,-1.17391,-0.000849017,0.00256694,-0.000918816,0.000253678,0.0193277,-0.000118009,0.0456487,0.921017,0.144591,0.7674,1616874013527041837
59.7551,-0.0171561,0.199557,0.000246078,0.0193556,-0.000220951,0.00480475,0.017639,1.52289,-0.00576234,-0.1706,0,0.5348,361511,4.43642e+06,2439.15,-0.353606,0.0226278,-1.17191,-0.00083112,0.00250743,-0.00088726,0.000243821,0.0193564,-0.00012797,0.0456272,0.921108,0.144614,0.7674,1616874013537030999
59.7551,-0.0171561,0.199557,0.000246078,0.0193556,-0.000220951,0.00480475,0.017639,1.52289,-0.00576569,-0.1706,0,0.5348,361511,4.43642e+06,2439.15,-0.353606,0.0226278,-1.17191,-0.00083112,0.00250743,-0.00088726,0.000243821,0.0193564,-0.00012797,0.0456272,0.921108,0.144614,0.7674,1616874013547050087
59.7457,-0.0172197,0.199324,0.000224492,0.019418,-0.000242498,0.00481059,0.0181384,1.52288,-0.00576569,-0.1706,0,0.5348,361513,4.43642e+06,2439.18,-0.356867,0.0233294,-1.16896,-0.00079052,0.002379,-0.000819056,0.000221787,0.019419,-0.000149108,0.0456166,0.921273,0.14465,0.7674,1616874013557073316
59.7408,-0.0172302,0.199278,0.000214039,0.0194474,-0.000252738,0.0048134,0.0183937,1.52288,-0.00577271,-0.1706,0,0.5348,361514,4.43642e+06,2439.2,-0.360582,0.0237728,-1.16608,-0.000778338,0.00220971,-0.000770287,0.000211111,0.0194484,-0.000159154,0.0455684,0.92146,0.144685,0.7674,1616874013567047384
59.7363,-0.0172458,0.199275,0.000204556,0.019473,-0.000261696,0.00481586,0.0186294,1.52288,-0.00577608,-0.1706,0,0.5348,361514,4.43642e+06,2439.21,-0.362903,0.0241292,-1.16438,-0.00076585,0.00208486,-0.000731178,0.000201428,0.0194741,-0.000167943,0.0455489,0.921585,0.144706,0.7674,1616874013577040878
59.7321,-0.0172462,0.199305,0.000195816,0.0194957,-0.000269749,0.00481809,0.0188519,1.52288,-0.00577904,-0.1706,0,0.5348,361515,4.43642e+06,2439.23,-0.365058,0.0244669,-1.16289,-0.000749828,0.00195961,-0.00069626,0.000192502,0.0194968,-0.000175845,0.0455321,0.921704,0.144725,0.7674,1616874013587115083
59.7321,-0.0172462,0.199305,0.000195816,0.0194957,-0.000269749,0.00481809,0.0188519,1.52288,-0.00578171,-0.1706,0,0.5348,361515,4.43642e+06,2439.23,-0.365058,0.0244669,-1.16289,-0.000749828,0.00195961,-0.00069626,0.000192502,0.0194968,-0.000175845,0.0455321,0.921704,0.144725,0.7674,1616874013597043081
59.7273,-0.0172359,0.199373,0.000186275,0.0195193,-0.000278217,0.00482043,0.0190992,1.52288,-0.00578171,-0.1706,0,0.5348,361516,4.43642e+06,2439.24,-0.367237,0.024829,-1.16145,-0.000734593,0.00182423,-0.000658029,0.000182758,0.0195204,-0.000184156,0.0455185,0.921827,0.144743,0.7674,1616874013607039701
59.7215,-0.0172209,0.199498,0.000175295,0.0195453,-0.000287735,0.00482309,0.0193967,1.52287,-0.00578452,-0.1706,0,0.5348,361517,4.43642e+06,2439.26,-0.369742,0.0252615,-1.15994,-0.000695445,0.00165723,-0.000614247,0.000171542,0.0195464,-0.0001935,0.045505,0.921969,0.144763,0.7674,1616874013617074848
59.7215,-0.0172209,0.199498,0.000175295,0.0195453,-0.000287735,0.00482309,0.0193967,1.52287,-0.00578771,-0.1706,0,0.5348,361517,4.43642e+06,2439.26,-0.369742,0.0252615,-1.15994,-0.000695445,0.00165723,-0.000614247,0.000171542,0.0195464,-0.0001935,0.045505,0.921969,0.144763,0.7674,1616874013627005940
59.7158,-0.0172115,0.199666,0.00016479,0.019568,-0.000296406,0.00482554,0.0196902,1.52287,-0.00578771,-0.1706,0,0.5348,361518,4.43642e+06,2439.28,-0.372482,0.0256917,-1.15836,-0.000682233,0.00147056,-0.000567559,0.000160812,0.0195692,-0.000202016,0.0454883,0.922122,0.144783,0.7674,1616874013637037368
59.709,-0.0171672,0.199913,0.000152618,0.0195914,-0.000305781,0.00482823,0.0200372,1.52287,-0.00579065,-0.1706,0,0.5348,361519,4.43642e+06,2439.3,-0.375407,0.026186,-1.15676,-0.000667642,0.00126343,-0.000515273,0.000148386,0.0195927,-0.000211229,0.045475,0.922285,0.144803,0.7674,1616874013647009630
59.709,-0.0171672,0.199913,0.000152618,0.0195914,-0.000305781,0.00482823,0.0200372,1.52287,-0.00579387,-0.1706,0,0.5348,361519,4.43642e+06,2439.3,-0.375407,0.026186,-1.15676,-0.000667642,0.00126343,-0.000515273,0.000148386,0.0195927,-0.000211229,0.045475,0.922285,0.144803,0.7674,1616874013656987366
59.7021,-0.0171328,0.200212,0.000140663,0.0196109,-0.000314242,0.00483071,0.0203874,1.52286,-0.00579387,-0.1706,0,0.5348,361520,4.43642e+06,2439.32,-0.378608,0.0266905,-1.15513,-0.000649045,0.00103319,-0.000461062,0.000136187,0.0196122,-0.00021955,0.0454599,0.922456,0.144823,0.7674,1616874013667013731
59.6972,-0.0170833,0.20045,0.000132541,0.019622,-0.000319657,0.00483235,0.020635,1.52286,-0.00579685,-0.1706,0,0.5348,361521,4.43642e+06,2439.34,-0.381403,0.0270647,-1.1538,-0.000632285,0.000835466,-0.00041955,0.000127901,0.0196233,-0.000224882,0.0454442,0.922596,0.144839,0.7674,1616874013677045468
59.6972,-0.0170833,0.20045,0.000132541,0.019622,-0.000319657,0.00483235,0.020635,1.52286,-0.00579882,-0.1706,0,0.5348,361521,4.43642e+06,2439.34,-0.381403,0.0270647,-1.1538,-0.000632285,0.000835466,-0.00041955,0.000127901,0.0196233,-0.000224882,0.0454442,0.922596,0.144839,0.7674,1616874013687039890
59.6895,-0.0170267,0.200851,0.000120152,0.0196354,-0.000326996,0.00483464,0.0210156,1.52285,-0.00579882,-0.1706,0,0.5348,361522,4.43642e+06,2439.37,-0.384191,0.0275767,-1.15253,-0.00061834,0.000628213,-0.000364264,0.000115274,0.0196367,-0.000232113,0.0454393,0.922735,0.144853,0.7674,1616874013697036906
59.6895,-0.0170267,0.200851,0.000120152,0.0196354,-0.000326996,0.00483464,0.0210156,1.52285,-0.00580157,-0.1706,0,0.5348,361522,4.43642e+06,2439.37,-0.384191,0.0275767,-1.15253,-0.00061834,0.000628213,-0.000364264,0.000115274,0.0196367,-0.000232113,0.0454393,0.922735,0.144853,0.7674,1616874013707035745
59.6844,-0.0169903,0.201143,0.00011222,0.0196414,-0.000331327,0.00483607,0.0212715,1.52285,-0.00580157,-0.1706,0,0.5348,361523,4.43642e+06,2439.38,-0.387155,0.0279653,-1.15123,-0.000598966,0.000421215,-0.000323499,0.000107192,0.0196427,-0.00023639,0.045426,0.922868,0.144866,0.7674,1616874013717070612
59.6796,-0.0169423,0.201424,0.000105171,0.019645,-0.00033488,0.00483728,0.0215055,1.52285,-0.00580328,-0.1706,0,0.5348,361523,4.43642e+06,2439.4,-0.389386,0.0283015,-1.15029,-0.000582805,0.00026525,-0.000289925,0.000100012,0.0196464,-0.000239904,0.0454196,0.922962,0.144874,0.7674,1616874013727078649
59.6796,-0.0169423,0.201424,0.000105171,0.019645,-0.00033488,0.00483728,0.0215055,1.52285,-0.00580473,-0.1706,0,0.5348,361523,4.43642e+06,2439.4,-0.389386,0.0283015,-1.15029,-0.000582805,0.00026525,-0.000289925,0.000100012,0.0196464,-0.000239904,0.0454196,0.922962,0.144874,0.7674,1616874013737041705
59.6726,-0.0168767,0.201857,9.4856e-05,0.0196474,-0.000339405,0.0048389,0.0218514,1.52284,-0.00580473,-0.1706,0,0.5348,361524,4.43642e+06,2439.42,-0.391942,0.0287718,-1.14924,-0.000568772,8.38668e-05,-0.000246153,8.95162e-05,0.0196488,-0.000244388,0.0454175,0.923067,0.144883,0.7674,1616874013747042798
59.6675,-0.0168367,0.20218,8.78008e-05,0.0196467,-0.000342109,0.00483996,0.0220982,1.52284,-0.00580668,-0.1706,0,0.5348,361525,4.43642e+06,2439.44,-0.39467,0.0291296,-1.14813,-0.000552732,-9.43884e-05,-0.000206705,8.23413e-05,0.0196481,-0.000247076,0.0454103,0.923165,0.144891,0.7674,1616874013757041930
59.6625,-0.0167871,0.202505,8.10552e-05,0.0196442,-0.000344368,0.00484091,0.0223407,1.52284,-0.00580795,-0.1706,0,0.5348,361526,4.43642e+06,2439.46,-0.396871,0.0294708,-1.14725,-0.000538254,-0.000237277,-0.000174851,7.54855e-05,0.0196456,-0.00024933,0.0454074,0.923239,0.144897,0.7674,1616874013767045040
59.6575,-0.0167443,0.202833,7.45584e-05,0.01964,-0.000346212,0.00484178,0.0225805,1.52284,-0.0058091,-0.1706,0,0.5348,361526,4.43642e+06,2439.48,-0.399035,0.0298059,-1.14639,-0.000523741,-0.00037362,-0.000143754,6.88871e-05,0.0196415,-0.00025118,0.0454053,0.923305,0.144901,0.7674,1616874013777078743
59.655,-0.0167151,0.202999,7.13558e-05,0.0196374,-0.000346999,0.00484218,0.0227,1.52283,-0.00581013,-0.1706,0,0.5348,361526,4.43642e+06,2439.49,-0.400109,0.0299742,-1.14597,-0.000525911,-0.000439492,-0.000129203,6.56365e-05,0.0196388,-0.000251973,0.0453995,0.923336,0.144903,0.7674,1616874013787011915
59.6525,-0.0166939,0.203165,6.82235e-05,0.0196343,-0.000347684,0.00484256,0.0228196,1.52283,-0.00581061,-0.1706,0,0.5348,361527,4.43642e+06,2439.49,-0.401179,0.0301364,-1.14556,-0.000514383,-0.000504178,-0.000112418,6.24583e-05,0.0196357,-0.000252665,0.0454041,0.923365,0.144905,0.7674,1616874013797064218
59.6477,-0.0166466,0.203489,6.2306e-05,0.0196273,-0.000348756,0.00484324,0.0230491,1.52283,-0.00581107,-0.1706,0,0.5348,361528,4.43642e+06,2439.51,-0.403278,0.030458,-1.14472,-0.000499381,-0.000626647,-8.47704e-05,5.64576e-05,0.0196288,-0.00025376,0.0454034,0.923416,0.144908,0.7674,1616874013807074739
59.6421,-0.016587,0.203863,5.56267e-05,0.0196177,-0.000349582,0.00484393,0.023313,1.52283,-0.00581188,-0.1706,0,0.5348,361529,4.43642e+06,2439.53,-0.405458,0.0308181,-1.14386,-0.00048901,-0.000750134,-5.42244e-05,4.96912e-05,0.0196191,-0.00025462,0.0454043,0.923465,0.14491,0.7674,1616874013817038829
59.6421,-0.016587,0.203863,5.56267e-05,0.0196177,-0.000349582,0.00484393,0.023313,1.52283,-0.00581271,-0.1706,0,0.5348,361529,4.43642e+06,2439.53,-0.405458,0.0308181,-1.14386,-0.00048901,-0.000750134,-5.42244e-05,4.96912e-05,0.0196191,-0.00025462,0.0454043,0.923465,0.14491,0.7674,1616874013827046707
59.6351,-0.0165186,0.204336,4.74243e-05,0.0196032,-0.000350002,0.00484466,0.0236448,1.52282,-0.00581271,-0.1706,0,0.5348,361530,4.43642e+06,2439.56,-0.40807,0.0312609,-1.1428,-0.000473904,-0.000891363,-1.57563e-05,4.13931e-05,0.0196047,-0.000255099,0.0454067,0.923514,0.144911,0.7674,1616874013837059914
59.6351,-0.0165186,0.204336,4.74243e-05,0.0196032,-0.000350002,0.00484466,0.0236448,1.52282,-0.00581359,-0.1706,0,0.5348,361530,4.43642e+06,2439.56,-0.40807,0.0312609,-1.1428,-0.000473904,-0.000891363,-1.57563e-05,4.13931e-05,0.0196047,-0.000255099,0.0454067,0.923514,0.144911,0.7674,1616874013847035905
59.6257,-0.0164169,0.20496,3.6852e-05,0.0195805,-0.000349558,0.00484541,0.0240843,1.52282,-0.00581359,-0.1706,0,0.5348,361531,4.43642e+06,2439.59,-0.411435,0.0318426,-1.14143,-0.000458954,-0.00106059,3.28796e-05,3.07171e-05,0.019582,-0.000254752,0.0454113,0.923564,0.144912,0.7674,1616874013857076317
59.6209,-0.0163746,0.205276,3.19901e-05,0.0195674,-0.000348918,0.00484571,0.0243034,1.52281,-0.00581449,-0.1706,0,0.5348,361532,4.43642e+06,2439.61,-0.414478,0.032168,-1.14013,-0.000432727,-0.00119543,6.36655e-05,2.58135e-05,0.0195688,-0.000254171,0.0454131,0.923595,0.14491,0.7674,1616874013867010174
59.6209,-0.0163746,0.205276,3.19901e-05,0.0195674,-0.000348918,0.00484571,0.0243034,1.52281,-0.00581486,-0.1706,0,0.5348,361532,4.43642e+06,2439.61,-0.414478,0.032168,-1.14013,-0.000430196,-0.00123751,7.58174e-05,2.58135e-05,0.0195688,-0.000254171,0.0454129,0.923603,0.144909,0.7674,1616874013877037427
59.6147,-0.0163299,0.205683,2.57944e-05,0.019549,-0.000347703,0.00484602,0.0245875,1.52281,-0.00581486,-0.1706,0,0.5348,361533,4.43642e+06,2439.63,-0.416665,0.032545,-1.13919,-0.000422678,-0.00129041,9.14653e-05,1.95734e-05,0.0195505,-0.00025304,0.0454174,0.923611,0.144908,0.7674,1616874013887041060
59.6089,-0.0162676,0.206061,2.02401e-05,0.0195305,-0.000346213,0.00484623,0.0248529,1.52281,-0.00581523,-0.1706,0,0.5348,361533,4.43642e+06,2439.65,-0.4191,0.0329085,-1.13812,-0.000407289,-0.0013876,0.000117393,1.39868e-05,0.0195319,-0.000251638,0.0454221,0.923621,0.144905,0.7674,1616874013897049302
59.6026,-0.0162024,0.206466,1.43702e-05,0.0195091,-0.000344185,0.00484637,0.0251396,1.5228,-0.00581548,-0.1706,0,0.5348,361534,4.43642e+06,2439.67,-0.42152,0.0332892,-1.13704,-0.000396888,-0.00147734,0.000145917,8.09323e-06,0.0195105,-0.000249712,0.0454277,0.923625,0.144901,0.7674,1616874013907048986
59.6002,-0.0161863,0.206621,1.21942e-05,0.0195005,-0.000343296,0.0048464,0.0252494,1.5228,-0.00581564,-0.1706,0,0.5348,361535,4.43642e+06,2439.68,-0.42282,0.0334448,-1.13645,-0.000380569,-0.00155479,0.000166874,5.91118e-06,0.019502,-0.000248864,0.0454334,0.923622,0.144897,0.7674,1616874013917069362
59.5977,-0.0161625,0.206775,1.00514e-05,0.0194918,-0.000342356,0.00484643,0.0253591,1.5228,-0.00581568,-0.1706,0,0.5348,361535,4.43642e+06,2439.69,-0.423786,0.0335945,-1.136,-0.000380569,-0.00155479,0.000166874,3.76384e-06,0.0194932,-0.000247967,0.0454334,0.923622,0.144897,0.7674,1616874013927070480
59.5917,-0.0161211,0.207151,4.85104e-06,0.0194695,-0.000339813,0.00484642,0.0256296,1.5228,-0.00581571,-0.1706,0,0.5348,361536,4.43642e+06,2439.71,-0.425909,0.0339545,-1.135,-0.000371959,-0.00162244,0.000187985,-1.44118e-06,0.0194709,-0.000245533,0.0454395,0.923614,0.144892,0.7674,1616874013937072885
59.5853,-0.0160795,0.207538,-4.07669e-07,0.0194452,-0.000336829,0.00484634,0.0259118,1.52279,-0.00581571,-0.1706,0,0.5348,361537,4.43642e+06,2439.74,-0.428328,0.0343321,-1.13382,-0.000359788,-0.00169221,0.000210817,-6.69496e-06,0.0194466,-0.000242669,0.045447,0.923598,0.144886,0.7674,1616874013947035978
59.5853,-0.0160795,0.207538,-4.07669e-07,0.0194452,-0.000336829,0.00484634,0.0259118,1.52279,-0.00581561,-0.1706,0,0.5348,361537,4.43642e+06,2439.74,-0.428328,0.0343321,-1.13382,-0.000359788,-0.00169221,0.000210817,-6.69496e-06,0.0194466,-0.000242669,0.045447,0.923598,0.144886,0.7674,1616874013957047847
59.5792,-0.0160404,0.207905,-5.32454e-06,0.0194209,-0.000333665,0.0048462,0.0261834,1.52279,-0.00581561,-0.1706,0,0.5348,361537,4.43642e+06,2439.76,-0.43076,0.0346999,-1.13262,-0.000347997,-0.00175692,0.000230744,-1.1598e-05,0.0194223,-0.000239626,0.0454552,0.923577,0.144879,0.7674,1616874013967043508
59.5726,-0.016014,0.208293,-1.04198e-05,0.0193938,-0.000329965,0.00484597,0.0264746,1.52279,-0.00581544,-0.1706,0,0.5348,361538,4.43642e+06,2439.78,-0.433208,0.0350894,-1.13136,-0.000334708,-0.00181521,0.000250426,-1.66688e-05,0.0193952,-0.000236062,0.0454641,0.923549,0.144871,0.7674,1616874013977057949
59.5672,-0.0159859,0.208602,-1.4282e-05,0.0193715,-0.000326805,0.00484574,0.0267081,1.52278,-0.00581516,-0.1706,0,0.5348,361539,4.43642e+06,2439.8,-0.435533,0.0354108,-1.13014,-0.00031862,-0.00186441,0.000265613,-2.05047e-05,0.0193729,-0.000233015,0.0454732,0.923519,0.144864,0.7674,1616874013987077996
59.5672,-0.0159859,0.208602,-1.4282e-05,0.0193715,-0.000326805,0.00484574,0.0267081,1.52278,-0.00581488,-0.1706,0,0.5348,361539,4.43642e+06,2439.8,-0.435533,0.0354108,-1.13014,-0.00031862,-0.00186441,0.000265613,-2.05047e-05,0.0193729,-0.000233015,0.0454732,0.923519,0.144864,0.7674,1616874013997036498
59.5609,-0.0159645,0.208953,-1.86883e-05,0.019345,-0.000322903,0.0048454,0.026979,1.52278,-0.00581488,-0.1706,0,0.5348,361540,4.43642e+06,2439.83,-0.437711,0.0357656,-1.12897,-0.000312422,-0.00190626,0.000283153,-2.48725e-05,0.0193463,-0.000229249,0.045482,0.923485,0.144856,0.7674,1616874014007074483
59.5545,-0.0159248,0.209308,-2.30666e-05,0.019317,-0.000318669,0.004845,0.0272577,1.52278,-0.00581448,-0.1706,0,0.5348,361541,4.43642e+06,2439.85,-0.440101,0.0361392,-1.12765,-0.00030311,-0.00194669,0.000297747,-2.92031e-05,0.0193184,-0.000225158,0.0454922,0.923444,0.144847,0.7674,1616874014017069842
59.5545,-0.0159248,0.209308,-2.30666e-05,0.019317,-0.000318669,0.004845,0.0272577,1.52278,-0.005814,-0.1706,0,0.5348,361541,4.43642e+06,2439.85,-0.440101,0.0361392,-1.12765,-0.00030311,-0.00194669,0.000297747,-2.92031e-05,0.0193184,-0.000225158,0.0454922,0.923444,0.144847,0.7674,1616874014027004492
59.5483,-0.0159233,0.209637,-2.69908e-05,0.0192903,-0.000314491,0.00484456,0.0275192,1.52277,-0.005814,-0.1706,0,0.5348,361542,4.43642e+06,2439.87,-0.44246,0.036493,-1.12631,-0.000286417,-0.00198121,0.000309823,-3.3075e-05,0.0192916,-0.000221118,0.0455031,0.923399,0.144838,0.7674,1616874014037006552
59.5483,-0.0159233,0.209637,-2.69908e-05,0.0192903,-0.000314491,0.00484456,0.0275192,1.52277,-0.00581348,-0.1706,0,0.5348,361542,4.43642e+06,2439.87,-0.44246,0.036493,-1.12631,-0.000286417,-0.00198121,0.000309823,-3.3075e-05,0.0192916,-0.000221118,0.0455031,0.923399,0.144838,0.7674,1616874014047079066
59.5395,-0.0158892,0.210095,-3.25708e-05,0.0192511,-0.000308161,0.00484383,0.0278962,1.52277,-0.00581348,-0.1706,0,0.5348,361543,4.43642e+06,2439.91,-0.445169,0.0369775,-1.12471,-0.000286594,-0.00201384,0.000328517,-3.85675e-05,0.0192523,-0.000214992,0.045515,0.923341,0.144826,0.7674,1616874014057069063
59.5394,-0.0157096,0.221019,-3.51139e-05,0.0192317,-0.000304947,0.00484344,0.0280797,1.52277,-0.0058126,-0.1706,0,0.5348,361543,4.43642e+06,2439.91,-0.44681,0.037221,-1.12372,-0.000266564,-0.00203041,0.000336885,-4.10627e-05,0.0192329,-0.00021188,0.0455278,0.923304,0.144819,0.7674,1616874014067011892
59.5307,-0.0158663,0.210531,-3.77045e-05,0.0192122,-0.00030165,0.00484303,0.028263,1.52277,-0.00581213,-0.1706,0,0.5348,361544,4.43642e+06,2439.94,-0.448402,0.037461,-1.12275,-0.000271533,-0.00204546,0.000345548,-4.36018e-05,0.0192134,-0.000208685,0.0455315,0.923267,0.144812,0.7674,1616874014077045973
59.5307,-0.0158663,0.210531,-3.77045e-05,0.0192122,-0.00030165,0.00484303,0.028263,1.52277,-0.00581163,-0.1706,0,0.5348,361544,4.43642e+06,2439.94,-0.448402,0.037461,-1.12275,-0.000271533,-0.00204546,0.000345548,-4.36018e-05,0.0192134,-0.000208685,0.0455315,0.923267,0.144812,0.7674,1616874014087018930
59.5202,-0.0158562,0.211034,-4.35611e-05,0.0191651,-0.000293494,0.00484194,0.0287002,1.52276,-0.00581163,-0.1706,0,0.5348,361545,4.43642e+06,2439.98,-0.451845,0.0380294,-1.12059,-0.00025871,-0.00206874,0.000361679,-4.93227e-05,0.0191663,-0.000200777,0.045549,0.92318,0.144796,0.7674,1616874014097070566
59.5202,-0.0158562,0.211034,-4.35611e-05,0.0191651,-0.000293494,0.00484194,0.0287002,1.52276,-0.00581032,-0.1706,0,0.5348,361545,4.43642e+06,2439.98,-0.451845,0.0380294,-1.12059,-0.00025871,-0.00206874,0.000361679,-4.93227e-05,0.0191663,-0.000200777,0.045549,0.92318,0.144796,0.7674,1616874014107041668
59.511,-0.0158536,0.211467,-4.82322e-05,0.0191235,-0.000286124,0.00484088,0.0290825,1.52276,-0.00581032,-0.1706,0,0.5348,361546,4.43642e+06,2440.02,-0.455417,0.0385414,-1.11827,-0.000235221,-0.0020865,0.000371668,-5.38626e-05,0.0191247,-0.000193628,0.0455697,0.923086,0.144778,0.7674,1616874014117071657
59.5055,-0.0158413,0.211723,-5.07411e-05,0.019099,-0.000281742,0.00484023,0.0293066,1.52275,-0.00580906,-0.1706,0,0.5348,361547,4.43642e+06,2440.04,-0.458119,0.0388567,-1.1165,-0.000216109,-0.00209912,0.000375064,-5.62903e-05,0.0191001,-0.000189377,0.0455876,0.923014,0.144765,0.7674,1616874014127042880
59.4996,-0.0158561,0.211994,-5.34249e-05,0.0190724,-0.000276916,0.00483949,0.0295476,1.52275,-0.00580827,-0.1706,0,0.5348,361548,4.43642e+06,2440.06,-0.460114,0.0391653,-1.11516,-0.000213121,-0.00210608,0.000383003,-5.88814e-05,0.0190735,-0.000184694,0.0455992,0.922958,0.144755,0.7674,1616874014137031838
59.4937,-0.0158621,0.212258,-5.596e-05,0.0190459,-0.000272103,0.00483873,0.0297862,1.52275,-0.00580739,-0.1706,0,0.5348,361549,4.43642e+06,2440.08,-0.46218,0.0394827,-1.11376,-0.000207128,-0.00211126,0.000385191,-6.13214e-05,0.019047,-0.000180022,0.0456117,0.922899,0.144744,0.7674,1616874014147070498
59.4937,-0.0158621,0.212258,-5.596e-05,0.0190459,-0.000272103,0.00483873,0.0297862,1.52275,-0.00580647,-0.1706,0,0.5348,361549,4.43642e+06,2440.08,-0.46218,0.0394827,-1.11376,-0.000207128,-0.00211126,0.000385191,-6.13214e-05,0.019047,-0.000180022,0.0456117,0.922899,0.144744,0.7674,1616874014157009049
59.487,-0.0158792,0.212552,-5.87911e-05,0.0190161,-0.000266624,0.00483783,0.030055,1.52275,-0.00580647,-0.1706,0,0.5348,361549,4.43642e+06,2440.11,-0.464345,0.0398342,-1.11225,-0.000201255,-0.00211447,0.00038795,-6.4041e-05,0.0190171,-0.000174704,0.0456248,0.922835,0.144733,0.7674,1616874014167070962
59.4797,-0.015902,0.212863,-6.17149e-05,0.0189838,-0.000260682,0.00483682,0.0303445,1.52274,-0.0058054,-0.1706,0,0.5348,361550,4.43642e+06,2440.14,-0.466731,0.0402125,-1.11057,-0.000195933,-0.00211529,0.00039006,-6.68404e-05,0.0189849,-0.000168936,0.0456396,0.922763,0.14472,0.7674,1616874014177011075
59.4797,-0.015902,0.212863,-6.17149e-05,0.0189838,-0.000260682,0.00483682,0.0303445,1.52274,-0.00580419,-0.1706,0,0.5348,361550,4.43642e+06,2440.14,-0.466731,0.0402125,-1.11057,-0.000195933,-0.00211529,0.00039006,-6.68404e-05,0.0189849,-0.000168936,0.0456396,0.922763,0.14472,0.7674,1616874014187038581
59.4741,-0.0159309,0.213102,-6.38447e-05,0.018959,-0.000256113,0.00483602,0.0305673,1.52274,-0.00580419,-0.1706,0,0.5348,361551,4.43642e+06,2440.16,-0.468965,0.0405153,-1.10897,-0.000184307,-0.00211583,0.000388704,-6.88723e-05,0.01896,-0.000164501,0.0456554,0.922696,0.144708,0.7674,1616874014197011351
59.4673,-0.0159666,0.213387,-6.63951e-05,0.0189288,-0.000250557,0.00483501,0.0308378,1.52274,-0.00580322,-0.1706,0,0.5348,361552,4.43642e+06,2440.19,-0.471053,0.0408658,-1.10746,-0.000182244,-0.00211347,0.000388936,-7.13009e-05,0.0189298,-0.00015911,0.0456684,0.92263,0.144697,0.7674,1616874014207041294
59.4608,-0.0159932,0.213655,-6.86689e-05,0.0189003,-0.000245331,0.00483402,0.0310931,1.52274,-0.00580201,-0.1706,0,0.5348,361553,4.43642e+06,2440.21,-0.473311,0.0412031,-1.1058,-0.000173982,-0.0021108,0.000387266,-7.34577e-05,0.0189012,-0.000154039,0.045684,0.922559,0.144685,0.7674,1616874014217040712
59.4608,-0.0159932,0.213655,-6.86689e-05,0.0189003,-0.000245331,0.00483402,0.0310931,1.52274,-0.00580083,-0.1706,0,0.5348,361553,4.43642e+06,2440.21,-0.473311,0.0412031,-1.1058,-0.000173982,-0.0021108,0.000387266,-7.34577e-05,0.0189012,-0.000154039,0.045684,0.922559,0.144685,0.7674,1616874014227093846
59.4526,-0.0160444,0.213981,-7.14581e-05,0.0188647,-0.00023883,0.00483276,0.0314114,1.52274,-0.00580083,-0.1706,0,0.5348,361554,4.43642e+06,2440.25,-0.475728,0.0416162,-1.10397,-0.000169873,-0.00210487,0.000383949,-7.60978e-05,0.0188657,-0.000147732,0.0456995,0.922481,0.144672,0.7674,1616874014237003324
59.4526,-0.0160444,0.213981,-7.14581e-05,0.0188647,-0.00023883,0.00483276,0.0314114,1.52274,-0.00579931,-0.1706,0,0.5348,361554,4.43642e+06,2440.25,-0.475728,0.0416162,-1.10397,-0.000169873,-0.00210487,0.000383949,-7.60978e-05,0.0188657,-0.000147732,0.0456995,0.922481,0.144672,0.7674,1616874014247033740
59.4426,-0.0161081,0.21437,-7.47521e-05,0.0188216,-0.000230994,0.00483115,0.0317984,1.52273,-0.00579931,-0.1706,0,0.5348,361555,4.43642e+06,2440.29,-0.478703,0.0421168,-1.10169,-0.000164875,-0.0020942,0.00037937,-7.92074e-05,0.0188225,-0.000140133,0.0457191,0.922383,0.144656,0.7674,1616874014257044238
59.4426,-0.0161081,0.21437,-7.47521e-05,0.0188216,-0.000230994,0.00483115,0.0317984,1.52273,-0.00579737,-0.1706,0,0.5348,361555,4.43642e+06,2440.29,-0.478703,0.0421168,-1.10169,-0.000164875,-0.0020942,0.00037937,-7.92074e-05,0.0188225,-0.000140133,0.0457191,0.922383,0.144656,0.7674,1616874014267057042
59.4325,-0.0161881,0.214754,-7.78135e-05,0.0187788,-0.000223296,0.00482947,0.0321845,1.52273,-0.00579737,-0.1706,0,0.5348,361556,4.43642e+06,2440.33,-0.482,0.0426222,-1.09913,-0.000153369,-0.00208195,0.000371839,-8.20827e-05,0.0187797,-0.000132671,0.045743,0.922275,0.144639,0.7674,1616874014277048477
59.4264,-0.0162412,0.214991,-7.94636e-05,0.0187531,-0.000218803,0.00482844,0.0324165,1.52273,-0.00579537,-0.1706,0,0.5348,361557,4.43642e+06,2440.35,-0.484713,0.0429445,-1.09701,-0.000138162,-0.00207537,0.000362009,-8.36226e-05,0.018754,-0.00012832,0.0457666,0.92219,0.144626,0.7674,1616874014287046830
59.4211,-0.0162825,0.215196,-8.07918e-05,0.018731,-0.00021499,0.00482754,0.0326169,1.52273,-0.00579413,-0.1706,0,0.5348,361558,4.43642e+06,2440.37,-0.486567,0.0432131,-1.09554,-0.000127333,-0.00207099,0.00035453,-8.48562e-05,0.0187318,-0.00012463,0.0457812,0.922131,0.144616,0.7674,1616874014297005342
59.4211,-0.0162825,0.215196,-8.07918e-05,0.018731,-0.00021499,0.00482754,0.0326169,1.52273,-0.00579304,-0.1706,0,0.5348,361558,4.43642e+06,2440.37,-0.486567,0.0432131,-1.09554,-0.000127333,-0.00207099,0.00035453,-8.48562e-05,0.0187318,-0.00012463,0.0457812,0.922131,0.144616,0.7674,1616874014307044247
59.4156,-0.0163426,0.215405,-8.21683e-05,0.0187083,-0.000211141,0.0048266,0.0328217,1.52273,-0.00579304,-0.1706,0,0.5348,361558,4.43642e+06,2440.39,-0.488286,0.043477,-1.09418,-0.00012879,-0.00206708,0.000350204,-8.61359e-05,0.0187091,-0.000120907,0.045794,0.922076,0.144608,0.7674,1616874014317034429
59.4097,-0.0163993,0.215633,-8.36068e-05,0.0186836,-0.000207024,0.00482555,0.0330457,1.52272,-0.00579192,-0.1706,0,0.5348,361559,4.43642e+06,2440.42,-0.490095,0.0437704,-1.09272,-0.000124693,-0.00206279,0.000342262,-8.747e-05,0.0186844,-0.000116927,0.0458073,0.922018,0.144599,0.7674,1616874014327073872
59.4027,-0.01647,0.215893,-8.52338e-05,0.0186551,-0.000202392,0.00482433,0.0333037,1.52272,-0.00579066,-0.1706,0,0.5348,361560,4.43642e+06,2440.45,-0.49212,0.0441064,-1.09108,-0.000121939,-0.00205625,0.00033286,-8.89782e-05,0.0186559,-0.000112454,0.045822,0.921952,0.144589,0.7674,1616874014337073046
59.4027,-0.01647,0.215893,-8.52338e-05,0.0186551,-0.000202392,0.00482433,0.0333037,1.52272,-0.0057892,-0.1706,0,0.5348,361560,4.43642e+06,2440.45,-0.49212,0.0441064,-1.09108,-0.000121939,-0.00205625,0.00033286,-8.89782e-05,0.0186559,-0.000112454,0.045822,0.921952,0.144589,0.7674,1616874014347066916
59.3949,-0.0165711,0.216185,-8.70668e-05,0.018623,-0.000197293,0.00482292,0.033596,1.52272,-0.0057892,-0.1706,0,0.5348,361561,4.43642e+06,2440.48,-0.494432,0.0444867,-1.08917,-0.000120654,-0.00204881,0.000321247,-9.06789e-05,0.0186237,-0.000107535,0.0458392,0.921877,0.144578,0.7674,1616874014357029315
59.3878,-0.0166354,0.216446,-8.85798e-05,0.0185945,-0.000192951,0.00482164,0.0338555,1.52272,-0.0057875,-0.1706,0,0.5348,361561,4.43642e+06,2440.51,-0.496783,0.0448286,-1.08724,-0.000117466,-0.002042,0.000309677,-9.20782e-05,0.0185952,-0.000103353,0.0458586,0.921802,0.144568,0.7674,1616874014367067586
59.3809,-0.0167267,0.216701,-9.00252e-05,0.0185668,-0.000188874,0.00482038,0.0341073,1.52272,-0.00578596,-0.1706,0,0.5348,361562,4.43642e+06,2440.54,-0.498947,0.0451613,-1.08544,-0.000109707,-0.00203646,0.000296551,-9.34159e-05,0.0185675,-9.94307e-05,0.0458762,0.921733,0.144559,0.7674,1616874014377028732
59.3809,-0.0167267,0.216701,-9.00252e-05,0.0185668,-0.000188874,0.00482038,0.0341073,1.52272,-0.00578445,-0.1706,0,0.5348,361562,4.43642e+06,2440.54,-0.498947,0.0451613,-1.08544,-0.000109707,-0.00203646,0.000296551,-9.34159e-05,0.0185675,-9.94307e-05,0.0458762,0.921733,0.144559,0.7674,1616874014387031031
59.3742,-0.0168058,0.216949,-9.13644e-05,0.01854,-0.000185074,0.00481913,0.0343524,1.52272,-0.00578445,-0.1706,0,0.5348,361563,4.43642e+06,2440.56,-0.501047,0.045482,-1.08368,-0.000104837,-0.00203185,0.000284433,-9.4654e-05,0.0185407,-9.57816e-05,0.0458933,0.921666,0.14455,0.7674,1616874014397038074
59.3661,-0.0169077,0.217243,-9.29432e-05,0.018508,-0.000180734,0.00481762,0.0346444,1.52271,-0.00578296,-0.1706,0,0.5348,361564,4.43642e+06,2440.6,-0.503286,0.0458577,-1.08178,-0.000104898,-0.00202548,0.000270745,-9.61167e-05,0.0185087,-9.16225e-05,0.0459104,0.921594,0.144541,0.7674,1616874014407014681
59.3661,-0.0169077,0.217243,-9.29432e-05,0.018508,-0.000180734,0.00481762,0.0346444,1.52271,-0.00578115,-0.1706,0,0.5348,361564,4.43642e+06,2440.6,-0.503286,0.0458577,-1.08178,-0.000104898,-0.00202548,0.000270745,-9.61167e-05,0.0185087,-9.16225e-05,0.0459104,0.921594,0.144541,0.7674,1616874014417008205
59.3585,-0.0169987,0.217521,-9.43715e-05,0.018478,-0.000176865,0.00481618,0.0349189,1.52271,-0.00578115,-0.1706,0,0.5348,361565,4.43642e+06,2440.63,-0.505681,0.0462128,-1.07974,-0.000104332,-0.00201964,0.000257046,-9.7441e-05,0.0184786,-8.79233e-05,0.0459307,0.921518,0.144532,0.7674,1616874014427021278
59.3508,-0.0171042,0.217799,-9.57311e-05,0.0184483,-0.000173224,0.00481473,0.0351912,1.52271,-0.00577941,-0.1706,0,0.5348,361566,4.43642e+06,2440.66,-0.507983,0.0465622,-1.07775,-9.88639e-05,-0.00201462,0.000243518,-9.87024e-05,0.0184489,-8.44513e-05,0.0459501,0.921445,0.144523,0.7674,1616874014437017821
59.3508,-0.0171042,0.217799,-9.57311e-05,0.0184483,-0.000173224,0.00481473,0.0351912,1.52271,-0.00577767,-0.1706,0,0.5348,361566,4.43642e+06,2440.66,-0.507983,0.0465622,-1.07775,-9.88639e-05,-0.00201462,0.000243518,-9.87024e-05,0.0184489,-8.44513e-05,0.0459501,0.921445,0.144523,0.7674,1616874014447042611
59.3409,-0.0172297,0.218155,-9.75172e-05,0.0184098,-0.000168822,0.00481282,0.0355434,1.52271,-0.00577767,-0.1706,0,0.5348,361567,4.43642e+06,2440.7,-0.510563,0.0470097,-1.0755,-0.000102673,-0.00200799,0.000225489,-0.00010037,0.0184104,-8.0268e-05,0.0459698,0.921362,0.144514,0.7674,1616874014457075809
59.3409,-0.0172297,0.218155,-9.75172e-05,0.0184098,-0.000168822,0.00481282,0.0355434,1.52271,-0.00577767,-0.1706,0,0.5348,361567,4.43642e+06,2440.7,-0.510563,0.0470097,-1.0755,-0.000111706,-0.00200488,0.000215686,-0.00010037,0.0184104,-8.0268e-05,0.0459712,0.921315,0.14451,0.7674,1616874014467046676
59.3341,-0.0173386,0.218405,-9.90201e-05,0.0183836,-0.000166052,0.00481149,0.0357843,1.52271,-0.00577538,-0.1706,0,0.5348,361568,4.43642e+06,2440.73,-0.513111,0.0473331,-1.0733,-0.000117701,-0.00200568,0.000207069,-0.000101798,0.0183841,-7.76482e-05,0.0459722,0.921284,0.144507,0.7674,1616874014477048653
59.3341,-0.0173386,0.218405,-9.90201e-05,0.0183836,-0.000166052,0.00481149,0.0357843,1.52271,-0.00577379,-0.1706,0,0.5348,361568,4.43642e+06,2440.73,-0.513111,0.0473331,-1.0733,-0.000117701,-0.00200568,0.000207069,-0.000101798,0.0183841,-7.76482e-05,0.0459722,0.921284,0.144507,0.7674,1616874014487021767
59.3228,-0.0175089,0.218808,-0.000100759,0.0183404,-0.000161876,0.00480927,0.0361802,1.52271,-0.00577379,-0.1706,0,0.5348,361569,4.43642e+06,2440.78,-0.515698,0.0478285,-1.07099,-8.93395e-05,-0.00199907,0.000186362,-0.000103426,0.0183409,-7.3719e-05,0.0460134,0.9212,0.144499,0.7674,1616874014497045103
59.3156,-0.0176003,0.219072,-0.000101734,0.0183131,-0.000159567,0.00480785,0.0364301,1.52271,-0.00577113,-0.1706,0,0.5348,361570,4.43642e+06,2440.81,-0.518476,0.0481616,-1.06854,-8.06681e-05,-0.00199778,0.000166018,-0.000104341,0.0183137,-7.15657e-05,0.0460421,0.921116,0.144492,0.7674,1616874014507067712
59.3087,-0.0177075,0.219325,-0.000102672,0.0182871,-0.000157564,0.00480649,0.036668,1.52271,-0.00576943,-0.1706,0,0.5348,361571,4.43642e+06,2440.84,-0.52052,0.0484687,-1.06672,-7.83305e-05,-0.00199835,0.000149067,-0.000105227,0.0182877,-6.97127e-05,0.0460606,0.921054,0.144487,0.7674,1616874014517002660
59.3087,-0.0177075,0.219325,-0.000102672,0.0182871,-0.000157564,0.00480649,0.036668,1.52271,-0.00576779,-0.1706,0,0.5348,361571,4.43642e+06,2440.84,-0.52052,0.0484687,-1.06672,-7.83305e-05,-0.00199835,0.000149067,-0.000105227,0.0182877,-6.97127e-05,0.0460606,0.921054,0.144487,0.7674,1616874014526981517
59.3006,-0.017826,0.219622,-0.000103777,0.0182566,-0.000155439,0.00480487,0.036947,1.52271,-0.00576779,-0.1706,0,0.5348,361571,4.43642e+06,2440.87,-0.522657,0.0488131,-1.06481,-8.01895e-05,-0.00199817,0.000135047,-0.000106281,0.0182572,-6.77635e-05,0.0460785,0.920988,0.144482,0.7674,1616874014537044338
59.2931,-0.0179375,0.219897,-0.00010476,0.0182285,-0.000153749,0.00480337,0.0372033,1.5227,-0.00576584,-0.1706,0,0.5348,361572,4.43642e+06,2440.9,-0.524902,0.0491441,-1.0628,-7.57914e-05,-0.00199943,0.000115529,-0.000107223,0.0182291,-6.62346e-05,0.0460995,0.92092,0.144478,0.7674,1616874014547009670
59.2869,-0.0180344,0.220126,-0.00010553,0.0182055,-0.000152552,0.00480213,0.0374129,1.5227,-0.00576404,-0.1706,0,0.5348,361573,4.43642e+06,2440.93,-0.526867,0.0494105,-1.06103,-7.47069e-05,-0.00200202,0.000101096,-0.000107967,0.018206,-6.51711e-05,0.0461189,0.920862,0.144475,0.7674,1616874014557005127
59.2869,-0.0180344,0.220126,-0.00010553,0.0182055,-0.000152552,0.00480213,0.0374129,1.5227,-0.00576255,-0.1706,0,0.5348,361573,4.43642e+06,2440.93,-0.526867,0.0494105,-1.06103,-7.47069e-05,-0.00200202,0.000101096,-0.000107967,0.018206,-6.51711e-05,0.0461189,0.920862,0.144475,0.7674,1616874014567007765
59.2799,-0.0181346,0.220387,-0.000106422,0.0181792,-0.000151382,0.0048007,0.0376519,1.5227,-0.00576255,-0.1706,0,0.5348,361574,4.43642e+06,2440.96,-0.528718,0.049709,-1.05935,-7.54255e-05,-0.00200428,8.53955e-05,-0.000108837,0.0181797,-6.4153e-05,0.0461349,0.920805,0.144472,0.7674,1616874014577007892
59.2724,-0.0182427,0.220663,-0.000107379,0.0181515,-0.000150357,0.00479918,0.0379025,1.5227,-0.00576084,-0.1706,0,0.5348,361575,4.43642e+06,2440.99,-0.530748,0.0500185,-1.05751,-7.69473e-05,-0.00200626,7.02344e-05,-0.000109777,0.018152,-6.3289e-05,0.0461535,0.920744,0.14447,0.7674,1616874014587038181
59.2687,-0.0182932,0.220802,-0.000107811,0.0181375,-0.000149926,0.00479842,0.0380285,1.5227,-0.00575902,-0.1706,0,0.5348,361575,4.43642e+06,2441.01,-0.531788,0.0501742,-1.05655,-6.21898e-05,-0.00200815,6.21614e-05,-0.000110203,0.0181381,-6.29382e-05,0.0461725,0.920712,0.144469,0.7674,1616874014597070233
59.2649,-0.0183517,0.220941,-0.000108348,0.0181236,-0.000149548,0.00479765,0.0381543,1.5227,-0.0057581,-0.1706,0,0.5348,361575,4.43642e+06,2441.02,-0.532835,0.0503293,-1.0556,-7.74536e-05,-0.00200998,5.44269e-05,-0.000110738,0.0181241,-6.26412e-05,0.0461731,0.920681,0.144468,0.7674,1616874014607066449
59.2572,-0.0184727,0.221229,-0.000109312,0.0180949,-0.000148956,0.00479606,0.0384126,1.5227,-0.00575718,-0.1706,0,0.5348,361576,4.43642e+06,2441.06,-0.534948,0.0506461,-1.05365,-7.75811e-05,-0.00201304,3.80547e-05,-0.000111702,0.0180954,-6.22163e-05,0.0461929,0.920617,0.144466,0.7674,1616874014617042930
59.2496,-0.0185816,0.221511,-0.000109981,0.0180668,-0.000148626,0.0047945,0.0386641,1.5227,-0.00575527,-0.1706,0,0.5348,361577,4.43642e+06,2441.09,-0.537065,0.0509595,-1.05175,-5.19023e-05,-0.00201951,2.0435e-05,-0.000112379,0.0180673,-6.20499e-05,0.0462133,0.920553,0.144465,0.7674,1616874014627008941
59.2496,-0.0185816,0.221511,-0.000109981,0.0180668,-0.000148626,0.0047945,0.0386641,1.5227,-0.0057534,-0.1706,0,0.5348,361577,4.43642e+06,2441.09,-0.537065,0.0509595,-1.05175,-5.19023e-05,-0.00201951,2.0435e-05,-0.000112379,0.0180673,-6.20499e-05,0.0462133,0.920553,0.144465,0.7674,1616874014637047595
59.2415,-0.0186924,0.221811,-0.000110682,0.0180369,-0.000148527,0.00479283,0.0389305,1.5227,-0.0057534,-0.1706,0,0.5348,361578,4.43642e+06,2441.12,-0.539202,0.0512847,-1.04976,-5.77876e-05,-0.00202276,2.45903e-06,-0.0001131,0.0180375,-6.21244e-05,0.046233,0.920488,0.144465,0.7674,1616874014647057214
59.2415,-0.0186924,0.221811,-0.000110682,0.0180369,-0.000148527,0.00479283,0.0389305,1.5227,-0.0057514,-0.1706,0,0.5348,361578,4.43642e+06,2441.12,-0.539202,0.0512847,-1.04976,-5.77876e-05,-0.00202276,2.45903e-06,-0.0001131,0.0180375,-6.21244e-05,0.046233,0.920488,0.144465,0.7674,1616874014657063954
59.2295,-0.0188782,0.222247,-0.000111947,0.0179928,-0.00014878,0.00479035,0.039323,1.5227,-0.0057514,-0.1706,0,0.5348,361579,4.43642e+06,2441.17,-0.541863,0.0517497,-1.04723,-6.74716e-05,-0.00202513,-1.9284e-05,-0.00011441,0.0179933,-6.26353e-05,0.0462544,0.920404,0.144465,0.7674,1616874014667078997
59.2225,-0.0189795,0.222511,-0.000112614,0.0179672,-0.000149248,0.00478889,0.0395502,1.5227,-0.00574842,-0.1706,0,0.5348,361580,4.43642e+06,2441.21,-0.544506,0.0520372,-1.04475,-6.38358e-05,-0.0020314,-4.08772e-05,-0.000115115,0.0179677,-6.32531e-05,0.0462858,0.920325,0.144466,0.7674,1616874014677039223
59.219,-0.0190287,0.222641,-0.000112916,0.0179545,-0.000149543,0.00478817,0.0396616,1.5227,-0.00574667,-0.1706,0,0.5348,361580,4.43642e+06,2441.22,-0.545446,0.0521692,-1.04386,-4.86191e-05,-0.00203424,-4.75446e-05,-0.000115438,0.017955,-6.36221e-05,0.0463039,0.920297,0.144466,0.7674,1616874014687008989
59.2156,-0.019086,0.222771,-0.000113307,0.0179419,-0.000149884,0.00478746,0.039773,1.5227,-0.00574581,-0.1706,0,0.5348,361581,4.43642e+06,2441.24,-0.546364,0.0523026,-1.04299,-6.30794e-05,-0.00203764,-5.49102e-05,-0.000115853,0.0179424,-6.40369e-05,0.0463043,0.920269,0.144467,0.7674,1616874014697011138
59.2087,-0.0191832,0.223031,-0.000114013,0.0179167,-0.000150702,0.00478602,0.0399936,1.52269,-0.00574495,-0.1706,0,0.5348,361581,4.43642e+06,2441.26,-0.548193,0.0525641,-1.04126,-6.57665e-05,-0.00204442,-6.90879e-05,-0.000116612,0.0179173,-6.50025e-05,0.0463226,0.920214,0.144469,0.7674,1616874014707071712
59.202,-0.0192771,0.223286,-0.000114717,0.0178921,-0.000151683,0.00478461,0.0402093,1.52269,-0.00574323,-0.1706,0,0.5348,361582,4.43642e+06,2441.29,-0.549993,0.0528237,-1.03955,-6.80233e-05,-0.00205087,-8.48504e-05,-0.000117375,0.0178926,-6.61285e-05,0.0463408,0.92016,0.14447,0.7674,1616874014717013932
59.1955,-0.0193742,0.223535,-0.000115397,0.0178681,-0.000152785,0.00478324,0.0404178,1.52269,-0.00574153,-0.1706,0,0.5348,361583,4.43642e+06,2441.32,-0.551741,0.0530675,-1.03788,-6.63309e-05,-0.00205684,-9.76878e-05,-0.000118119,0.0178686,-6.73713e-05,0.0463588,0.920107,0.144473,0.7674,1616874014727070298
59.1879,-0.0194613,0.223823,-0.000116269,0.0178402,-0.000154243,0.00478163,0.0406587,1.52269,-0.00573988,-0.1706,0,0.5348,361584,4.43642e+06,2441.36,-0.553572,0.0533429,-1.03611,-7.43992e-05,-0.00206303,-0.000110376,-0.000119073,0.0178408,-6.89936e-05,0.0463765,0.920051,0.144476,0.7674,1616874014737068964
59.1879,-0.0194613,0.223823,-0.000116269,0.0178402,-0.000154243,0.00478163,0.0406587,1.52269,-0.00573795,-0.1706,0,0.5348,361584,4.43642e+06,2441.36,-0.553572,0.0533429,-1.03611,-7.43992e-05,-0.00206303,-0.000110376,-0.000119073,0.0178408,-6.89936e-05,0.0463765,0.920051,0.144476,0.7674,1616874014747043809
59.1791,-0.0195799,0.224153,-0.00011726,0.0178082,-0.000156126,0.00477977,0.0409348,1.52269,-0.00573795,-0.1706,0,0.5348,361585,4.43642e+06,2441.39,-0.555678,0.0536577,-1.03407,-7.36913e-05,-0.00206983,-0.000125364,-0.000120168,0.0178087,-7.10648e-05,0.0463972,0.919986,0.144479,0.7674,1616874014757074512
59.1722,-0.0196598,0.224417,-0.000118026,0.0177828,-0.0001578,0.0047783,0.0411521,1.52269,-0.00573573,-0.1706,0,0.5348,361585,4.43642e+06,2441.42,-0.557732,0.0539078,-1.03207,-7.25743e-05,-0.0020781,-0.000139384,-0.000121024,0.0177834,-7.28886e-05,0.0464208,0.919924,0.144483,0.7674,1616874014767072257
59.1722,-0.0196598,0.224417,-0.000118026,0.0177828,-0.0001578,0.0047783,0.0411521,1.52269,-0.00573396,-0.1706,0,0.5348,361585,4.43642e+06,2441.42,-0.557732,0.0539078,-1.03207,-7.25743e-05,-0.0020781,-0.000139384,-0.000121024,0.0177834,-7.28886e-05,0.0464208,0.919924,0.144483,0.7674,1616874014777062887
59.1639,-0.0197605,0.224734,-0.000118999,0.0177523,-0.000159975,0.00477651,0.0414128,1.52269,-0.00573396,-0.1706,0,0.5348,361586,4.43642e+06,2441.46,-0.559669,0.0541959,-1.03018,-7.52254e-05,-0.00208473,-0.000150856,-0.000122114,0.0177528,-7.52441e-05,0.0464398,0.919863,0.144488,0.7674,1616874014787041164
59.1563,-0.0198521,0.225023,-0.000119876,0.0177246,-0.000162124,0.00477488,0.0416475,1.52269,-0.00573181,-0.1706,0,0.5348,361587,4.43642e+06,2441.49,-0.561711,0.0544611,-1.02818,-7.57535e-05,-0.00209322,-0.000165028,-0.000123105,0.0177252,-7.75566e-05,0.0464627,0.9198,0.144492,0.7674,1616874014797037985
59.1563,-0.0198521,0.225023,-0.000119876,0.0177246,-0.000162124,0.00477488,0.0416475,1.52269,-0.00572986,-0.1706,0,0.5348,361587,4.43642e+06,2441.49,-0.561711,0.0544611,-1.02818,-7.57535e-05,-0.00209322,-0.000165028,-0.000123105,0.0177252,-7.75566e-05,0.046483,0.919771,0.144495,0.7674,1616874014807072207
59.1476,-0.0199588,0.225354,-0.000120904,0.0176927,-0.000164785,0.004773,0.0419166,1.52269,-0.00572986,-0.1706,0,0.5348,361588,4.43642e+06,2441.53,-0.563754,0.054757,-1.02616,-7.78765e-05,-0.00210076,-0.000178081,-0.000124274,0.0176933,-8.04072e-05,0.0464836,0.919736,0.144498,0.7674,1616874014817028048
59.1391,-0.0200547,0.225682,-0.000121884,0.0176612,-0.00016762,0.00477114,0.0421805,1.52268,-0.0057276,-0.1706,0,0.5348,361589,4.43642e+06,2441.57,-0.565935,0.0550484,-1.02399,-7.61001e-05,-0.00210932,-0.000192705,-0.000125402,0.0176618,-8.34284e-05,0.0465077,0.919667,0.144504,0.7674,1616874014827049610
59.1318,-0.0201468,0.225962,-0.000122697,0.0176346,-0.000170177,0.00476955,0.0424025,1.52268,-0.00572536,-0.1706,0,0.5348,361589,4.43642e+06,2441.6,-0.567939,0.055294,-1.022,-7.24968e-05,-0.00211822,-0.000206242,-0.000126349,0.0176352,-8.61439e-05,0.0465315,0.919605,0.14451,0.7674,1616874014837073272
59.1318,-0.0201468,0.225962,-0.000122697,0.0176346,-0.000170177,0.00476955,0.0424025,1.52268,-0.00572346,-0.1706,0,0.5348,361589,4.43642e+06,2441.6,-0.567939,0.055294,-1.022,-7.24968e-05,-0.00211822,-0.000206242,-0.000126349,0.0176352,-8.61439e-05,0.0465315,0.919605,0.14451,0.7674,1616874014847060193
59.1318,-0.0201468,0.225962,-0.000122697,0.0176346,-0.000170177,0.00476955,0.0424025,1.52268,-0.00572346,-0.1706,0,0.5348,361589,4.43642e+06,2441.6,-0.567939,0.055294,-1.022,-7.24968e-05,-0.00211822,-0.000206242,-0.000126349,0.0176352,-8.61439e-05,0.0465315,0.919605,0.14451,0.7674,1616874014857043470
59.116,-0.020316,0.226543,-0.000124743,0.0175768,-0.000176112,0.00476606,0.0428818,1.52268,-0.00572346,-0.1706,0,0.5348,361591,4.43642e+06,2441.67,-0.570672,0.0558009,-1.01918,-8.8779e-05,-0.00212232,-0.00022376,-0.000128705,0.0175774,-9.24232e-05,0.0465524,0.919512,0.144519,0.7674,1616874014867075901
59.1084,-0.0203834,0.22684,-0.000125549,0.0175487,-0.000179241,0.00476435,0.0431131,1.52268,-0.00571927,-0.1706,0,0.5348,361592,4.43642e+06,2441.71,-0.573688,0.0560475,-1.01613,-7.30918e-05,-0.00213308,-0.000239521,-0.000129674,0.0175494,-9.57199e-05,0.0465967,0.919417,0.144529,0.7674,1616874014877005586
59.1084,-0.0203834,0.22684,-0.000125549,0.0175487,-0.000179241,0.00476435,0.0431131,1.52268,-0.00571722,-0.1706,0,0.5348,361592,4.43642e+06,2441.71,-0.573688,0.0560475,-1.01613,-7.30918e-05,-0.00213308,-0.000239521,-0.000129674,0.0175494,-9.57199e-05,0.0465967,0.919417,0.144529,0.7674,1616874014887005444
59.0989,-0.0204944,0.227203,-0.000126626,0.017514,-0.000183249,0.00476224,0.0433969,1.52268,-0.00571722,-0.1706,0,0.5348,361593,4.43642e+06,2441.75,-0.575757,0.0563452,-1.01402,-7.29242e-05,-0.00214243,-0.000252112,-0.000130962,0.0175147,-9.99348e-05,0.0466186,0.919351,0.144537,0.7674,1616874014897058387
59.0989,-0.0204944,0.227203,-0.000126626,0.017514,-0.000183249,0.00476224,0.0433969,1.52268,-0.00571468,-0.1706,0,0.5348,361593,4.43642e+06,2441.75,-0.575757,0.0563452,-1.01402,-7.29242e-05,-0.00214243,-0.000252112,-0.000130962,0.0175147,-9.99348e-05,0.0466186,0.919351,0.144537,0.7674,1616874014907106348
59.0868,-0.020601,0.227661,-0.0001281,0.0174699,-0.000188607,0.00475952,0.043756,1.52268,-0.00571468,-0.1706,0,0.5348,361594,4.43642e+06,2441.8,-0.578333,0.0567096,-1.01137,-8.61092e-05,-0.00215241,-0.000263784,-0.000132717,0.0174706,-0.000105558,0.0466458,0.919266,0.144548,0.7674,1616874014917071851
59.0796,-0.0206741,0.227945,-0.000128884,0.0174433,-0.000191974,0.00475788,0.0439706,1.52268,-0.00571142,-0.1706,0,0.5348,361595,4.43642e+06,2441.84,-0.580731,0.0569296,-1.00891,-7.44971e-05,-0.00216442,-0.000276095,-0.000133679,0.017444,-0.000109085,0.0466803,0.91919,0.144557,0.7674,1616874014927076222
59.0724,-0.0207389,0.228228,-0.000129682,0.0174168,-0.000195426,0.00475624,0.0441836,1.52267,-0.00570945,-0.1706,0,0.5348,361595,4.43642e+06,2441.87,-0.582464,0.0571414,-1.00712,-7.643e-05,-0.00217352,-0.000283407,-0.00013466,0.0174175,-0.000112696,0.0467011,0.919134,0.144565,0.7674,1616874014937076753
59.0647,-0.020805,0.228529,-0.000130569,0.0173884,-0.000199211,0.00475448,0.04441,1.52267,-0.00570749,-0.1706,0,0.5348,361596,4.43642e+06,2441.9,-0.584236,0.057368,-1.00528,-7.75982e-05,-0.00218362,-0.000292289,-0.000135748,0.0173891,-0.000116651,0.0467221,0.919077,0.144573,0.7674,1616874014947074849
59.0647,-0.020805,0.228529,-0.000130569,0.0173884,-0.000199211,0.00475448,0.04441,1.52267,-0.00570537,-0.1706,0,0.5348,361596,4.43642e+06,2441.9,-0.584236,0.057368,-1.00528,-7.75982e-05,-0.00218362,-0.000292289,-0.000135748,0.0173891,-0.000116651,0.0467221,0.919077,0.144573,0.7674,1616874014957070029
59.0564,-0.020865,0.228849,-0.000131497,0.0173581,-0.00020335,0.00475259,0.0446501,1.52267,-0.00570537,-0.1706,0,0.5348,361597,4.43642e+06,2441.94,-0.586116,0.0576042,-1.00332,-7.90652e-05,-0.00219264,-0.000300559,-0.000136897,0.0173589,-0.000120973,0.0467445,0.919015,0.144582,0.7674,1616874014967046639
59.0479,-0.0209312,0.229182,-0.000132486,0.0173266,-0.000207732,0.00475062,0.0448983,1.52267,-0.00570311,-0.1706,0,0.5348,361598,4.43642e+06,2441.98,-0.588086,0.0578421,-1.00125,-8.05809e-05,-0.00220251,-0.000307432,-0.00013812,0.0173274,-0.000125544,0.0467686,0.918949,0.144591,0.7674,1616874014977082271
59.0439,-0.0209626,0.229337,-0.000132881,0.0173119,-0.000209823,0.0047497,0.0450139,1.52267,-0.00570075,-0.1706,0,0.5348,361598,4.43642e+06,2442,-0.589095,0.0579567,-1.00018,-5.9294e-05,-0.00220756,-0.000313138,-0.000138629,0.0173127,-0.000127724,0.0467932,0.918916,0.144596,0.7674,1616874014987035556
59.0399,-0.020986,0.229494,-0.000133387,0.0172971,-0.000211936,0.00474876,0.0451294,1.52267,-0.00569963,-0.1706,0,0.5348,361599,4.43642e+06,2442.01,-0.590028,0.0580664,-0.999198,-7.58101e-05,-0.00221261,-0.000316512,-0.000139249,0.0172979,-0.000129926,0.0467937,0.918885,0.144601,0.7674,1616874014997072107
59.0315,-0.0210258,0.229821,-0.000134364,0.017266,-0.000216404,0.0047468,0.0453715,1.52267,-0.00569852,-0.1706,0,0.5348,361600,4.43642e+06,2442.05,-0.591931,0.0582852,-0.997173,-7.96641e-05,-0.00222218,-0.000319001,-0.000140468,0.0172668,-0.000134582,0.0468174,0.91882,0.14461,0.7674,1616874015007037718
59.0315,-0.0210258,0.229821,-0.000134364,0.017266,-0.000216404,0.0047468,0.0453715,1.52267,-0.00569616,-0.1706,0,0.5348,361600,4.43642e+06,2442.05,-0.591931,0.0582852,-0.997173,-7.96641e-05,-0.00222218,-0.000319001,-0.000140468,0.0172668,-0.000134582,0.0468174,0.91882,0.14461,0.7674,1616874015017036532
59.0209,-0.0210923,0.230231,-0.000135641,0.0172268,-0.000222108,0.00474431,0.0456749,1.52266,-0.00569616,-0.1706,0,0.5348,361601,4.43642e+06,2442.1,-0.5941,0.0585673,-0.994842,-8.51284e-05,-0.00223168,-0.000325816,-0.000142057,0.0172276,-0.000140523,0.0468427,0.918745,0.144622,0.7674,1616874015027046992
59.0132,-0.0211408,0.230533,-0.000136524,0.0171982,-0.000226324,0.00474249,0.0458939,1.52266,-0.00569317,-0.1706,0,0.5348,361601,4.43642e+06,2442.14,-0.596242,0.0587656,-0.992546,-8.02769e-05,-0.00224192,-0.000332662,-0.000143173,0.0171991,-0.000144912,0.0468743,0.918673,0.144633,0.7674,1616874015037064095
59.0132,-0.0211408,0.230533,-0.000136524,0.0171982,-0.000226324,0.00474249,0.0458939,1.52266,-0.00569099,-0.1706,0,0.5348,361601,4.43642e+06,2442.14,-0.596242,0.0587656,-0.992546,-8.02769e-05,-0.00224192,-0.000332662,-0.000143173,0.0171991,-0.000144912,0.0468743,0.918673,0.144633,0.7674,1616874015047046171
58.9998,-0.0212064,0.231044,-0.000138156,0.0171486,-0.000233762,0.0047393,0.0462729,1.52266,-0.00569099,-0.1706,0,0.5348,361603,4.43642e+06,2442.2,-0.59857,0.0591084,-0.989988,-9.02647e-05,-0.00224922,-0.00033768,-0.000145217,0.0171495,-0.000152651,0.0468978,0.918588,0.144646,0.7674,1616874015057079178
58.9998,-0.0212064,0.231044,-0.000138156,0.0171486,-0.000233762,0.0047393,0.0462729,1.52266,-0.00568715,-0.1706,0,0.5348,361603,4.43642e+06,2442.2,-0.59857,0.0591084,-0.989988,-5.38709e-05,-0.00225429,-0.000342483,-0.000145217,0.0171495,-0.000152651,0.0468978,0.918588,0.144646,0.7674,1616874015067050195
58.9913,-0.0212472,0.231378,-0.000139085,0.0171169,-0.000238575,0.00473725,0.046513,1.52266,-0.00568715,-0.1706,0,0.5348,361603,4.43642e+06,2442.24,-0.601123,0.0593138,-0.987213,-7.8602e-05,-0.00226093,-0.000344113,-0.000146415,0.0171179,-0.000157656,0.0469382,0.918501,0.144659,0.7674,1616874015077076255
58.9913,-0.0212472,0.231378,-0.000139085,0.0171169,-0.000238575,0.00473725,0.046513,1.52266,-0.0056847,-0.1706,0,0.5348,361603,4.43642e+06,2442.24,-0.601123,0.0593138,-0.987213,-7.8602e-05,-0.00226093,-0.000344113,-0.000146415,0.0171179,-0.000157656,0.0469382,0.918501,0.144659,0.7674,1616874015087077180
58.9789,-0.0212994,0.231853,-0.000140536,0.0170712,-0.000245582,0.00473427,0.0468579,1.52265,-0.0056847,-0.1706,0,0.5348,361605,4.43642e+06,2442.29,-0.603419,0.059615,-0.984676,-8.73989e-05,-0.00226945,-0.000347702,-0.000148262,0.0170721,-0.000164941,0.0469645,0.918417,0.144672,0.7674,1616874015097072415
58.9708,-0.0213163,0.232173,-0.000141415,0.017041,-0.000250224,0.00473229,0.0470839,1.52265,-0.00568112,-0.1706,0,0.5348,361605,4.43642e+06,2442.33,-0.605762,0.0597941,-0.982093,-7.91131e-05,-0.00228118,-0.000349646,-0.000149405,0.017042,-0.000169767,0.0470021,0.918336,0.144685,0.7674,1616874015107034578
58.9635,-0.0213395,0.232458,-0.000142207,0.0170141,-0.000254356,0.00473053,0.0472842,1.52265,-0.00567875,-0.1706,0,0.5348,361606,4.43642e+06,2442.36,-0.60748,0.0599575,-0.980193,-7.70994e-05,-0.00229073,-0.000351237,-0.000150434,0.0170151,-0.000174062,0.0470272,0.918276,0.144695,0.7674,1616874015117072290
58.9553,-0.0213582,0.232781,-0.000143132,0.0169835,-0.000259054,0.00472851,0.0475104,1.52265,-0.00567663,-0.1706,0,0.5348,361607,4.43642e+06,2442.4,-0.609171,0.0601447,-0.978303,-7.93774e-05,-0.00229924,-0.000353122,-0.000151631,0.0169845,-0.000178947,0.0470496,0.918215,0.144705,0.7674,1616874015127072212
58.9553,-0.0213582,0.232781,-0.000143132,0.0169835,-0.000259054,0.00472851,0.0475104,1.52265,-0.00567422,-0.1706,0,0.5348,361607,4.43642e+06,2442.4,-0.609171,0.0601447,-0.978303,-7.93774e-05,-0.00229924,-0.000353122,-0.000151631,0.0169845,-0.000178947,0.0470496,0.918215,0.144705,0.7674,1616874015137073835
58.9469,-0.0213729,0.233112,-0.000144078,0.0169521,-0.000263874,0.00472644,0.0477412,1.52264,-0.00567422,-0.1706,0,0.5348,361608,4.43642e+06,2442.44,-0.610994,0.0603311,-0.976264,-8.0221e-05,-0.00230888,-0.000354438,-0.000152857,0.0169531,-0.000183958,0.0470752,0.918149,0.144715,0.7674,1616874015147078012
58.9384,-0.0213819,0.233447,-0.000145033,0.0169203,-0.000268736,0.00472433,0.0479738,1.52264,-0.00567173,-0.1706,0,0.5348,361608,4.43642e+06,2442.48,-0.612842,0.0605118,-0.974181,-8.23274e-05,-0.00231818,-0.000353735,-0.000154097,0.0169214,-0.000189014,0.0471015,0.918082,0.144726,0.7674,1616874015156960450
58.9384,-0.0213819,0.233447,-0.000145033,0.0169203,-0.000268736,0.00472433,0.0479738,1.52264,-0.00566919,-0.1706,0,0.5348,361608,4.43642e+06,2442.48,-0.612842,0.0605118,-0.974181,-8.23274e-05,-0.00231818,-0.000353735,-0.000154097,0.0169214,-0.000189014,0.0471015,0.918082,0.144726,0.7674,1616874015167038274
58.9273,-0.0213935,0.233876,-0.000146323,0.0168789,-0.000275026,0.00472156,0.0482744,1.52264,-0.00566919,-0.1706,0,0.5348,361610,4.43642e+06,2442.53,-0.614935,0.0607503,-0.971785,-8.5846e-05,-0.0023266,-0.000354118,-0.00015576,0.01688,-0.000195557,0.0471285,0.918003,0.144738,0.7674,1616874015177082386
58.9193,-0.021399,0.234188,-0.000147202,0.0168493,-0.00027949,0.00471957,0.0484885,1.52263,-0.00566588,-0.1706,0,0.5348,361610,4.43642e+06,2442.57,-0.617025,0.0608974,-0.969401,-7.85591e-05,-0.00233636,-0.000350772,-0.000156905,0.0168504,-0.000200202,0.0471634,0.917927,0.14475,0.7674,1616874015187066084
58.9193,-0.021399,0.234188,-0.000147202,0.0168493,-0.00027949,0.00471957,0.0484885,1.52263,-0.00566349,-0.1706,0,0.5348,361610,4.43642e+06,2442.57,-0.617025,0.0608974,-0.969401,-7.85591e-05,-0.00233636,-0.000350772,-0.000156905,0.0168504,-0.000200202,0.0471634,0.917927,0.14475,0.7674,1616874015197062242
58.9087,-0.0214008,0.234599,-0.000148336,0.0168097,-0.000285426,0.00471691,0.0487724,1.52263,-0.00566349,-0.1706,0,0.5348,361611,4.43642e+06,2442.62,-0.618973,0.0611207,-0.967157,-7.9942e-05,-0.00234444,-0.00035199,-0.000158397,0.0168109,-0.000206378,0.0471888,0.917853,0.144762,0.7674,1616874015207076444
58.9007,-0.0213996,0.234913,-0.000149201,0.0167798,-0.00028986,0.00471488,0.0489857,1.52263,-0.00566029,-0.1706,0,0.5348,361612,4.43642e+06,2442.65,-0.62098,0.061263,-0.964832,-7.6365e-05,-0.00235388,-0.000348596,-0.000159532,0.016781,-0.000210996,0.0472224,0.917778,0.144773,0.7674,1616874015217036675
58.8926,-0.0213938,0.235234,-0.000150063,0.0167493,-0.000294354,0.00471281,0.0492025,1.52263,-0.00565785,-0.1706,0,0.5348,361613,4.43642e+06,2442.69,-0.622686,0.0614179,-0.962862,-7.79758e-05,-0.00236224,-0.000346424,-0.00016067,0.0167505,-0.000215676,0.047248,0.917714,0.144783,0.7674,1616874015227043850
