u,v,w,p,q,r,phi,theta,psi,roll_ctrl,pitch_ctrl,yaw_ctrl,throttle_ctrl,E,N,U,u_dot,v_dot,w_dot,p_dot,q_dot,r_dot,phi_dot,theta_dot,psi_dot,delta_a,delta_e,delta_r,delta_T,timestamp
58.8758,0.0515751,0.280804,0.00164226,0.0183515,0.00162863,0.00430581,0.0065241,1.7016,-0.00513219,-0.1706,0,0.5348,362191,4.43607e+06,2438.39,-0.168807,-0.0477964,-1.11599,-0.00211694,-0.0237049,0.000938044,0.0016534,0.0183443,0.00170767,0.0499345,0.937846,0.140539,0.7674,1620826363155934527
58.8758,0.0515751,0.280804,0.00164226,0.0183515,0.00162863,0.00430581,0.0065241,1.7016,-0.00513219,-0.1706,0,0.5348,362191,4.43607e+06,2438.39,-0.168807,-0.0477964,-1.11599,-0.00211694,-0.0237049,0.000938044,0.0016534,0.0183443,0.00170767,0.0499345,0.937846,0.140539,0.7674,1620826363165987430
58.8721,0.049088,0.279814,0.00159789,0.0179164,0.00164317,0.00433768,0.00687855,1.70164,-0.00516698,-0.1706,0,0.5348,362192,4.43607e+06,2438.4,-0.174513,-0.0471435,-1.1108,-0.00207666,-0.0215346,0.000663199,0.00160973,0.0179091,0.00172091,0.0496462,0.935607,0.140503,0.7674,1620826363175959682
58.8721,0.049088,0.279814,0.00159789,0.0179164,0.00164317,0.00433768,0.00687855,1.70164,-0.00520521,-0.1706,0,0.5348,362192,4.43607e+06,2438.4,-0.174513,-0.0471435,-1.1108,-0.00207666,-0.0215346,0.000663199,0.00160973,0.0179091,0.00172091,0.0496462,0.935607,0.140503,0.7674,1620826363185952085
58.8697,0.0475088,0.279041,0.00156961,0.0176666,0.00164878,0.00435746,0.00709926,1.70166,-0.00520521,-0.1706,0,0.5348,362193,4.43607e+06,2438.41,-0.179397,-0.0466384,-1.10564,-0.00219155,-0.0197255,0.000404772,0.00158186,0.0176592,0.00172579,0.0493126,0.933762,0.140481,0.7674,1620826363195959907
58.8663,0.0453745,0.277704,0.00153414,0.017306,0.00165331,0.00438404,0.00739688,1.70169,-0.00522895,-0.1706,0,0.5348,362194,4.43607e+06,2438.42,-0.183857,-0.0461096,-1.10396,-0.00172594,-0.0231139,0.000199213,0.00154693,0.0172986,0.00172921,0.0491236,0.932144,0.14047,0.7674,1620826363205929387
58.8663,0.0453745,0.277704,0.00153414,0.017306,0.00165331,0.00438404,0.00739688,1.70169,-0.00526085,-0.1706,0,0.5348,362194,4.43607e+06,2438.42,-0.183857,-0.0461096,-1.10396,-0.00172594,-0.0231139,0.000199213,0.00154693,0.0172986,0.00172921,0.0491236,0.932144,0.14047,0.7674,1620826363215963764
58.8624,0.0429409,0.275803,0.00149348,0.0168924,0.0016536,0.00441378,0.00773009,1.70172,-0.00526085,-0.1706,0,0.5348,362195,4.43607e+06,2438.43,-0.189012,-0.0454801,-1.096,-0.00191916,-0.0204151,-5.69481e-05,0.00150684,0.016885,0.00172819,0.0488559,0.929773,0.140464,0.7674,1620826363225958353
58.8624,0.0429409,0.275803,0.00149348,0.0168924,0.0016536,0.00441378,0.00773009,1.70172,-0.00529654,-0.1706,0,0.5348,362195,4.43607e+06,2438.43,-0.189012,-0.0454801,-1.096,-0.00191916,-0.0204151,-5.69481e-05,0.00150684,0.016885,0.00172819,0.0488559,0.929773,0.140464,0.7674,1620826363235962776
58.8583,0.0405216,0.273652,0.00145216,0.0165311,0.0016485,0.00444263,0.00805487,1.70175,-0.00529654,-0.1706,0,0.5348,362196,4.43607e+06,2438.44,-0.194361,-0.0448308,-1.08692,-0.00197078,-0.0178467,-0.00033016,0.00146603,0.0165236,0.00172198,0.0485563,0.927415,0.140469,0.7674,1620826363245954799
58.8583,0.0405216,0.273652,0.00145216,0.0165311,0.0016485,0.00444263,0.00805487,1.70175,-0.00533115,-0.1706,0,0.5348,362196,4.43607e+06,2438.44,-0.194361,-0.0448308,-1.08692,-0.00197078,-0.0178467,-0.00033016,0.00146603,0.0165236,0.00172198,0.0485563,0.927415,0.140469,0.7674,1620826363255926433
58.855,0.0386295,0.271843,0.00141891,0.0162821,0.0016404,0.00446484,0.00830672,1.70178,-0.00533115,-0.1706,0,0.5348,362197,4.43607e+06,2438.45,-0.199023,-0.0442761,-1.07846,-0.00205834,-0.0156836,-0.000578321,0.00143314,0.0162746,0.00171314,0.0482614,0.925471,0.140485,0.7674,1620826363265997833
58.8523,0.037092,0.270292,0.00139107,0.0160988,0.00163116,0.00448282,0.00851212,1.7018,-0.00535781,-0.1706,0,0.5348,362198,4.43607e+06,2438.45,-0.202667,-0.0438356,-1.07147,-0.0021076,-0.0140313,-0.000766975,0.00140557,0.0160914,0.00170337,0.0480372,0.924023,0.140504,0.7674,1620826363276001983
58.8523,0.037092,0.270292,0.00139107,0.0160988,0.00163116,0.00448282,0.00851212,1.7018,-0.00537938,-0.1706,0,0.5348,362198,4.43607e+06,2438.45,-0.202667,-0.0438356,-1.07147,-0.0021076,-0.0140313,-0.000766975,0.00140557,0.0160914,0.00170337,0.0480372,0.924023,0.140504,0.7674,1620826363286036176
58.8523,0.037092,0.270292,0.00139107,0.0160988,0.00163116,0.00448282,0.00851212,1.7018,-0.00537938,-0.1706,0,0.5348,362198,4.43607e+06,2438.45,-0.202667,-0.0438356,-1.07147,-0.0021076,-0.0140313,-0.000766975,0.00140557,0.0160914,0.00170337,0.0480372,0.924023,0.140504,0.7674,1620826363295983907
58.8449,0.0331507,0.26581,0.0013198,0.0156867,0.00160147,0.004528,0.0090403,1.70186,-0.00537938,-0.1706,0,0.5348,362200,4.43607e+06,2438.47,-0.208257,-0.04301,-1.05917,-0.00180069,-0.0113129,-0.000992231,0.00133492,0.0156793,0.00167255,0.0478988,0.921779,0.140544,0.7674,1620826363305952030
58.842,0.0316286,0.264103,0.00129145,0.0155651,0.00158465,0.00454527,0.00924525,1.70188,-0.0054336,-0.1706,0,0.5348,362201,4.43607e+06,2438.48,-0.214064,-0.0424122,-1.0471,-0.0021308,-0.00895495,-0.00131644,0.00130675,0.0155577,0.00165545,0.0474184,0.919795,0.140599,0.7674,1620826363315967828
58.8391,0.0302321,0.262517,0.00126438,0.0154664,0.00156722,0.00456103,0.00943496,1.7019,-0.00545433,-0.1706,0,0.5348,362201,4.43607e+06,2438.49,-0.217041,-0.0420408,-1.04063,-0.00212885,-0.00777624,-0.00145562,0.00127983,0.0154591,0.00163782,0.0472505,0.918857,0.140637,0.7674,1620826363325928150
58.8391,0.0302321,0.262517,0.00126438,0.0154664,0.00156722,0.00456103,0.00943496,1.7019,-0.00547324,-0.1706,0,0.5348,362201,4.43607e+06,2438.49,-0.217041,-0.0420408,-1.04063,-0.00212885,-0.00777624,-0.00145562,0.00127983,0.0154591,0.00163782,0.0472505,0.918857,0.140637,0.7674,1620826363335925287
58.8356,0.0285276,0.260547,0.00123095,0.0153611,0.00154359,0.00458017,0.00966965,1.70193,-0.00547324,-0.1706,0,0.5348,362202,4.43607e+06,2438.5,-0.22017,-0.0416304,-1.03364,-0.00207541,-0.00656615,-0.00158884,0.00124656,0.0153539,0.001614,0.0471045,0.917919,0.140682,0.7674,1620826363345960161
58.8336,0.0275962,0.259467,0.00121166,0.0153109,0.00152958,0.00459055,0.00979904,1.70194,-0.00549621,-0.1706,0,0.5348,362203,4.43607e+06,2438.51,-0.22188,-0.0414125,-1.02983,-0.00204497,-0.00525485,-0.00174048,0.00122734,0.0153037,0.00159992,0.0469243,0.916923,0.14074,0.7674,1620826363355955524
58.8316,0.0266757,0.258401,0.00119437,0.0152665,0.00151486,0.00460078,0.00992806,1.70195,-0.00550866,-0.1706,0,0.5348,362203,4.43607e+06,2438.51,-0.223771,-0.0411759,-1.0256,-0.00204497,-0.00525485,-0.00174048,0.00121011,0.0152594,0.00158516,0.0469243,0.916923,0.14074,0.7674,1620826363365924637
58.8292,0.0256012,0.257145,0.00117146,0.01522,0.00149666,0.00461273,0.0100812,1.70197,-0.00552093,-0.1706,0,0.5348,362204,4.43607e+06,2438.52,-0.225612,-0.0409339,-1.02146,-0.00227577,-0.00461348,-0.00180825,0.00118726,0.015213,0.00156693,0.0467009,0.916443,0.140773,0.7674,1620826363375923065
58.8268,0.0245395,0.255915,0.00115137,0.015181,0.00147752,0.00462448,0.010234,1.70198,-0.00553527,-0.1706,0,0.5348,362204,4.43607e+06,2438.53,-0.227813,-0.0406664,-1.01653,-0.0019959,-0.00387405,-0.00190041,0.00116721,0.0151741,0.00154779,0.0467337,0.915906,0.140814,0.7674,1620826363385953033
58.8238,0.0232564,0.254462,0.00112515,0.015144,0.00145242,0.00463865,0.010421,1.702,-0.00554937,-0.1706,0,0.5348,362205,4.43607e+06,2438.53,-0.231367,-0.0402836,-1.00895,-0.00206801,-0.00281177,-0.00205972,0.00114102,0.0151371,0.00152273,0.0464963,0.915133,0.140883,0.7674,1620826363395989453
58.8196,0.0215193,0.252528,0.00108909,0.0151069,0.00141621,0.00465759,0.0106781,1.70203,-0.00556638,-0.1706,0,0.5348,362206,4.43607e+06,2438.55,-0.234419,-0.0399004,-1.00225,-0.00199891,-0.00192539,-0.00216252,0.00110497,0.0151001,0.00148664,0.0463711,0.914524,0.140951,0.7674,1620826363405973608
58.8196,0.0215193,0.252528,0.00108909,0.0151069,0.00141621,0.00465759,0.0106781,1.70203,-0.0055891,-0.1706,0,0.5348,362206,4.43607e+06,2438.55,-0.234419,-0.0399004,-1.00225,-0.00199891,-0.00192539,-0.00216252,0.00110497,0.0151001,0.00148664,0.0463711,0.914524,0.140951,0.7674,1620826363415955758
58.8155,0.0199116,0.250762,0.00105482,0.0150865,0.00137922,0.00467526,0.0109253,1.70205,-0.0055891,-0.1706,0,0.5348,362207,4.43607e+06,2438.56,-0.237878,-0.0395082,-0.994945,-0.00199743,-0.00103231,-0.0022864,0.00107066,0.0150799,0.00144982,0.046193,0.913924,0.141033,0.7674,1620826363425951013
58.8155,0.0199116,0.250762,0.00105482,0.0150865,0.00137922,0.00467526,0.0109253,1.70205,-0.00561032,-0.1706,0,0.5348,362207,4.43607e+06,2438.56,-0.237878,-0.0395082,-0.994945,-0.00199743,-0.00103231,-0.0022864,0.00107066,0.0150799,0.00144982,0.046193,0.913924,0.141033,0.7674,1620826363435950816
58.8115,0.0184088,0.249162,0.00102216,0.0150793,0.00134185,0.00469175,0.0111629,1.70207,-0.00561032,-0.1706,0,0.5348,362208,4.43607e+06,2438.57,-0.241146,-0.0391484,-0.988245,-0.0019842,-0.000276184,-0.00239607,0.00103793,0.0150728,0.00141267,0.0460279,0.913437,0.141115,0.7674,1620826363445911964
58.8074,0.0169039,0.247631,0.00098912,0.0150828,0.00130209,0.00470805,0.0114056,1.7021,-0.0056301,-0.1706,0,0.5348,362209,4.43607e+06,2438.58,-0.244322,-0.0387998,-0.981906,-0.0019576,0.000379803,-0.00249521,0.00100478,0.0150765,0.00137317,0.0458765,0.913035,0.141201,0.7674,1620826363455935174
58.8074,0.0169039,0.247631,0.00098912,0.0150828,0.00130209,0.00470805,0.0114056,1.7021,-0.00564966,-0.1706,0,0.5348,362209,4.43607e+06,2438.58,-0.244322,-0.0387998,-0.981906,-0.0019576,0.000379803,-0.00249521,0.00100478,0.0150765,0.00137317,0.0458765,0.913035,0.141201,0.7674,1620826363465987235
58.8028,0.0153032,0.246044,0.000952553,0.0150978,0.00125595,0.00472564,0.0116774,1.70212,-0.00564966,-0.1706,0,0.5348,362210,4.43607e+06,2438.6,-0.247652,-0.038441,-0.975482,-0.00192629,0.000985722,-0.00258672,0.000968053,0.0150917,0.00132737,0.0457301,0.912686,0.141296,0.7674,1620826363476015077
58.8028,0.0153032,0.246044,0.000952553,0.0150978,0.00125595,0.00472564,0.0116774,1.70212,-0.00567077,-0.1706,0,0.5348,362210,4.43607e+06,2438.6,-0.247652,-0.038441,-0.975482,-0.00192629,0.000985722,-0.00258672,0.000968053,0.0150917,0.00132737,0.0457301,0.912686,0.141296,0.7674,1620826363485963443
58.8028,0.0153032,0.246044,0.000952553,0.0150978,0.00125595,0.00472564,0.0116774,1.70212,-0.00567077,-0.1706,0,0.5348,362210,4.43607e+06,2438.6,-0.247652,-0.038441,-0.975482,-0.00192629,0.000985722,-0.00258672,0.000968053,0.0150917,0.00132737,0.0457301,0.912686,0.141296,0.7674,1620826363496000444
58.7942,0.0125709,0.243506,0.000888174,0.0151465,0.00117046,0.00475545,0.0121689,1.70216,-0.00567077,-0.1706,0,0.5348,362212,4.43607e+06,2438.62,-0.2524,-0.0379067,-0.96655,-0.0017606,0.00173439,-0.00267088,0.000903295,0.0151408,0.00124257,0.0455943,0.912297,0.141441,0.7674,1620826363505968980
58.7907,0.0115063,0.242623,0.000862642,0.0151748,0.00113363,0.00476709,0.0123685,1.70218,-0.00570654,-0.1706,0,0.5348,362213,4.43607e+06,2438.64,-0.25685,-0.0376066,-0.959355,-0.00191989,0.00220457,-0.00281084,0.000877558,0.0151692,0.00120605,0.0452946,0.91208,0.141578,0.7674,1620826363515990707
58.7874,0.0105429,0.241879,0.000838958,0.0152033,0.0010992,0.00477748,0.0125521,1.70219,-0.0057205,-0.1706,0,0.5348,362213,4.43607e+06,2438.65,-0.259193,-0.0374026,-0.955647,-0.00190235,0.00240458,-0.00285965,0.000853668,0.0151979,0.00117191,0.04519,0.912012,0.141657,0.7674,1620826363525955657
58.7874,0.0105429,0.241879,0.000838958,0.0152033,0.0010992,0.00477748,0.0125521,1.70219,-0.00573297,-0.1706,0,0.5348,362213,4.43607e+06,2438.65,-0.259193,-0.0374026,-0.955647,-0.00190235,0.00240458,-0.00285965,0.000853668,0.0151979,0.00117191,0.04519,0.912012,0.141657,0.7674,1620826363535940642
58.7834,0.00943805,0.241058,0.000810521,0.0152404,0.00105688,0.00478968,0.0127755,1.70221,-0.00573297,-0.1706,0,0.5348,362214,4.43607e+06,2438.66,-0.261621,-0.0371835,-0.951934,-0.00186429,0.00257585,-0.00289597,0.000824957,0.0152352,0.00112996,0.0451024,0.911971,0.141742,0.7674,1620826363545992434
58.7834,0.00943805,0.241058,0.000810521,0.0152404,0.00105688,0.00478968,0.0127755,1.70221,-0.00574762,-0.1706,0,0.5348,362214,4.43607e+06,2438.66,-0.261621,-0.0371835,-0.951934,-0.00186429,0.00257585,-0.00289597,0.000824957,0.0152352,0.00112996,0.0451024,0.911971,0.141742,0.7674,1620826363555936165
58.7782,0.00807304,0.240128,0.000774379,0.0152915,0.00100162,0.00480478,0.0130649,1.70223,-0.00574762,-0.1706,0,0.5348,362215,4.43607e+06,2438.68,-0.264626,-0.0369265,-0.947569,-0.00181036,0.00273416,-0.00292931,0.000788425,0.0152865,0.00107517,0.0450022,0.911959,0.141851,0.7674,1620826363565930142
58.7733,0.00687572,0.239391,0.000741273,0.0153413,0.000949235,0.00481828,0.0133361,1.70225,-0.00576574,-0.1706,0,0.5348,362216,4.43607e+06,2438.69,-0.267907,-0.0367016,-0.943197,-0.00179703,0.00283491,-0.002968,0.000754919,0.0153365,0.00102323,0.0448695,0.911992,0.14197,0.7674,1620826363575957920
58.7733,0.00687572,0.239391,0.000741273,0.0153413,0.000949235,0.00481828,0.0133361,1.70225,-0.00578194,-0.1706,0,0.5348,362216,4.43607e+06,2438.69,-0.267907,-0.0367016,-0.943197,-0.00179703,0.00283491,-0.002968,0.000754919,0.0153365,0.00102323,0.0448695,0.911992,0.14197,0.7674,1620826363585996515
58.768,0.00565545,0.238741,0.000706513,0.0153952,0.000893046,0.00483198,0.0136255,1.70227,-0.00578194,-0.1706,0,0.5348,362217,4.43606e+06,2438.71,-0.271115,-0.0364848,-0.939225,-0.00176132,0.00287381,-0.00299322,0.000719695,0.0153907,0.000967514,0.0447556,0.912065,0.142091,0.7674,1620826363595933952
58.768,0.00565545,0.238741,0.000706513,0.0153952,0.000893046,0.00483198,0.0136255,1.70227,-0.00579838,-0.1706,0,0.5348,362217,4.43606e+06,2438.71,-0.271115,-0.0364848,-0.939225,-0.00176132,0.00287381,-0.00299322,0.000719695,0.0153907,0.000967514,0.0447556,0.912065,0.142091,0.7674,1620826363605938726
58.7644,0.00488073,0.238379,0.000683629,0.0154313,0.000854972,0.00484083,0.0138199,1.70228,-0.00579838,-0.1706,0,0.5348,362218,4.43606e+06,2438.72,-0.273897,-0.0363531,-0.936089,-0.00177762,0.00285882,-0.00302279,0.000696478,0.015427,0.000929751,0.044631,0.912155,0.142195,0.7674,1620826363615952341
58.7602,0.00401224,0.238028,0.000657088,0.0154729,0.000810528,0.00485077,0.0140471,1.70229,-0.005809,-0.1706,0,0.5348,362219,4.43606e+06,2438.73,-0.276233,-0.0362155,-0.933558,-0.00174415,0.00282025,-0.0030261,0.000669529,0.0154688,0.000885661,0.0445601,0.912251,0.142287,0.7674,1620826363625986906
58.7602,0.00401224,0.238028,0.000657088,0.0154729,0.000810528,0.00485077,0.0140471,1.70229,-0.00582092,-0.1706,0,0.5348,362219,4.43606e+06,2438.73,-0.276233,-0.0362155,-0.933558,-0.00174415,0.00282025,-0.0030261,0.000669529,0.0154688,0.000885661,0.0445601,0.912251,0.142287,0.7674,1620826363635961257
58.7554,0.00309081,0.237718,0.000627509,0.0155189,0.00076031,0.00486151,0.0143047,1.70231,-0.00582092,-0.1706,0,0.5348,362220,4.43606e+06,2438.75,-0.278891,-0.0360809,-0.930895,-0.00171623,0.00274538,-0.00302272,0.000639464,0.015515,0.000835831,0.0444806,0.912377,0.142392,0.7674,1620826363645959677
58.7504,0.00220535,0.237492,0.00059797,0.0155638,0.000709384,0.00487191,0.014567,1.70232,-0.00583381,-0.1706,0,0.5348,362221,4.43606e+06,2438.77,-0.281719,-0.0359618,-0.928279,-0.0016896,0.00263302,-0.00301732,0.000609409,0.0155602,0.000785284,0.0443935,0.912526,0.142504,0.7674,1620826363655932259
58.7504,0.00220535,0.237492,0.00059797,0.0155638,0.000709384,0.00487191,0.014567,1.70232,-0.00584629,-0.1706,0,0.5348,362221,4.43606e+06,2438.77,-0.281719,-0.0359618,-0.928279,-0.0016896,0.00263302,-0.00301732,0.000609409,0.0155602,0.000785284,0.0443935,0.912526,0.142504,0.7674,1620826363665947695
58.7454,0.0013792,0.237349,0.000568569,0.015607,0.000658049,0.00488192,0.014833,1.70233,-0.00584629,-0.1706,0,0.5348,362222,4.43606e+06,2438.78,-0.284558,-0.03586,-0.925863,-0.00166287,0.00249226,-0.0030054,0.000579461,0.0156036,0.000734314,0.0443104,0.91269,0.142618,0.7674,1620826363675946607
58.7454,0.0013792,0.237349,0.000568569,0.015607,0.000658049,0.00488192,0.014833,1.70233,-0.0058583,-0.1706,0,0.5348,362222,4.43606e+06,2438.78,-0.284558,-0.03586,-0.925863,-0.00166287,0.00249226,-0.0030054,0.000579461,0.0156036,0.000734314,0.0443104,0.91269,0.142618,0.7674,1620826363685944239
58.7406,0.000649471,0.237286,0.000541564,0.0156447,0.00061043,0.00489081,0.0150818,1.70234,-0.0058583,-0.1706,0,0.5348,362223,4.43606e+06,2438.8,-0.287301,-0.0357918,-0.92373,-0.00164685,0.00233217,-0.00298753,0.000551925,0.0156415,0.000687015,0.04423,0.912858,0.142728,0.7674,1620826363696007193
58.7358,-3.90243e-05,0.237288,0.000514558,0.0156803,0.000562446,0.00489939,0.0153349,1.70235,-0.00586897,-0.1706,0,0.5348,362224,4.43606e+06,2438.82,-0.289935,-0.0357306,-0.921824,-0.00161826,0.0021597,-0.00296367,0.000524362,0.0156774,0.000639338,0.0441616,0.913025,0.142834,0.7674,1620826363705975406
58.7358,-3.90243e-05,0.237288,0.000514558,0.0156803,0.000562446,0.00489939,0.0153349,1.70235,-0.00587926,-0.1706,0,0.5348,362224,4.43606e+06,2438.82,-0.289935,-0.0357306,-0.921824,-0.00161826,0.0021597,-0.00296367,0.000524362,0.0156774,0.000639338,0.0441616,0.913025,0.142834,0.7674,1620826363715950110
58.7305,-0.000728144,0.237355,0.000485929,0.0157154,0.000511347,0.00490812,0.0156081,1.70237,-0.00587926,-0.1706,0,0.5348,362225,4.43606e+06,2438.83,-0.292659,-0.0356805,-0.920016,-0.00158897,0.00196516,-0.00293007,0.000495115,0.0157127,0.000588545,0.0440982,0.913203,0.142944,0.7674,1620826363725950080
58.7305,-0.000728144,0.237355,0.000485929,0.0157154,0.000511347,0.00490812,0.0156081,1.70237,-0.00588974,-0.1706,0,0.5348,362225,4.43606e+06,2438.83,-0.292659,-0.0356805,-0.920016,-0.00158897,0.00196516,-0.00293007,0.000495115,0.0157127,0.000588545,0.0440982,0.913203,0.142944,0.7674,1620826363735886756
58.7255,-0.00133111,0.237476,0.000459608,0.0157449,0.000464003,0.00491586,0.0158647,1.70237,-0.00588974,-0.1706,0,0.5348,362226,4.43606e+06,2438.85,-0.295391,-0.0356617,-0.918351,-0.00156796,0.00175759,-0.00289459,0.000468198,0.0157424,0.000541465,0.0440321,0.913381,0.143053,0.7674,1620826363745884757
58.7255,-0.00133111,0.237476,0.000459608,0.0157449,0.000464003,0.00491586,0.0158647,1.70237,-0.00589903,-0.1706,0,0.5348,362226,4.43606e+06,2438.85,-0.295391,-0.0356617,-0.918351,-0.00156796,0.00175759,-0.00289459,0.000468198,0.0157424,0.000541465,0.0440321,0.913381,0.143053,0.7674,1620826363755949472
58.7255,-0.00133111,0.237476,0.000459608,0.0157449,0.000464003,0.00491586,0.0158647,1.70237,-0.00589903,-0.1706,0,0.5348,362226,4.43606e+06,2438.85,-0.295391,-0.0356617,-0.918351,-0.00156796,0.00175759,-0.00289459,0.000468198,0.0157424,0.000541465,0.0440321,0.913381,0.143053,0.7674,1620826363765965112
58.7108,-0.00275005,0.238094,0.000383915,0.015816,0.000332219,0.00493523,0.0166153,1.7024,-0.00589903,-0.1706,0,0.5348,362228,4.43606e+06,2438.9,-0.300262,-0.0355176,-0.915778,-0.00139269,0.00133908,-0.00273877,0.000390732,0.0158142,0.000410327,0.044018,0.91372,0.143253,0.7674,1620826363775972608
58.7108,-0.00275005,0.238094,0.000383915,0.015816,0.000332219,0.00493523,0.0166153,1.7024,-0.00592227,-0.1706,0,0.5348,362228,4.43606e+06,2438.9,-0.300262,-0.0355176,-0.915778,-0.00142815,0.00101145,-0.00272454,0.000390732,0.0158142,0.000410327,0.0438321,0.91396,0.143398,0.7674,1620826363785961905
58.7064,-0.00311645,0.238337,0.000364063,0.0158294,0.000294492,0.00494045,0.0168353,1.7024,-0.00592227,-0.1706,0,0.5348,362229,4.43606e+06,2438.92,-0.305364,-0.0357636,-0.913342,-0.00142783,0.000917308,-0.00270302,0.000370338,0.0158277,0.000372745,0.0438463,0.914023,0.14344,0.7674,1620826363795951917
58.7009,-0.003516,0.238668,0.000339124,0.0158426,0.000248923,0.00494647,0.0171072,1.70241,-0.00592854,-0.1706,0,0.5348,362230,4.43606e+06,2438.94,-0.307757,-0.0357999,-0.912304,-0.00141207,0.000715455,-0.00263833,0.000344724,0.0158412,0.000327333,0.0438159,0.914159,0.143532,0.7674,1620826363805955505
58.6971,-0.00376387,0.23891,0.000322591,0.0158492,0.000218539,0.00495035,0.0172922,1.70241,-0.00593577,-0.1706,0,0.5348,362231,4.43606e+06,2438.95,-0.31003,-0.0358911,-0.911345,-0.00139695,0.00052969,-0.00259165,0.000327727,0.015848,0.000297039,0.0437727,0.914278,0.143616,0.7674,1620826363815962396
58.6971,-0.00376387,0.23891,0.000322591,0.0158492,0.000218539,0.00495035,0.0172922,1.70241,-0.00594042,-0.1706,0,0.5348,362231,4.43606e+06,2438.95,-0.31003,-0.0358911,-0.911345,-0.00139695,0.00052969,-0.00259165,0.000327727,0.015848,0.000297039,0.0437727,0.914278,0.143616,0.7674,1620826363825966434
58.6934,-0.00398713,0.23916,0.000306398,0.0158541,0.000189147,0.00495397,0.0174746,1.70241,-0.00594042,-0.1706,0,0.5348,362232,4.43606e+06,2438.96,-0.311813,-0.0359501,-0.910622,-0.00138499,0.000383951,-0.00254346,0.000311076,0.0158529,0.000267725,0.0437494,0.914367,0.143683,0.7674,1620826363835907017
58.688,-0.00426462,0.239538,0.000283015,0.0158584,0.000147708,0.00495885,0.0177384,1.70242,-0.00594477,-0.1706,0,0.5348,362233,4.43606e+06,2438.98,-0.313927,-0.036001,-0.909807,-0.00136753,0.000212595,-0.00247328,0.000287031,0.0158575,0.000226381,0.0437343,0.914469,0.143762,0.7674,1620826363845955715
58.6844,-0.00443834,0.239801,0.000267895,0.0158593,0.000120769,0.0049619,0.0179141,1.70242,-0.00595061,-0.1706,0,0.5348,362233,4.43606e+06,2439,-0.316077,-0.0361237,-0.908966,-0.00134772,4.62268e-05,-0.00241912,0.000271468,0.0158585,0.000199492,0.0437028,0.914561,0.143837,0.7674,1620826363855951697
58.6844,-0.00443834,0.239801,0.000267895,0.0158593,0.000120769,0.0049619,0.0179141,1.70242,-0.00595428,-0.1706,0,0.5348,362233,4.43606e+06,2439,-0.316077,-0.0361237,-0.908966,-0.00134772,4.62268e-05,-0.00241912,0.000271468,0.0158585,0.000199492,0.0437028,0.914561,0.143837,0.7674,1620826363865922990
58.6789,-0.00466065,0.240204,0.000245293,0.0158582,8.1541e-05,0.00496611,0.0181772,1.70242,-0.00595428,-0.1706,0,0.5348,362234,4.43606e+06,2439.01,-0.318129,-0.0361906,-0.908205,-0.00132804,-0.000111356,-0.0023446,0.000248207,0.0158576,0.00016032,0.0436933,0.914645,0.143911,0.7674,1620826363876003308
58.6789,-0.00466065,0.240204,0.000245293,0.0158582,8.1541e-05,0.00496611,0.0181772,1.70242,-0.00595933,-0.1706,0,0.5348,362234,4.43606e+06,2439.01,-0.318129,-0.0361906,-0.908205,-0.00132804,-0.000111356,-0.0023446,0.000248207,0.0158576,0.00016032,0.0436933,0.914645,0.143911,0.7674,1620826363885925871
58.6725,-0.00485923,0.240686,0.000219471,0.0158533,3.76402e-05,0.00497051,0.0184832,1.70243,-0.00595933,-0.1706,0,0.5348,362235,4.43606e+06,2439.04,-0.320808,-0.0363226,-0.907212,-0.00130266,-0.000308253,-0.00225017,0.000221623,0.0158529,0.000116458,0.0436772,0.914742,0.144003,0.7674,1620826363895961400
58.6675,-0.00498192,0.24107,0.000200092,0.0158466,4.80747e-06,0.00497361,0.018721,1.70243,-0.00596462,-0.1706,0,0.5348,362236,4.43606e+06,2439.06,-0.323402,-0.0364997,-0.906222,-0.0012696,-0.000488036,-0.00216952,0.000201658,0.0158463,8.36364e-05,0.0436562,0.914822,0.144088,0.7674,1620826363905997514
58.6675,-0.00498192,0.24107,0.000200092,0.0158466,4.80747e-06,0.00497361,0.018721,1.70243,-0.00596834,-0.1706,0,0.5348,362236,4.43606e+06,2439.06,-0.323402,-0.0364997,-0.906222,-0.0012696,-0.000488036,-0.00216952,0.000201658,0.0158463,8.36364e-05,0.0436562,0.914822,0.144088,0.7674,1620826363915957148
58.6621,-0.00509316,0.241487,0.000179557,0.0158368,-2.92203e-05,0.00497662,0.018977,1.70243,-0.00596834,-0.1706,0,0.5348,362237,4.43606e+06,2439.08,-0.325705,-0.0366443,-0.905367,-0.00124486,-0.000640881,-0.00208485,0.000180498,0.0158368,4.96025e-05,0.0436475,0.914884,0.144162,0.7674,1620826363926012817
58.6621,-0.00509316,0.241487,0.000179557,0.0158368,-2.92203e-05,0.00497662,0.018977,1.70243,-0.00597194,-0.1706,0,0.5348,362237,4.43606e+06,2439.08,-0.325705,-0.0366443,-0.905367,-0.00124486,-0.000640881,-0.00208485,0.000180498,0.0158368,4.96025e-05,0.0436475,0.914884,0.144162,0.7674,1620826363935929412
58.6562,-0.00516168,0.241938,0.000158005,0.0158237,-6.41532e-05,0.00497945,0.0192514,1.70243,-0.00597194,-0.1706,0,0.5348,362238,4.43606e+06,2439.1,-0.328167,-0.0368122,-0.904428,-0.00121908,-0.000794569,-0.00199173,0.000158286,0.0158239,1.46435e-05,0.0436414,0.914938,0.144239,0.7674,1620826363945991639
58.6562,-0.00516168,0.241938,0.000158005,0.0158237,-6.41532e-05,0.00497945,0.0192514,1.70243,-0.00597534,-0.1706,0,0.5348,362238,4.43606e+06,2439.1,-0.328167,-0.0368122,-0.904428,-0.00121908,-0.000794569,-0.00199173,0.000158286,0.0158239,1.46435e-05,0.0436414,0.914938,0.144239,0.7674,1620826363956005479
58.6562,-0.00516168,0.241938,0.000158005,0.0158237,-6.41532e-05,0.00497945,0.0192514,1.70243,-0.00597534,-0.1706,0,0.5348,362238,4.43606e+06,2439.1,-0.328167,-0.0368122,-0.904428,-0.00121908,-0.000794569,-0.00199173,0.000158286,0.0158239,1.46435e-05,0.0436414,0.914938,0.144239,0.7674,1620826363966009027
58.643,-0.00519751,0.24291,0.000109804,0.0157875,-0.000135119,0.00498407,0.0198571,1.70243,-0.00597534,-0.1706,0,0.5348,362240,4.43606e+06,2439.15,-0.332087,-0.0370249,-0.902926,-0.00118639,-0.00101969,-0.00179547,0.000108684,0.015788,-5.64429e-05,0.0436587,0.915005,0.144358,0.7674,1620826363975971857
58.643,-0.00519751,0.24291,0.000109804,0.0157875,-0.000135119,0.00498407,0.0198571,1.70243,-0.00598088,-0.1706,0,0.5348,362240,4.43606e+06,2439.15,-0.332087,-0.0370249,-0.902926,-0.00118639,-0.00101969,-0.00179547,0.000108684,0.015788,-5.64429e-05,0.0436587,0.915005,0.144358,0.7674,1620826363985967987
58.6354,-0.00516112,0.243475,8.54075e-05,0.015761,-0.000172152,0.00498605,0.0202054,1.70242,-0.00598088,-0.1706,0,0.5348,362242,4.43606e+06,2439.17,-0.336586,-0.0375053,-0.900992,-0.00108678,-0.00124113,-0.0016437,8.35167e-05,0.0157617,-9.35844e-05,0.0436533,0.915043,0.144477,0.7674,1620826363995931740
58.6307,-0.00511206,0.243812,7.16997e-05,0.0157435,-0.000192817,0.004987,0.0204121,1.70242,-0.00598326,-0.1706,0,0.5348,362242,4.43606e+06,2439.19,-0.33918,-0.0377911,-0.899847,-0.00103871,-0.00135627,-0.00155432,6.93662e-05,0.0157442,-0.000114326,0.0436565,0.91505,0.14454,0.7674,1620826364005979394
58.6307,-0.00511206,0.243812,7.16997e-05,0.0157435,-0.000192817,0.004987,0.0204121,1.70242,-0.00598441,-0.1706,0,0.5348,362242,4.43606e+06,2439.19,-0.33918,-0.0377911,-0.899847,-0.00103871,-0.00135627,-0.00155432,6.93662e-05,0.0157442,-0.000114326,0.0436565,0.91505,0.14454,0.7674,1620826364015953424
58.6247,-0.00504018,0.244246,5.36654e-05,0.015719,-0.000218406,0.00498796,0.0206836,1.70242,-0.00598441,-0.1706,0,0.5348,362243,4.43606e+06,2439.21,-0.341318,-0.0379811,-0.898905,-0.00103246,-0.00144291,-0.0014567,5.07693e-05,0.0157199,-0.000140028,0.0436677,0.915047,0.144592,0.7674,1620826364025953981
58.6247,-0.00504018,0.244246,5.36654e-05,0.015719,-0.000218406,0.00498796,0.0206836,1.70242,-0.00598555,-0.1706,0,0.5348,362243,4.43606e+06,2439.21,-0.341318,-0.0379811,-0.898905,-0.00103246,-0.00144291,-0.0014567,5.07693e-05,0.0157199,-0.000140028,0.0436677,0.915047,0.144592,0.7674,1620826364035972807
58.6181,-0.00494316,0.244699,3.49242e-05,0.0156912,-0.000243719,0.00498863,0.0209723,1.70242,-0.00598555,-0.1706,0,0.5348,362244,4.43606e+06,2439.24,-0.343841,-0.0382295,-0.897734,-0.00100521,-0.00153488,-0.00134927,3.14541e-05,0.0156922,-0.000165475,0.0436825,0.915034,0.144648,0.7674,1620826364045934728
58.6127,-0.00484358,0.245066,2.01802e-05,0.015667,-0.000263039,0.00498893,0.0212093,1.70242,-0.00598636,-0.1706,0,0.5348,362245,4.43606e+06,2439.26,-0.346231,-0.0384933,-0.896571,-0.000965765,-0.00161303,-0.00125546,1.62585e-05,0.0156681,-0.000184916,0.0436983,0.915012,0.144698,0.7674,1620826364056033151
58.6127,-0.00484358,0.245066,2.01802e-05,0.015667,-0.000263039,0.00498893,0.0212093,1.70242,-0.00598672,-0.1706,0,0.5348,362245,4.43606e+06,2439.26,-0.346231,-0.0384933,-0.896571,-0.000965765,-0.00161303,-0.00125546,1.62585e-05,0.0156681,-0.000184916,0.0436983,0.915012,0.144698,0.7674,1620826364065926831
58.6065,-0.00471543,0.245475,3.63346e-06,0.0156384,-0.000283368,0.00498899,0.0214789,1.70241,-0.00598672,-0.1706,0,0.5348,362246,4.43606e+06,2439.28,-0.348487,-0.0387302,-0.895446,-0.0009498,-0.00167806,-0.00115445,-7.77812e-07,0.0156396,-0.000205392,0.0437171,0.914984,0.144742,0.7674,1620826364075949690
58.6065,-0.00471543,0.245475,3.63346e-06,0.0156384,-0.000283368,0.00498899,0.0214789,1.70241,-0.00598679,-0.1706,0,0.5348,362246,4.43606e+06,2439.28,-0.348487,-0.0387302,-0.895446,-0.0009498,-0.00167806,-0.00115445,-7.77812e-07,0.0156396,-0.000205392,0.0437171,0.914984,0.144742,0.7674,1620826364085927186
58.6009,-0.00457541,0.245838,-1.07072e-05,0.0156115,-0.000300264,0.00498881,0.0217227,1.70241,-0.00598679,-0.1706,0,0.5348,362247,4.43606e+06,2439.3,-0.350791,-0.0389945,-0.894251,-0.000911763,-0.00173635,-0.00105924,-1.55386e-05,0.0156128,-0.000222431,0.0437383,0.914949,0.144783,0.7674,1620826364095926207
58.5947,-0.00441243,0.246223,-2.59641e-05,0.0155814,-0.000316974,0.00498834,0.0219875,1.7024,-0.00598657,-0.1706,0,0.5348,362248,4.43606e+06,2439.33,-0.353045,-0.0392512,-0.893033,-0.00089171,-0.00178569,-0.000958358,-3.12253e-05,0.0155828,-0.000239303,0.0437617,0.914907,0.14482,0.7674,1620826364105992667
58.5947,-0.00441243,0.246223,-2.59641e-05,0.0155814,-0.000316974,0.00498834,0.0219875,1.7024,-0.00598601,-0.1706,0,0.5348,362248,4.43606e+06,2439.33,-0.353045,-0.0392512,-0.893033,-0.00089171,-0.00178569,-0.000958358,-3.12253e-05,0.0155828,-0.000239303,0.0437617,0.914907,0.14482,0.7674,1620826364115997011
58.5884,-0.00422877,0.246598,-4.06695e-05,0.0155505,-0.00033195,0.00498762,0.0222515,1.7024,-0.00598601,-0.1706,0,0.5348,362249,4.43606e+06,2439.35,-0.355391,-0.0395294,-0.891721,-0.00086202,-0.00183009,-0.000857113,-4.6331e-05,0.015552,-0.000254449,0.0437887,0.914856,0.144856,0.7674,1620826364126007622
58.5884,-0.00422877,0.246598,-4.06695e-05,0.0155505,-0.00033195,0.00498762,0.0222515,1.7024,-0.00598515,-0.1706,0,0.5348,362249,4.43606e+06,2439.35,-0.355391,-0.0395294,-0.891721,-0.00086202,-0.00183009,-0.000857113,-4.6331e-05,0.015552,-0.000254449,0.0437887,0.914856,0.144856,0.7674,1620826364135960131
58.5884,-0.00422877,0.246598,-4.06695e-05,0.0155505,-0.00033195,0.00498762,0.0222515,1.7024,-0.00598515,-0.1706,0,0.5348,362249,4.43606e+06,2439.35,-0.355391,-0.0395294,-0.891721,-0.00086202,-0.00183009,-0.000857113,-4.6331e-05,0.015552,-0.000254449,0.0437887,0.914856,0.144856,0.7674,1620826364145948393
58.5752,-0.00381472,0.247326,-7.26432e-05,0.0154838,-0.000358014,0.00498508,0.0228073,1.70239,-0.00598515,-0.1706,0,0.5348,362251,4.43606e+06,2439.4,-0.358887,-0.039869,-0.889659,-0.000873127,-0.00187099,-0.000674029,-7.9049e-05,0.0154854,-0.000280895,0.0438311,0.914764,0.144903,0.7674,1620826364155937645
58.5722,-0.00372002,0.24749,-7.84142e-05,0.0154688,-0.000362763,0.00498441,0.0229306,1.70239,-0.0059821,-0.1706,0,0.5348,362252,4.43606e+06,2439.42,-0.361472,-0.0402896,-0.888051,-0.000721894,-0.00191113,-0.000551172,-8.49656e-05,0.0154704,-0.000285731,0.0438924,0.914663,0.14494,0.7674,1620826364165960668
58.5692,-0.00363404,0.247653,-8.41666e-05,0.0154535,-0.000367155,0.00498368,0.0230537,1.70239,-0.00598129,-0.1706,0,0.5348,362252,4.43606e+06,2439.43,-0.362555,-0.0404265,-0.887324,-0.000721894,-0.00191113,-0.000551172,-9.08565e-05,0.0154552,-0.000290212,0.0438924,0.914663,0.14494,0.7674,1620826364175963978
58.5634,-0.0034378,0.247963,-9.48795e-05,0.0154239,-0.000374669,0.00498216,0.0232912,1.70238,-0.00598042,-0.1706,0,0.5348,362253,4.43606e+06,2439.45,-0.364681,-0.0406926,-0.885966,-0.000698518,-0.00192972,-0.000466616,-0.000101817,0.0154256,-0.000297901,0.0439251,0.9146,0.144959,0.7674,1620826364185979983
58.5588,-0.00329736,0.248205,-0.000103031,0.0154003,-0.000379676,0.00498084,0.0234789,1.70238,-0.00597859,-0.1706,0,0.5348,362254,4.43606e+06,2439.47,-0.366562,-0.0409475,-0.884738,-0.000670414,-0.00194368,-0.000395148,-0.000110145,0.015402,-0.000303049,0.0439569,0.914542,0.144972,0.7674,1620826364195959944
58.5545,-0.00314696,0.248429,-0.000110471,0.015378,-0.00038365,0.00497952,0.0236549,1.70237,-0.00597701,-0.1706,0,0.5348,362254,4.43606e+06,2439.48,-0.368153,-0.0411557,-0.883681,-0.00065224,-0.00195272,-0.000332278,-0.000117736,0.0153797,-0.000307157,0.0439839,0.914491,0.144982,0.7674,1620826364205986010
58.5545,-0.00314696,0.248429,-0.000110471,0.015378,-0.00038365,0.00497952,0.0236549,1.70237,-0.00597542,-0.1706,0,0.5348,362254,4.43606e+06,2439.48,-0.368153,-0.0411557,-0.883681,-0.00065224,-0.00195272,-0.000332278,-0.000117736,0.0153797,-0.000307157,0.0439839,0.914491,0.144982,0.7674,1620826364215950692
58.548,-0.00292611,0.248747,-0.0001215,0.015345,-0.000388211,0.00497739,0.0239135,1.70237,-0.00597542,-0.1706,0,0.5348,362255,4.43606e+06,2439.51,-0.370009,-0.0413745,-0.882424,-0.000659268,-0.0019581,-0.000248304,-0.000128958,0.0153467,-0.000311918,0.044013,0.914428,0.144992,0.7674,1620826364225956568
58.548,-0.00292611,0.248747,-0.0001215,0.015345,-0.000388211,0.00497739,0.0239135,1.70237,-0.00597287,-0.1706,0,0.5348,362255,4.43606e+06,2439.51,-0.370009,-0.0413745,-0.882424,-0.000659268,-0.0019581,-0.000248304,-0.000128958,0.0153467,-0.000311918,0.044013,0.914428,0.144992,0.7674,1620826364235975319
58.5407,-0.0026893,0.249096,-0.000133563,0.0153077,-0.000391586,0.00497477,0.0242049,1.70236,-0.00597287,-0.1706,0,0.5348,362256,4.43606e+06,2439.54,-0.372384,-0.0416717,-0.880757,-0.000636539,-0.00196153,-0.000153439,-0.000141199,0.0153095,-0.000315522,0.0440551,0.914344,0.145001,0.7674,1620826364245990250
58.5355,-0.00251787,0.249343,-0.000141484,0.015281,-0.000392865,0.00497276,0.0244128,1.70236,-0.00596972,-0.1706,0,0.5348,362257,4.43606e+06,2439.56,-0.374584,-0.0419878,-0.879172,-0.000587325,-0.00196365,-7.69189e-05,-0.000149221,0.0152828,-0.000316966,0.044101,0.914266,0.145006,0.7674,1620826364255985967
58.5355,-0.00251787,0.249343,-0.000141484,0.015281,-0.000392865,0.00497276,0.0244128,1.70236,-0.00596732,-0.1706,0,0.5348,362257,4.43606e+06,2439.56,-0.374584,-0.0419878,-0.879172,-0.000587325,-0.00196365,-7.69189e-05,-0.000149221,0.0152828,-0.000316966,0.044101,0.914266,0.145006,0.7674,1620826364265947400
58.529,-0.00231216,0.249638,-0.000150977,0.0152484,-0.000393201,0.00497017,0.0246663,1.70235,-0.00596732,-0.1706,0,0.5348,362258,4.43606e+06,2439.59,-0.37656,-0.0422324,-0.877731,-0.000578896,-0.00196157,7.0917e-07,-0.000158808,0.0152502,-0.000317506,0.0441375,0.914192,0.145008,0.7674,1620826364275965666
58.529,-0.00231216,0.249638,-0.000150977,0.0152484,-0.000393201,0.00497017,0.0246663,1.70235,-0.0059642,-0.1706,0,0.5348,362258,4.43606e+06,2439.59,-0.37656,-0.0422324,-0.877731,-0.000578896,-0.00196157,7.0917e-07,-0.000158808,0.0152502,-0.000317506,0.0441375,0.914192,0.145008,0.7674,1620826364286075387
58.522,-0.00207853,0.249948,-0.000160772,0.0152133,-0.000392075,0.00496719,0.0249396,1.70235,-0.0059642,-0.1706,0,0.5348,362259,4.43606e+06,2439.61,-0.378825,-0.0425261,-0.876036,-0.000554087,-0.0019559,8.51673e-05,-0.000168667,0.015215,-0.000316602,0.0441826,0.914106,0.145007,0.7674,1620826364295989657
58.5155,-0.0018849,0.250228,-0.00016916,0.0151811,-0.000389736,0.0049643,0.0251902,1.70234,-0.00596062,-0.1706,0,0.5348,362260,4.43606e+06,2439.64,-0.381091,-0.0428253,-0.874303,-0.000514329,-0.00194955,0.000159896,-0.000177081,0.0151828,-0.000314468,0.0442315,0.91402,0.145003,0.7674,1620826364305927437
58.5155,-0.0018849,0.250228,-0.00016916,0.0151811,-0.000389736,0.0049643,0.0251902,1.70234,-0.00595716,-0.1706,0,0.5348,362260,4.43606e+06,2439.64,-0.381091,-0.0428253,-0.874303,-0.000514329,-0.00194955,0.000159896,-0.000177081,0.0151828,-0.000314468,0.0442315,0.91402,0.145003,0.7674,1620826364315957384
58.5084,-0.00167275,0.250527,-0.000177868,0.0151463,-0.000385852,0.00496101,0.0254618,1.70234,-0.00595716,-0.1706,0,0.5348,362261,4.43606e+06,2439.67,-0.383326,-0.0431104,-0.87256,-0.000497508,-0.00194095,0.000236573,-0.000185781,0.015148,-0.000310807,0.0442783,0.913933,0.144996,0.7674,1620826364326013081
58.5084,-0.00167275,0.250527,-0.000177868,0.0151463,-0.000385852,0.00496101,0.0254618,1.70234,-0.00595322,-0.1706,0,0.5348,362261,4.43606e+06,2439.67,-0.383326,-0.0431104,-0.87256,-0.000497508,-0.00194095,0.000236573,-0.000185781,0.015148,-0.000310807,0.0442783,0.913933,0.144996,0.7674,1620826364335927254
58.5028,-0.00150764,0.250761,-0.000184098,0.0151191,-0.000381857,0.00495834,0.0256743,1.70233,-0.00595322,-0.1706,0,0.5348,362262,4.43606e+06,2439.69,-0.385428,-0.043403,-0.870897,-0.000449858,-0.00193286,0.000299551,-0.000191979,0.0151208,-0.000306988,0.0443287,0.913852,0.144987,0.7674,1620826364345952880
58.4958,-0.00131391,0.251047,-0.000191772,0.0150851,-0.000375696,0.00495485,0.0259406,1.70233,-0.00595001,-0.1706,0,0.5348,362263,4.43606e+06,2439.72,-0.387454,-0.0436486,-0.869265,-0.000444796,-0.00192199,0.000367117,-0.00019958,0.0150868,-0.000301048,0.0443708,0.913771,0.144976,0.7674,1620826364355962829
58.4958,-0.00131391,0.251047,-0.000191772,0.0150851,-0.000375696,0.00495485,0.0259406,1.70233,-0.00594582,-0.1706,0,0.5348,362263,4.43606e+06,2439.72,-0.387454,-0.0436486,-0.869265,-0.000444796,-0.00192199,0.000367117,-0.00019958,0.0150868,-0.000301048,0.0443708,0.913771,0.144976,0.7674,1620826364366002282
58.4915,-0.0012071,0.251215,-0.000196079,0.0150648,-0.000371406,0.00495269,0.0261006,1.70232,-0.00594582,-0.1706,0,0.5348,362264,4.43606e+06,2439.74,-0.388568,-0.0437738,-0.86835,-0.00040578,-0.00191572,0.000404136,-0.000203827,0.0150664,-0.000296892,0.0444184,0.913726,0.144969,0.7674,1620826364375960153
58.4872,-0.00109338,0.251382,-0.000200621,0.0150445,-0.000366698,0.00495048,0.0262603,1.70232,-0.00594323,-0.1706,0,0.5348,362264,4.43606e+06,2439.75,-0.389935,-0.0439474,-0.867232,-0.000427879,-0.00190624,0.000443482,-0.000208297,0.0150462,-0.000292317,0.0444246,0.913672,0.144959,0.7674,1620826364385982869
58.4824,-0.000975211,0.251577,-0.000204799,0.0150217,-0.000360886,0.00494793,0.0264413,1.70232,-0.00594057,-0.1706,0,0.5348,362265,4.43606e+06,2439.77,-0.39213,-0.0442699,-0.865412,-0.0003539,-0.00189757,0.000493385,-0.000212377,0.0150233,-0.000286655,0.0444866,0.913587,0.144942,0.7674,1620826364395998153
58.4824,-0.000975211,0.251577,-0.000204799,0.0150217,-0.000360886,0.00494793,0.0264413,1.70232,-0.00593752,-0.1706,0,0.5348,362265,4.43606e+06,2439.77,-0.39213,-0.0442699,-0.865412,-0.0003539,-0.00189757,0.000493385,-0.000212377,0.0150233,-0.000286655,0.0444866,0.913587,0.144942,0.7674,1620826364405961752
58.4748,-0.000806107,0.251871,-0.000211471,0.0149862,-0.000350807,0.00494386,0.0267229,1.70231,-0.00593752,-0.1706,0,0.5348,362266,4.43606e+06,2439.8,-0.394055,-0.0444828,-0.863795,-0.000369786,-0.00188409,0.00055374,-0.000218868,0.0149878,-0.000276812,0.0445249,0.913509,0.144925,0.7674,1620826364415956377
58.4689,-0.000677355,0.252098,-0.000215944,0.0149593,-0.000342354,0.00494066,0.0269378,1.70231,-0.00593263,-0.1706,0,0.5348,362267,4.43606e+06,2439.83,-0.396194,-0.0447677,-0.861977,-0.000325202,-0.00187335,0.000600963,-0.000223177,0.0149608,-0.000268539,0.044582,0.913426,0.144904,0.7674,1620826364425952734
58.4689,-0.000677355,0.252098,-0.000215944,0.0149593,-0.000342354,0.00494066,0.0269378,1.70231,-0.0059288,-0.1706,0,0.5348,362267,4.43606e+06,2439.83,-0.396194,-0.0447677,-0.861977,-0.000325202,-0.00187335,0.000600963,-0.000223177,0.0149608,-0.000268539,0.044582,0.913426,0.144904,0.7674,1620826364435957528
58.4622,-0.000549525,0.252354,-0.000220816,0.0149288,-0.000331996,0.00493696,0.0271817,1.7023,-0.0059288,-0.1706,0,0.5348,362268,4.43606e+06,2439.86,-0.398129,-0.0449905,-0.860314,-0.000311519,-0.00186316,0.000646259,-0.000227839,0.0149303,-0.000258385,0.0446271,0.913349,0.144884,0.7674,1620826364445964560
58.4554,-0.000432656,0.25261,-0.000225396,0.0148983,-0.000320789,0.00493316,0.0274272,1.7023,-0.00592436,-0.1706,0,0.5348,362269,4.43606e+06,2439.88,-0.400201,-0.0452406,-0.858523,-0.000291732,-0.00185168,0.000691935,-0.00023218,0.0148997,-0.000247382,0.0446784,0.913268,0.14486,0.7674,1620826364456003594
58.4554,-0.000432656,0.25261,-0.000225396,0.0148983,-0.000320789,0.00493316,0.0274272,1.7023,-0.00591979,-0.1706,0,0.5348,362269,4.43606e+06,2439.88,-0.400201,-0.0452406,-0.858523,-0.000291732,-0.00185168,0.000691935,-0.00023218,0.0148997,-0.000247382,0.0446784,0.913268,0.14486,0.7674,1620826364465962533
58.4481,-0.000311128,0.252882,-0.000229986,0.0148658,-0.000308015,0.00492901,0.0276893,1.7023,-0.00591979,-0.1706,0,0.5348,362270,4.43606e+06,2439.91,-0.402341,-0.0454904,-0.85664,-0.00027766,-0.0018399,0.000736725,-0.000236487,0.0148672,-0.000234827,0.0447307,0.913184,0.144833,0.7674,1620826364475921188
58.4481,-0.000311128,0.252882,-0.000229986,0.0148658,-0.000308015,0.00492901,0.0276893,1.7023,-0.00591481,-0.1706,0,0.5348,362270,4.43606e+06,2439.91,-0.402341,-0.0454904,-0.85664,-0.00027766,-0.0018399,0.000736725,-0.000236487,0.0148672,-0.000234827,0.0447307,0.913184,0.144833,0.7674,1620826364485980399
58.4414,-0.000225869,0.253131,-0.00023366,0.0148365,-0.000295766,0.00492518,0.0279273,1.70229,-0.00591481,-0.1706,0,0.5348,362271,4.43606e+06,2439.94,-0.404464,-0.0457411,-0.854762,-0.000242122,-0.00182969,0.000772167,-0.000239881,0.0148377,-0.000222777,0.0447867,0.913102,0.144805,0.7674,1620826364495985445
58.4344,-0.000155043,0.25339,-0.000237184,0.014806,-0.00028242,0.00492113,0.028175,1.70229,-0.00591022,-0.1706,0,0.5348,362272,4.43606e+06,2439.97,-0.406508,-0.0459691,-0.852943,-0.000224434,-0.00181999,0.00080599,-0.00024309,0.0148072,-0.000209638,0.0448379,0.913023,0.144777,0.7674,1620826364506000359
58.4344,-0.000155043,0.25339,-0.000237184,0.014806,-0.00028242,0.00492113,0.028175,1.70229,-0.00590536,-0.1706,0,0.5348,362272,4.43606e+06,2439.97,-0.406508,-0.0459691,-0.852943,-0.000224434,-0.00181999,0.00080599,-0.00024309,0.0148072,-0.000209638,0.0448379,0.913023,0.144777,0.7674,1620826364515986250
58.4273,-9.62672e-05,0.253653,-0.000240411,0.0147753,-0.000268364,0.00491698,0.0284256,1.70229,-0.00590536,-0.1706,0,0.5348,362273,4.43606e+06,2440,-0.408605,-0.0462007,-0.851047,-0.000206776,-0.00181056,0.000836595,-0.000245976,0.0147764,-0.00019579,0.0448914,0.912943,0.144746,0.7674,1620826364525996968
58.4273,-9.62672e-05,0.253653,-0.000240411,0.0147753,-0.000268364,0.00491698,0.0284256,1.70229,-0.00590037,-0.1706,0,0.5348,362273,4.43606e+06,2440,-0.408605,-0.0462007,-0.851047,-0.000206776,-0.00181056,0.000836595,-0.000245976,0.0147764,-0.00019579,0.0448914,0.912943,0.144746,0.7674,1620826364535982621
58.4199,-4.28012e-05,0.253924,-0.000243455,0.0147438,-0.000253408,0.00491265,0.028683,1.70228,-0.00590037,-0.1706,0,0.5348,362274,4.43606e+06,2440.03,-0.410738,-0.0464301,-0.849115,-0.000189659,-0.00180162,0.000864483,-0.000248647,0.0147449,-0.000181048,0.044946,0.912861,0.144714,0.7674,1620826364545932469
58.4133,-2.21024e-05,0.254168,-0.000245697,0.014716,-0.00023977,0.00490878,0.0289111,1.70228,-0.00589518,-0.1706,0,0.5348,362275,4.43606e+06,2440.06,-0.41279,-0.0466554,-0.847242,-0.000159256,-0.00179463,0.000884608,-0.000250542,0.014717,-0.0001676,0.0450019,0.912785,0.144682,0.7674,1620826364555971202
58.4133,-2.21024e-05,0.254168,-0.000245697,0.014716,-0.00023977,0.00490878,0.0289111,1.70228,-0.00589053,-0.1706,0,0.5348,362275,4.43606e+06,2440.06,-0.41279,-0.0466554,-0.847242,-0.000159256,-0.00179463,0.000884608,-0.000250542,0.014717,-0.0001676,0.0450019,0.912785,0.144682,0.7674,1620826364565945369
58.4042,-3.36315e-06,0.254496,-0.000248799,0.014678,-0.000220551,0.00490342,0.0292232,1.70228,-0.00589053,-0.1706,0,0.5348,362276,4.43606e+06,2440.1,-0.41502,-0.04686,-0.845182,-0.000166105,-0.00178541,0.000911103,-0.000253142,0.0146789,-0.00014864,0.0450522,0.912699,0.144646,0.7674,1620826364575927402
58.4042,-3.36315e-06,0.254496,-0.000248799,0.014678,-0.000220551,0.00490342,0.0292232,1.70228,-0.0058841,-0.1706,0,0.5348,362276,4.43606e+06,2440.1,-0.41502,-0.04686,-0.845182,-0.000166105,-0.00178541,0.000911103,-0.000253142,0.0146789,-0.00014864,0.0450522,0.912699,0.144646,0.7674,1620826364585928608
58.3963,-1.03344e-05,0.254788,-0.000250813,0.014645,-0.000203487,0.00489871,0.0294946,1.70227,-0.0058841,-0.1706,0,0.5348,362277,4.43606e+06,2440.13,-0.41748,-0.0471158,-0.842894,-0.000127086,-0.00177806,0.000924535,-0.0002547,0.0146458,-0.000131801,0.0451205,0.912608,0.144606,0.7674,1620826364595957358
58.3916,-1.68169e-05,0.254965,-0.000251581,0.0146257,-0.000193374,0.00489593,0.0296541,1.70227,-0.00587845,-0.1706,0,0.5348,362278,4.43606e+06,2440.15,-0.419328,-0.0473375,-0.841181,-8.30748e-05,-0.00177708,0.000930248,-0.000255192,0.0146264,-0.000121819,0.0451794,0.912542,0.144575,0.7674,1620826364605948824
58.3916,-1.68169e-05,0.254965,-0.000251581,0.0146257,-0.000193374,0.00489593,0.0296541,1.70227,-0.00587511,-0.1706,0,0.5348,362278,4.43606e+06,2440.15,-0.419328,-0.0473375,-0.841181,-8.30748e-05,-0.00177708,0.000930248,-0.000255192,0.0146264,-0.000121819,0.0451794,0.912542,0.144575,0.7674,1620826364615958221
58.3836,-6.25171e-05,0.255255,-0.000253136,0.0145932,-0.000176202,0.00489125,0.0299209,1.70227,-0.00587511,-0.1706,0,0.5348,362279,4.43606e+06,2440.19,-0.421064,-0.0474628,-0.839553,-0.000103101,-0.00177261,0.00094144,-0.000256273,0.0145939,-0.000104868,0.0452144,0.912477,0.144545,0.7674,1620826364625981083
58.3836,-6.25171e-05,0.255255,-0.000253136,0.0145932,-0.000176202,0.00489125,0.0299209,1.70227,-0.0058695,-0.1706,0,0.5348,362279,4.43606e+06,2440.19,-0.421064,-0.0474628,-0.839553,-0.000103101,-0.00177261,0.00094144,-0.000256273,0.0145939,-0.000104868,0.0452144,0.912477,0.144545,0.7674,1620826364635991412
58.3772,-0.000102066,0.255494,-0.000253983,0.0145671,-0.000162305,0.00488747,0.0301358,1.70227,-0.0058695,-0.1706,0,0.5348,362279,4.43606e+06,2440.21,-0.423094,-0.0476699,-0.837638,-7.45455e-05,-0.00177077,0.00094423,-0.00025673,0.0145678,-9.11482e-05,0.0452725,0.912404,0.144511,0.7674,1620826364645954344
58.3702,-0.000160887,0.255753,-0.000254755,0.0145389,-0.00014723,0.00488337,0.0303677,1.70227,-0.00586496,-0.1706,0,0.5348,362280,4.43606e+06,2440.24,-0.424948,-0.0478296,-0.835886,-6.40756e-05,-0.00176888,0.000946172,-0.000257071,0.0145395,-7.62646e-05,0.0453192,0.912337,0.144478,0.7674,1620826364655992413
58.3702,-0.000160887,0.255753,-0.000254755,0.0145389,-0.00014723,0.00488337,0.0303677,1.70227,-0.00586004,-0.1706,0,0.5348,362280,4.43606e+06,2440.24,-0.424948,-0.0478296,-0.835886,-6.40756e-05,-0.00176888,0.000946172,-0.000257071,0.0145395,-7.62646e-05,0.0453192,0.912337,0.144478,0.7674,1620826364665959470
58.3628,-0.000237498,0.25603,-0.000255456,0.0145089,-0.00013115,0.004879,0.0306144,1.70227,-0.00586004,-0.1706,0,0.5348,362281,4.43606e+06,2440.28,-0.426933,-0.0479968,-0.834,-6.03112e-05,-0.00176766,0.000944961,-0.000257305,0.0145094,-6.03881e-05,0.0453695,0.912265,0.144444,0.7674,1620826364675984832
58.3628,-0.000237498,0.25603,-0.000255456,0.0145089,-0.00013115,0.004879,0.0306144,1.70227,-0.0058548,-0.1706,0,0.5348,362281,4.43606e+06,2440.28,-0.426933,-0.0479968,-0.834,-6.03112e-05,-0.00176766,0.000944961,-0.000257305,0.0145094,-6.03881e-05,0.0453695,0.912265,0.144444,0.7674,1620826364685957220
58.3554,-0.000342007,0.256303,-0.0002559,0.0144796,-0.000115514,0.00487473,0.0308548,1.70227,-0.0058548,-0.1706,0,0.5348,362282,4.43605e+06,2440.31,-0.428959,-0.0481721,-0.832056,-4.42995e-05,-0.00176701,0.000940564,-0.000257287,0.01448,-4.49504e-05,0.045423,0.912193,0.144409,0.7674,1620826364695963509
58.3482,-0.000444085,0.256572,-0.000256124,0.0144508,-0.000100335,0.00487055,0.0310898,1.70227,-0.00584967,-0.1706,0,0.5348,362283,4.43605e+06,2440.34,-0.430935,-0.0483356,-0.830157,-3.28665e-05,-0.0017675,0.000932587,-0.000257055,0.0144512,-2.99654e-05,0.0454749,0.912122,0.144374,0.7674,1620826364705984162
58.3482,-0.000444085,0.256572,-0.000256124,0.0144508,-0.000100335,0.00487055,0.0310898,1.70227,-0.00584466,-0.1706,0,0.5348,362283,4.43605e+06,2440.34,-0.430935,-0.0483356,-0.830157,-3.28665e-05,-0.0017675,0.000932587,-0.000257055,0.0144512,-2.99654e-05,0.0454749,0.912122,0.144374,0.7674,1620826364715952778
58.3407,-0.00057556,0.256854,-0.00025618,0.0144209,-8.4704e-05,0.00486621,0.0313339,1.70226,-0.00584466,-0.1706,0,0.5348,362284,4.43605e+06,2440.37,-0.432917,-0.048487,-0.828241,-2.1433e-05,-0.00176802,0.000921051,-0.000256636,0.0144212,-1.45351e-05,0.0455254,0.912052,0.14434,0.7674,1620826364725959101
58.3407,-0.00057556,0.256854,-0.00025618,0.0144209,-8.4704e-05,0.00486621,0.0313339,1.70226,-0.00583945,-0.1706,0,0.5348,362284,4.43605e+06,2440.37,-0.432917,-0.048487,-0.828241,-2.1433e-05,-0.00176802,0.000921051,-0.000256636,0.0144212,-1.45351e-05,0.0455254,0.912052,0.14434,0.7674,1620826364735982603
58.3407,-0.00057556,0.256854,-0.00025618,0.0144209,-8.4704e-05,0.00486621,0.0313339,1.70226,-0.00583945,-0.1706,0,0.5348,362284,4.43605e+06,2440.37,-0.432917,-0.048487,-0.828241,-2.1433e-05,-0.00176802,0.000921051,-0.000256636,0.0144212,-1.45351e-05,0.0455254,0.912052,0.14434,0.7674,1620826364745988568
58.3311,-0.000771071,0.257184,-0.000256371,0.0143828,-6.46404e-05,0.00486069,0.0316437,1.70226,-0.00583945,-0.1706,0,0.5348,362285,4.43605e+06,2440.41,-0.433774,-0.0484248,-0.827381,-8.85054e-06,-0.00176967,0.000931502,-0.000256204,0.014383,5.27322e-06,0.0455779,0.912016,0.144323,0.7674,1620826364756070316
58.3214,-0.000990393,0.257519,-0.000257734,0.0143451,-4.50612e-05,0.00485516,0.0319526,1.70227,-0.00583283,-0.1706,0,0.5348,362287,4.43605e+06,2440.45,-0.436344,-0.0486144,-0.824864,-6.33108e-05,-0.00175317,0.00090901,-0.000256949,0.0143451,2.45991e-05,0.0455782,0.911917,0.144278,0.7674,1620826364765975001
58.3115,-0.00121926,0.25789,-0.000255926,0.014307,-2.63358e-05,0.0048496,0.0322645,1.70227,-0.00582619,-0.1706,0,0.5348,362288,4.43605e+06,2440.5,-0.440313,-0.0489973,-0.820893,4.29691e-05,-0.00175416,0.000852733,-0.000254537,0.0143069,4.30697e-05,0.0457113,0.911777,0.144214,0.7674,1620826364775963499
58.3115,-0.00121926,0.25789,-0.000255926,0.014307,-2.63358e-05,0.0048496,0.0322645,1.70227,-0.00581952,-0.1706,0,0.5348,362288,4.43605e+06,2440.5,-0.440313,-0.0489973,-0.820893,4.29691e-05,-0.00175416,0.000852733,-0.000254537,0.0143069,4.30697e-05,0.0457113,0.911777,0.144214,0.7674,1620826364785993192
58.3058,-0.00136702,0.258112,-0.000254747,0.0142849,-1.59255e-05,0.00484642,0.0324439,1.70227,-0.00581952,-0.1706,0,0.5348,362289,4.43605e+06,2440.52,-0.44239,-0.0491889,-0.81884,7.20331e-05,-0.00176243,0.000824909,-0.000253017,0.0142848,5.33329e-05,0.0457765,0.911707,0.144182,0.7674,1620826364795957904
58.3008,-0.00149436,0.258311,-0.000253744,0.0142652,-6.95158e-06,0.00484362,0.0326024,1.70227,-0.00581571,-0.1706,0,0.5348,362289,4.43605e+06,2440.54,-0.44379,-0.0492831,-0.817468,7.68376e-05,-0.00176938,0.000803647,-0.000251717,0.0142651,6.21767e-05,0.0458134,0.911661,0.14416,0.7674,1620826364805925261
58.2947,-0.00167126,0.258549,-0.000252685,0.0142417,3.53597e-06,0.0048403,0.0327911,1.70227,-0.00581235,-0.1706,0,0.5348,362290,4.43605e+06,2440.57,-0.445206,-0.0493641,-0.816067,6.64574e-05,-0.00177538,0.000785363,-0.000250307,0.0142416,7.25089e-05,0.0458456,0.911613,0.144139,0.7674,1620826364815925991
58.2914,-0.00175676,0.258678,-0.00025201,0.0142289,9.11144e-06,0.0048385,0.0328936,1.70227,-0.00580836,-0.1706,0,0.5348,362290,4.43605e+06,2440.59,-0.445975,-0.0494066,-0.8153,5.827e-05,-0.00178276,0.000762645,-0.000249444,0.0142287,7.8e-05,0.045884,0.911558,0.144115,0.7674,1620826364825923091
58.2881,-0.00185772,0.258807,-0.00025159,0.0142161,1.46017e-05,0.00483671,0.0329959,1.70227,-0.0058062,-0.1706,0,0.5348,362291,4.43605e+06,2440.6,-0.446816,-0.0494606,-0.814466,5.827e-05,-0.00178276,0.000762645,-0.000248839,0.0142159,8.34059e-05,0.045884,0.911558,0.144115,0.7674,1620826364835925913
58.2821,-0.00204711,0.259041,-0.000250569,0.014193,2.41861e-05,0.00483351,0.0331794,1.70227,-0.00580406,-0.1706,0,0.5348,362292,4.43605e+06,2440.63,-0.448419,-0.0495611,-0.812867,6.22751e-05,-0.00179004,0.000734915,-0.000247489,0.0141927,9.28386e-05,0.0459257,0.911503,0.144092,0.7674,1620826364845974254
58.2748,-0.0022769,0.259329,-0.000250292,0.0141644,3.55884e-05,0.00482958,0.0334049,1.70227,-0.00580406,-0.1706,0,0.5348,362293,4.43605e+06,2440.66,-0.45008,-0.0496434,-0.811197,5.33206e-06,-0.00179715,0.000708468,-0.000246816,0.0141641,0.000104054,0.0459248,0.911445,0.144069,0.7674,1620826364855979828
58.2748,-0.0022769,0.259329,-0.000250292,0.0141644,3.55884e-05,0.00482958,0.0334049,1.70227,-0.0057955,-0.1706,0,0.5348,362293,4.43605e+06,2440.66,-0.45008,-0.0496434,-0.811197,5.33206e-06,-0.00179715,0.000708468,-0.000246816,0.0141641,0.000104054,0.0459248,0.911445,0.144069,0.7674,1620826364865988850
58.2672,-0.00251056,0.259625,-0.000248866,0.0141349,4.6798e-05,0.00482556,0.0336363,1.70227,-0.0057955,-0.1706,0,0.5348,362293,4.43605e+06,2440.69,-0.451949,-0.0497542,-0.809312,6.66817e-05,-0.00180431,0.000677995,-0.000244996,0.0141345,0.000115071,0.0460094,0.91138,0.144043,0.7674,1620826364875976885
58.2672,-0.00251056,0.259625,-0.000248866,0.0141349,4.6798e-05,0.00482556,0.0336363,1.70227,-0.00579067,-0.1706,0,0.5348,362293,4.43605e+06,2440.69,-0.451949,-0.0497542,-0.809312,6.66817e-05,-0.00180431,0.000677995,-0.000244996,0.0141345,0.000115071,0.0460094,0.91138,0.144043,0.7674,1620826364885960941
58.2594,-0.00277791,0.259931,-0.000247421,0.0141046,5.7676e-05,0.00482149,0.0338725,1.70228,-0.00579067,-0.1706,0,0.5348,362294,4.43605e+06,2440.73,-0.453862,-0.0498537,-0.807364,6.64717e-05,-0.0018123,0.000640057,-0.000243162,0.0141042,0.000125752,0.0460557,0.911313,0.144019,0.7674,1620826364895951315
58.2594,-0.00277791,0.259931,-0.000247421,0.0141046,5.7676e-05,0.00482149,0.0338725,1.70228,-0.00578578,-0.1706,0,0.5348,362294,4.43605e+06,2440.73,-0.453862,-0.0498537,-0.807364,6.64717e-05,-0.0018123,0.000640057,-0.000243162,0.0141042,0.000125752,0.0460557,0.911313,0.144019,0.7674,1620826364905956575
58.2505,-0.00307856,0.260274,-0.000245951,0.0140704,6.92316e-05,0.00481693,0.0341379,1.70228,-0.00578578,-0.1706,0,0.5348,362296,4.43605e+06,2440.77,-0.4559,-0.0499573,-0.805276,5.56399e-05,-0.00182066,0.000602648,-0.000241272,0.0140699,0.000137086,0.0461027,0.91124,0.143994,0.7674,1620826364915991839
58.2439,-0.00331484,0.260538,-0.000244677,0.0140444,7.73233e-05,0.00481352,0.0343373,1.70228,-0.00578031,-0.1706,0,0.5348,362296,4.43605e+06,2440.8,-0.457825,-0.0500814,-0.803303,6.98352e-05,-0.00182922,0.000561667,-0.000239698,0.0140439,0.000145011,0.0461557,0.911173,0.143972,0.7674,1620826364926010593
58.2439,-0.00331484,0.260538,-0.000244677,0.0140444,7.73233e-05,0.00481352,0.0343373,1.70228,-0.00577622,-0.1706,0,0.5348,362296,4.43605e+06,2440.8,-0.457825,-0.0500814,-0.803303,6.98352e-05,-0.00182922,0.000561667,-0.000239698,0.0140439,0.000145011,0.0461557,0.911173,0.143972,0.7674,1620826364935924800
58.236,-0.00360244,0.260847,-0.000243314,0.0140138,8.62586e-05,0.00480955,0.034571,1.70228,-0.00577622,-0.1706,0,0.5348,362297,4.43605e+06,2440.83,-0.459576,-0.0501595,-0.801488,6.3523e-05,-0.0018368,0.000525774,-0.000238,0.0140133,0.00015375,0.0461949,0.91111,0.143953,0.7674,1620826364945959706
58.2275,-0.00391542,0.261181,-0.000241895,0.0139808,9.5144e-05,0.00480531,0.0348217,1.70229,-0.00577146,-0.1706,0,0.5348,362298,4.43605e+06,2440.87,-0.461542,-0.0502566,-0.799442,5.78444e-05,-0.00184467,0.000485406,-0.000236241,0.0139802,0.000162423,0.0462407,0.911039,0.143934,0.7674,1620826364955952010
58.2275,-0.00391542,0.261181,-0.000241895,0.0139808,9.5144e-05,0.00480531,0.0348217,1.70229,-0.00576637,-0.1706,0,0.5348,362298,4.43605e+06,2440.87,-0.461542,-0.0502566,-0.799442,5.78444e-05,-0.00184467,0.000485406,-0.000236241,0.0139802,0.000162423,0.0462407,0.911039,0.143934,0.7674,1620826364965939910
58.2182,-0.00426365,0.261544,-0.000240357,0.0139447,0.000103921,0.00480073,0.0350937,1.70229,-0.00576637,-0.1706,0,0.5348,362299,4.43605e+06,2440.91,-0.46366,-0.0503526,-0.797218,5.58118e-05,-0.0018524,0.000438282,-0.000234359,0.0139441,0.00017097,0.0462896,0.910962,0.143914,0.7674,1620826364975926241
58.2182,-0.00426365,0.261544,-0.000240357,0.0139447,0.000103921,0.00480073,0.0350937,1.70229,-0.00576087,-0.1706,0,0.5348,362299,4.43605e+06,2440.91,-0.46366,-0.0503526,-0.797218,5.58118e-05,-0.0018524,0.000438282,-0.000234359,0.0139441,0.00017097,0.0462896,0.910962,0.143914,0.7674,1620826364985947693
58.2082,-0.00463775,0.261933,-0.000238754,0.013906,0.000112278,0.00479588,0.0353836,1.70229,-0.00576087,-0.1706,0,0.5348,362301,4.43605e+06,2440.96,-0.465935,-0.0504596,-0.794819,5.27384e-05,-0.00186124,0.000387889,-0.000232419,0.0139053,0.00017908,0.0463424,0.910878,0.143895,0.7674,1620826364995925921
58.2082,-0.00463775,0.261933,-0.000238754,0.013906,0.000112278,0.00479588,0.0353836,1.70229,-0.00575505,-0.1706,0,0.5348,362301,4.43605e+06,2440.96,-0.465935,-0.0504596,-0.794819,0.000108016,-0.00186513,0.000357323,-0.000232419,0.0139053,0.00017908,0.0464001,0.910834,0.143886,0.7674,1620826365005928536
58.2031,-0.00484183,0.26214,-0.000237775,0.013886,0.000116034,0.0047934,0.0355324,1.70229,-0.00575505,-0.1706,0,0.5348,362301,4.43605e+06,2440.98,-0.467768,-0.0506009,-0.79287,7.48393e-05,-0.00187091,0.000343866,-0.000231284,0.0138853,0.000182709,0.0463992,0.910812,0.143882,0.7674,1620826365015916014
58.1959,-0.00512541,0.262425,-0.000236573,0.0138581,0.000120803,0.00478998,0.0357383,1.7023,-0.00575208,-0.1706,0,0.5348,362302,4.43605e+06,2441.01,-0.469183,-0.050647,-0.791374,6.51055e-05,-0.00187774,0.000311413,-0.000229881,0.0138574,0.000187301,0.0464275,0.91076,0.143872,0.7674,1620826365026018759
58.1959,-0.00512541,0.262425,-0.000236573,0.0138581,0.000120803,0.00478998,0.0357383,1.7023,-0.00574797,-0.1706,0,0.5348,362302,4.43605e+06,2441.01,-0.469183,-0.050647,-0.791374,6.51055e-05,-0.00187774,0.000311413,-0.000229881,0.0138574,0.000187301,0.0464275,0.91076,0.143872,0.7674,1620826365035955719
58.1871,-0.00547443,0.262773,-0.000235184,0.0138238,0.000125894,0.00478581,0.0359904,1.7023,-0.00574797,-0.1706,0,0.5348,362303,4.43605e+06,2441.05,-0.471019,-0.050715,-0.7894,5.67649e-05,-0.00188529,0.000267586,-0.000228269,0.0138231,0.000192175,0.0464668,0.910691,0.143861,0.7674,1620826365045924999
58.1799,-0.00576495,0.263062,-0.000233977,0.0137956,0.000129357,0.00478242,0.0361965,1.7023,-0.00574297,-0.1706,0,0.5348,362304,4.43605e+06,2441.08,-0.472888,-0.0508208,-0.787394,6.06193e-05,-0.0018943,0.000222659,-0.000226904,0.0137948,0.000195459,0.0465151,0.910622,0.143852,0.7674,1620826365055997459
58.1799,-0.00576495,0.263062,-0.000233977,0.0137956,0.000129357,0.00478242,0.0361965,1.7023,-0.0057389,-0.1706,0,0.5348,362304,4.43605e+06,2441.08,-0.472888,-0.0508208,-0.787394,6.06193e-05,-0.0018943,0.000222659,-0.000226904,0.0137948,0.000195459,0.0465151,0.910622,0.143852,0.7674,1620826365065964422
58.1717,-0.00608477,0.263386,-0.000232776,0.0137637,0.000132577,0.00477863,0.0364275,1.70231,-0.0057389,-0.1706,0,0.5348,362305,4.43605e+06,2441.12,-0.474642,-0.0508976,-0.785486,5.18362e-05,-0.0019024,0.000181989,-0.000225547,0.0137629,0.000198479,0.0465542,0.910555,0.143844,0.7674,1620826365075993194
58.1717,-0.00608477,0.263386,-0.000232776,0.0137637,0.000132577,0.00477863,0.0364275,1.70231,-0.00573435,-0.1706,0,0.5348,362305,4.43605e+06,2441.12,-0.474642,-0.0508976,-0.785486,5.18362e-05,-0.0019024,0.000181989,-0.000225547,0.0137629,0.000198479,0.0465542,0.910555,0.143844,0.7674,1620826365085989429
58.1633,-0.00642351,0.263721,-0.000231579,0.0137307,0.000135124,0.00477475,0.036665,1.70231,-0.00573435,-0.1706,0,0.5348,362306,4.43605e+06,2441.16,-0.476528,-0.0509849,-0.783431,4.60972e-05,-0.00191054,0.000136685,-0.000224218,0.0137299,0.000200818,0.0465981,0.910483,0.143838,0.7674,1620826365095991965
58.1545,-0.0067647,0.264067,-0.000230381,0.0136966,0.0001369,0.00477077,0.0369091,1.70231,-0.0057297,-0.1706,0,0.5348,362307,4.43605e+06,2441.2,-0.478464,-0.0510709,-0.781294,4.68824e-05,-0.00191818,8.80227e-05,-0.000222913,0.0136958,0.000202379,0.0466431,0.910409,0.143833,0.7674,1620826365107764884
58.1545,-0.0067647,0.264067,-0.000230381,0.0136966,0.0001369,0.00477077,0.0369091,1.70231,-0.00572492,-0.1706,0,0.5348,362307,4.43605e+06,2441.2,-0.478464,-0.0510709,-0.781294,4.68824e-05,-0.00191818,8.80227e-05,-0.000222913,0.0136958,0.000202379,0.0466431,0.910409,0.143833,0.7674,1620826365115952343
